Date,Log_Address,Log_Reason,Normalized_Reason,lat,long,Normalized_Address
2024/02/12 00:06:00,"[NAT 4188] EXPONENT AND SHELL - 1075 WORCESTER ST","ALARM, BURGLAR P - ALARM BLDG Chk Secure","ALARM",42.299359,-71.365965,"1075 WORCESTER ST, NATICK, MA, 01760"
2024/02/12 00:19:00,"[NAT 954] THE VERVE HOTEL - 1360 WORCESTER ST","SUSPICIOUS ACTIVITY Unable to Locate","SUSPICIOUS ACTIVITY",42.298777,-71.391301,"1360 WORCESTER ST, NATICK, MA, 01760"
2024/02/12 08:43:00,"[FRA] 600 CONCORD ST","ESCORT/ TRANSPORT P - Services Rendered","ESCORT/",42.292559,-71.409285,"600 CONCORD ST, FRAMINGHAM, MA, 01702"
2024/02/12 09:04:00,"[NAT 75] NATICK- WELLESLEY VETERINARY HOSPITAL - 359 WORCESTER ST","Animals (Other) P - Services Rendered","ANIMALS",42.314806,-71.267133,"359 WORCESTER ST, WELLESLEY HILLS, MA, 02481"
2024/02/12 09:14:00,"171 HARTFORD ST","MOTOR VEHICLE STOP SUMMONS REQUEST","MOTOR VEHICLE STOP",42.291410,-71.397313,"171 HARTFORD ST, NATICK, MA, 01760"
2024/02/12 09:35:00,"28 FLORENCE ST","ALARM, BURGLAR P - ALARM BLDG Chk Secure","ALARM",42.289430,-71.344072,"28 FLORENCE ST, NATICK, MA, 01760"
2024/02/12 09:38:00,"S AND Z PROPERTIES - 264 NORTH MAIN ST","ALARM, BURGLAR P - ALARM BLDG Chk Secure","ALARM",42.307221,-71.361863,"264 N MAIN ST, NATICK, MA, 01760"
2024/02/12 10:11:00,"[NAT 2005] MARY ANN MORSE NURSING CENTER - 45 UNION ST","ASSAULT Report to be filed","ASSAULT",42.283203,-71.336260,"45 UNION ST, NATICK, MA, 01760"
2024/02/12 10:11:00,"45 FELCH RD","F - MVA with Injury Arrest(s) Made","MOTOR VEHICLE CRASH",42.311956,-71.355546,"45 FELCH RD, NATICK, MA, 01760"
2024/02/12 10:14:00,"31 BODEN LN","MOTOR VEHICLE STOP Citation/ Warning Issued","MOTOR VEHICLE STOP",42.282350,-71.390783,"31 BODEN LN, NATICK, MA, 01760"
2024/02/12 10:44:00,"313 SPEEN ST ","MOTOR VEHICLE CRASH Report to be filed","MOTOR VEHICLE CRASH",42.300998,-71.379934,"313 SPEEN ST, NATICK, MA, 01760"
2024/02/12 13:29:00,"56 HARTFORD ST","MOTOR VEHICLE STOP SUMMONS REQUEST","MOTOR VEHICLE STOP",42.293403,-71.385053,"56 HARTFORD ST, NATICK, MA, 01760"
2024/02/12 13:53:00,"309 BACON ST","COMPLAINT P - Services Rendered","COMPLAINT",42.298121,-71.363915,"309 BACON ST, NATICK, MA, 01760"
2024/02/12 14:05:00,"[FRA] 600 CONCORD ST","ESCORT/ TRANSPORT P - Services Rendered","ESCORT/",42.292559,-71.409285,"600 CONCORD ST, FRAMINGHAM, MA, 01702"
2024/02/12 15:06:00,"155 HARTFORD ST ","MOTOR VEHICLE STOP Arrest(s) Made","MOTOR VEHICLE STOP",42.290774,-71.393834,"155 HARTFORD ST, NATICK, MA, 01760"
2024/02/12 15:46:00,"31 WINNEMAY ST","NEIGHBOR DISPUTE Report to be filed","NEIGHBOR DISPUTE",42.289575,-71.349233,"31 WINNEMAY ST, NATICK, MA, 01760"
2024/02/12 19:14:00,"[NAT 4387] LUCID MOTORS - 1245 WORCESTER ST","ALARM, BURGLAR P - ALARM SET OFF IN ERROR","ALARM",42.299500,-71.377749,"1245 WORCESTER ST, NATICK, MA, 01760"
2024/02/12 20:05:00,"27 VILLAGE ROCK LN Apt. #18","F - Well Being Check F - Transport-Hospital","Well Being Check",42.278434,-71.394782,"27 VILLAGE ROCK LN, NATICK, MA, 01760"
2024/02/12 20:43:00,"19 GREENLEAF RD","NOISE COMPLAINT P - Services Rendered","NOISE COMPLAINT",42.288526,-71.392931,"19 GREENLEAF RD, NATICK, MA, 01760"
2024/02/12 22:50:00,"183 HARTFORD ST ","MOTOR VEHICLE STOP Citation/ Warning Issued","MOTOR VEHICLE STOP",42.291993,-71.398702,"183 HARTFORD ST, NATICK, MA, 01760"
2024/02/12 23:09:00,"183 HARTFORD ST ","MOTOR VEHICLE STOP Citation/ Warning Issued","MOTOR VEHICLE STOP",42.291993,-71.398702,"183 HARTFORD ST, NATICK, MA, 01760"
2024/02/12 23:16:00,"74 HARTFORD ST","MOTOR VEHICLE STOP Citation/ Warning Issued","MOTOR VEHICLE STOP",42.290097,-71.406091,"74 HARTFORD ST, FRAMINGHAM, MA, 01702"
2024/02/12 23:32:00,"190 MILL ST ","MOTOR VEHICLE STOP Citation/ Warning Issued","MOTOR VEHICLE STOP",42.291120,-71.388084,"190 MILL ST, NATICK, MA, 01760"
2024/02/13 04:11:00,"[NAT 3585] 17 BACON ST - 17 BACON ST","SUSPICIOUS ACTIVITY P - Services Rendered","SUSPICIOUS ACTIVITY",42.294334,-71.324496,"17 BACON ST, NATICK, MA, 01760"
2024/02/13 08:52:00,"[NAT 1491] 8 FLORAL AVE - 8 FLORAL AVE","SUSPICIOUS ACTIVITY P - Services Rendered","SUSPICIOUS ACTIVITY",42.279231,-71.351823,"8 FLORAL AVE, NATICK, MA, 01760"
2024/02/13 09:21:00,"[NAT 1831] PETAL PUSHER FLORISTS - 325 NORTH MAIN ST","F - Structure Fire F - Services Provided","Structure Fire",42.313549,-71.360260,"325 N MAIN ST, NATICK, MA, 01760"
2024/02/13 09:23:00,"4 LODGE LN","LARCENY / FORGERY/ FRAUD Report to be filed","LARCENY / FORGERY/ FRAUD",42.291378,-71.376248,"4 LODGE LN, NATICK, MA, 01760"
2024/02/13 10:29:00,"107B SPEEN ST","Animals (Other) P - Services Rendered","ANIMALS",42.279101,-71.376252,"107B SPEEN ST, NATICK, MA, 01760"
2024/02/13 11:00:00,"[NAT 2150] GLENWOOD CEMETARY - 1 GLENWOOD ST","LARCENY / FORGERY/ FRAUD Report to be filed","LARCENY / FORGERY/ FRAUD",42.265518,-71.315596,"1 GLENWOOD ST, NATICK, MA, 01760"
2024/02/13 11:36:00,"160 WEST CENTRAL ST ","MOTOR VEHICLE CRASH Report to be filed","MOTOR VEHICLE CRASH",42.282474,-71.378819,"160 W CENTRAL ST, NATICK, MA, 01760"
2024/02/13 12:24:00,"144 WORCESTER ST ","MOTOR VEHICLE CRASH Merge: 24-2729 By: 41598","MOTOR VEHICLE CRASH",42.303171,-71.333234,"144 WORCESTER ST, NATICK, MA, 01760"
2024/02/13 12:26:00,"144 WORCESTER ST ","MOTOR VEHICLE CRASH SUMMONS REQUEST","MOTOR VEHICLE CRASH",42.303171,-71.333234,"144 WORCESTER ST, NATICK, MA, 01760"
2024/02/13 13:27:00,"LAUNDROMAT - 148 EAST CENTRAL ST","FOUND/ LOST PROPERTY P - Services Rendered","FOUND/ LOST PROPERTY",42.287028,-71.335369,"148 E CENTRAL ST, NATICK, MA, 01760"
2024/02/13 13:40:00,"52 COTTAGE ST","F - Wire Down F - Services Provided","Wire Down",42.275494,-71.345766,"52 COTTAGE ST, NATICK, MA, 01760"
2024/02/13 16:40:00,"[NAT 1986] SUNGLASS HUT - 1245 WORCESTER ST Apt. #2024","SHOPLIFTING Report to be filed","SHOPLIFTING",42.299500,-71.377749,"1245 WORCESTER ST, NATICK, MA, 01760"
2024/02/13 17:46:00,"[NAT 2893] DICK'S SPORTING GOODS - 1336 WORCESTER ST","MOTOR VEHICLE STOP Citation/ Warning Issued","MOTOR VEHICLE STOP",42.298917,-71.387301,"1336 WORCESTER ST, NATICK, MA, 01760"
2024/02/13 20:12:00,"205 SPEEN ST ","MOTOR VEHICLE STOP Citation/ Warning Issued","MOTOR VEHICLE STOP",42.291260,-71.376223,"205 SPEEN ST, NATICK, MA, 01760"
2024/02/13 22:27:00,"159 BODEN LN ","F - Investigation F - Services Provided","Investigation",42.286111,-71.391937,"159 BODEN LN, NATICK, MA, 01760"
2024/02/13 22:30:00,"242 SPEEN ST ","MOTOR VEHICLE STOP Citation/ Warning Issued","MOTOR VEHICLE STOP",42.294937,-71.376894,"242 SPEEN ST, NATICK, MA, 01760"
2024/02/13 22:48:00,"319 SPEEN ST","MOTOR VEHICLE STOP Citation/ Warning Issued","MOTOR VEHICLE STOP",42.301009,-71.379941,"319 SPEEN ST, NATICK, MA, 01760"
2024/02/13 23:17:00,"124 HARTFORD ST ","MOTOR VEHICLE STOP SUMMONS REQUEST","MOTOR VEHICLE STOP",42.291619,-71.390154,"124 HARTFORD ST, NATICK, MA, 01760"
2024/02/14 08:12:00,"[NAT 4368] GOLFTEC - 1400 WORCESTER ST","ALARM, BURGLAR P - ALARM SET OFF IN ERROR","ALARM",42.298767,-71.391565,"1400 WORCESTER ST, NATICK, MA, 01760"
2024/02/14 08:46:00,"[NAT 3162] ST PATRICK'S SCHOOL - 45 EAST CENTRAL ST","MOTOR VEHICLE CRASH Report to be filed","MOTOR VEHICLE CRASH",42.284327,-71.344056,"45 E CENTRAL ST, NATICK, MA, 01760"
2024/02/14 09:02:00,"[NAT 3879] BERNARDI AUDI - 549 WORCESTER ST","MOTOR VEHICLE STOP Citation/ Warning Issued","MOTOR VEHICLE STOP",42.309143,-71.284371,"549 WORCESTER ST, WELLESLEY HILLS, MA, 02481"
2024/02/14 10:01:00," 1 BARNESDALE RD","MOTOR VEHICLE STOP Citation/ Warning Issued","MOTOR VEHICLE STOP",42.295216,-71.380651,"1 BARNESDALE RD, NATICK, MA, 01760"
2024/02/14 10:11:00,"[NAT 963] HAMPTON INN - 319 SPEEN ST","SERVE SUMMONS UNABLE TO SERVE","SERVE SUMMONS",42.301009,-71.379941,"319 SPEEN ST, NATICK, MA, 01760"
2024/02/14 13:02:00,"PARKING DECK C - 1245 WORCESTER ST","SUSPICIOUS ACTIVITY Gone On Arrival","SUSPICIOUS ACTIVITY",42.299500,-71.377749,"1245 WORCESTER ST, NATICK, MA, 01760"
2024/02/14 13:09:00,"10 VILLAGE GREEN LN Apt. #15","SUSPICIOUS ACTIVITY Report to be filed","SUSPICIOUS ACTIVITY",42.281097,-71.391754,"10 VILLAGE GREEN LN, NATICK, MA, 01760"
2024/02/14 13:19:00,"5 LIBBY RD","LARCENY / FORGERY/ FRAUD Report to be filed","LARCENY / FORGERY/ FRAUD",42.275803,-71.328597,"5 LIBBY RD, NATICK, MA, 01760"
2024/02/14 13:32:00,"15 EUCLID AVE","SERVE SUMMONS SERVED IN-HAND","SERVE SUMMONS",42.307082,-71.337610,"15 EUCLID AVE, NATICK, MA, 01760"
2024/02/14 14:14:00,"691 WORCESTER ST ","MOTOR VEHICLE STOP Citation/ Warning Issued","MOTOR VEHICLE STOP",42.306156,-71.296741,"691 WORCESTER ST, WELLESLEY HILLS, MA, 02481"
2024/02/14 14:24:00,"133 HARTFORD ST ","MOTOR VEHICLE STOP SUMMONS REQUEST","MOTOR VEHICLE STOP",42.291563,-71.390724,"133 HARTFORD ST, NATICK, MA, 01760"
2024/02/14 14:26:00,"[NAT 4049] ROCHE BOBOIS - 395 WORCESTER ST","MOTOR VEHICLE STOP Citation/ Warning Issued","MOTOR VEHICLE STOP",42.314564,-71.269575,"395 WORCESTER ST, WELLESLEY HILLS, MA, 02481"
2024/02/14 14:53:00,"[NAT 963] HAMPTON INN - 319 SPEEN ST","SERVE SUMMONS SERVED IN-HAND","SERVE SUMMONS",42.301009,-71.379941,"319 SPEEN ST, NATICK, MA, 01760"
2024/02/14 14:56:00,"8 ARLINGTON CIR","LARCENY / FORGERY/ FRAUD Report to be filed","LARCENY / FORGERY/ FRAUD",42.305728,-71.339280,"8 ARLINGTON CIR, NATICK, MA, 01760"
2024/02/14 14:59:00,"25 WASHINGTON ST ","MOTOR VEHICLE STOP Citation/ Warning Issued","MOTOR VEHICLE STOP",42.285324,-71.346353,"25 WASHINGTON ST, NATICK, MA, 01760"
2024/02/14 15:30:00,"190 NORTH MAIN ST","MOTOR VEHICLE STOP Citation/ Warning Issued","MOTOR VEHICLE STOP",42.298626,-71.359458,"190 N MAIN ST, NATICK, MA, 01760"
2024/02/14 16:40:00,"120 HARTFORD ST ","MOTOR VEHICLE CRASH Report to be filed","MOTOR VEHICLE CRASH",42.291854,-71.389420,"120 HARTFORD ST, NATICK, MA, 01760"
2024/02/14 17:13:00,"[NAT 869] ROCHE BROS SUPERMARKET - 150 WEST CENTRAL ST","MOTOR VEHICLE STOP Citation/ Warning Issued","MOTOR VEHICLE STOP",42.282483,-71.378214,"150 W CENTRAL ST, NATICK, MA, 01760"
2024/02/14 17:43:00,"[NAT 869] ROCHE BROS SUPERMARKET - 150 WEST CENTRAL ST","MOTOR VEHICLE STOP Citation/ Warning Issued","MOTOR VEHICLE STOP",42.282483,-71.378214,"150 W CENTRAL ST, NATICK, MA, 01760"
2024/02/14 17:50:00,"[NAT 1452] TOBIN AFTERSCHOOL - 73 COTTAGE ST","LOCKOUT (VEHICLE) P - Services Rendered","LOCKOUT",42.272677,-71.345452,"73 COTTAGE ST, NATICK, MA, 01760"
2024/02/14 17:57:00,"[NAT 869] ROCHE BROS SUPERMARKET - 150 WEST CENTRAL ST","MOTOR VEHICLE STOP Citation/ Warning Issued","MOTOR VEHICLE STOP",42.282483,-71.378214,"150 W CENTRAL ST, NATICK, MA, 01760"
2024/02/14 18:21:00,"[NAT 869] ROCHE BROS SUPERMARKET - 150 WEST CENTRAL ST","MOTOR VEHICLE STOP Citation/ Warning Issued","MOTOR VEHICLE STOP",42.282483,-71.378214,"150 W CENTRAL ST, NATICK, MA, 01760"
2024/02/14 18:31:00,"[NAT 869] ROCHE BROS SUPERMARKET - 150 WEST CENTRAL ST","MOTOR VEHICLE STOP Citation/ Warning Issued","MOTOR VEHICLE STOP",42.282483,-71.378214,"150 W CENTRAL ST, NATICK, MA, 01760"
2024/02/14 18:37:00,"17 WALDEN DR Apt. #2","SERVE SUMMONS UNABLE TO SERVE","SERVE SUMMONS",42.276787,-71.387309,"17 WALDEN DR, NATICK, MA, 01760"
2024/02/14 19:36:00,"[NAT 941] VALVOLINE INSTANT OIL CHANGE - 891 WORCESTER ST","MOTOR VEHICLE STOP Citation/ Warning Issued","MOTOR VEHICLE STOP",42.305265,-71.315556,"891 WORCESTER ST, WELLESLEY, MA, 02482"
2024/02/14 20:01:00,"180 NORTH MAIN ST","MOTOR VEHICLE STOP Citation/ Warning Issued","MOTOR VEHICLE STOP",42.298192,-71.359351,"180 N MAIN ST, NATICK, MA, 01760"
2024/02/14 20:15:00,"120 CEDAR TER Apt. #A","SUSPICIOUS ACTIVITY P - Services Rendered","SUSPICIOUS ACTIVITY",42.273087,-71.355588,"120 CEDAR TER, NATICK, MA, 01760"
2024/02/14 21:13:00,"[NAT 920] NATICK MALL (MALL I) - 1245 WORCESTER ST","M/ V CRASH/ Hit & Run Report to be filed","MOTOR VEHICLE CRASH",42.299500,-71.377749,"1245 WORCESTER ST, NATICK, MA, 01760"
2024/02/14 23:30:00,"DRIS CORPORATION - 16 TECH CIR","ALARM, BURGLAR P - ALARM BLDG Chk Secure","ALARM",42.313778,-71.337926,"16 TECH CIR, NATICK, MA, 01760"
2024/02/15 00:29:00,"4 TIBBETTS ST","LARCENY / FORGERY/ FRAUD Report to be filed","LARCENY / FORGERY/ FRAUD",42.286830,-71.343055,"4 TIBBETTS ST, NATICK, MA, 01760"
2024/02/15 00:41:00,"[NAT 3728] PLANET FITNESS - 215 WEST CENTRAL ST","MOTOR VEHICLE STOP Citation/ Warning Issued","MOTOR VEHICLE STOP",42.281997,-71.390006,"215 W CENTRAL ST, NATICK, MA, 01760"
2024/02/15 03:48:00,"[NAT 4184] DAVE AND BUSTERS-2ND FLOOR - 1235 WORCESTER ST Apt. #200","ALARM, BURGLAR P - ALARM BLDG Chk Secure","ALARM",42.299493,-71.377519,"1235 WORCESTER ST, NATICK, MA, 01760"
2024/02/15 06:55:00,"[NAT 4184] DAVE AND BUSTERS-2ND FLOOR - 1235 WORCESTER ST Apt. #200","ALARM, BURGLAR P - ALARM BLDG Chk Secure","ALARM",42.299493,-71.377519,"1235 WORCESTER ST, NATICK, MA, 01760"
2024/02/15 09:10:00,"[NAT 74] WENDY'S - 355 WORCESTER ST","MOTOR VEHICLE STOP Citation/ Warning Issued","MOTOR VEHICLE STOP",42.314808,-71.267098,"355 WORCESTER ST, WELLESLEY HILLS, MA, 02481"
2024/02/15 09:20:00,"3 BLUEBERRY HILL RD ","MOTOR VEHICLE STOP Citation/ Warning Issued","MOTOR VEHICLE STOP",42.290799,-71.393833,"3 BLUEBERRY HILL RD, NATICK, MA, 01760"
2024/02/15 09:42:00,"160 WEST CENTRAL ST ","MOTOR VEHICLE STOP SUMMONS REQUEST","MOTOR VEHICLE STOP",42.282474,-71.378819,"160 W CENTRAL ST, NATICK, MA, 01760"
2024/02/15 11:05:00,"[FRA] KENS STEAK HOUSE - 95 WORCESTER RD","MOTOR VEHICLE STOP Citation/ Warning Issued","MOTOR VEHICLE STOP",42.304116,-71.330156,"95 WORCESTER ST, NATICK, MA, 01760"
2024/02/15 11:09:00,"[NAT 25] RAMP FROM RT9 WEST TO NORTH MAIN ST SOUTH - RAMP - RT9 WB TO RT27 SB","DISABLED M/V P - Services Rendered","DISABLED M/V",42.286082,-71.348580,"9 N MAIN ST, NATICK, MA, 01760"
2024/02/15 11:17:00,"11 STACEY ST","LARCENY / FORGERY/ FRAUD Report to be filed","LARCENY / FORGERY/ FRAUD",42.281970,-71.384545,"11 STACEY ST, NATICK, MA, 01760"
2024/02/15 11:26:00,"[NAT 312] 42 EAST EVERGREEN RD - 42 EAST EVERGREEN RD","ALARM, BURGLAR P - ALARM SET OFF IN ERROR","ALARM",42.305536,-71.355811,"42 E EVERGREEN RD, NATICK, MA, 01760"
2024/02/15 12:00:00,"[NAT 271] O B HILL TRUCKING & RIGGING COMPANY - 197 WEST CENTRAL ST","LARCENY / FORGERY/ FRAUD Report to be filed","LARCENY / FORGERY/ FRAUD",42.282015,-71.389705,"197 W CENTRAL ST, NATICK, MA, 01760"
2024/02/15 12:11:00,"[NAT 3879] BERNARDI AUDI - 549 WORCESTER ST","MOTOR VEHICLE STOP Citation/ Warning Issued","MOTOR VEHICLE STOP",42.309143,-71.284371,"549 WORCESTER ST, WELLESLEY HILLS, MA, 02481"
2024/02/15 12:48:00,"34 HIGH ST","Animals (Other) P - Services Rendered","ANIMALS",42.279475,-71.353779,"34 HIGH ST, NATICK, MA, 01760"
2024/02/15 13:05:00,"25 WEST CENTRAL ST","MOTOR VEHICLE STOP Citation/ Warning Issued","MOTOR VEHICLE STOP",42.283594,-71.349349,"25 W CENTRAL ST, NATICK, MA, 01760"
2024/02/15 13:39:00,"17 WALDEN DR","SERVE SUMMONS UNABLE TO SERVE","SERVE SUMMONS",42.276787,-71.387309,"17 WALDEN DR, NATICK, MA, 01760"
2024/02/15 13:49:00,"99 OAK ST","MOTOR VEHICLE STOP Citation/ Warning Issued","MOTOR VEHICLE STOP",42.305492,-71.332428,"99 OAK ST, NATICK, MA, 01760"
2024/02/15 14:10:00,"164 MILL ST","MOTOR VEHICLE STOP SUMMONS REQUEST","MOTOR VEHICLE STOP",42.289061,-71.385185,"164 MILL ST, NATICK, MA, 01760"
2024/02/15 14:11:00,"[NAT 2769] DUNKIN DONUTS - 50 EAST CENTRAL ST","ALARM, BURGLAR P - ALARM SET OFF IN ERROR","ALARM",42.284719,-71.342658,"50 E CENTRAL ST, NATICK, MA, 01760"
2024/02/15 16:15:00,"[NAT 396] AGOSTINOS - 23 WASHINGTON ST","M/ V CRASH/ PRIVATE PROPERTY P - Services Rendered","MOTOR VEHICLE CRASH",42.285273,-71.346337,"23 WASHINGTON ST, NATICK, MA, 01760"
2024/02/15 16:55:00,"[NAT 3019] MACY'S - 1247 WORCESTER ST","SHOPLIFTING Arrest(s) Made","SHOPLIFTING",42.299501,-71.377795,"1247 WORCESTER ST, NATICK, MA, 01760"
2024/02/15 21:26:00,"27 WEST CENTRAL ST","ERRATIC OPERATOR P - Services Rendered","ERRATIC OPERATOR",42.283573,-71.349515,"27 W CENTRAL ST, NATICK, MA, 01760"
2024/02/16 01:53:00,"[NAT 68] MCDONALDS, RT 9 EASTBOUND - 290 WORCESTER ST","MOTOR VEHICLE STOP Citation/ Warning Issued","MOTOR VEHICLE STOP",42.301963,-71.340499,"290 WORCESTER ST, NATICK, MA, 01760"
2024/02/16 04:06:00,"17 VILLAGE ROCK LN Apt. #22","NOISE COMPLAINT P - Services Rendered","NOISE COMPLAINT",42.278503,-71.394579,"17 VILLAGE ROCK LN, NATICK, MA, 01760"
2024/02/16 06:10:00,"[NAT 2553] ETHAN ALLEN - 321 SPEEN ST","ALARM, BURGLAR P - ALARM BLDG Chk Secure","ALARM",42.301013,-71.379943,"321 SPEEN ST, NATICK, MA, 01760"
2024/02/16 07:23:00,"[NAT 4184] DAVE AND BUSTERS-2ND FLOOR - 1235 WORCESTER ST Apt. #200","ALARM, BURGLAR P - ALARM SET OFF IN ERROR","ALARM",42.299493,-71.377519,"1235 WORCESTER ST, NATICK, MA, 01760"
2024/02/16 09:15:00,"37 BELMORE RD","VANDALISM Report to be filed","VANDALISM",42.285562,-71.378400,"37 BELMORE RD, NATICK, MA, 01760"
2024/02/16 09:35:00,"[NAT 855] THRIVE PET HEALTH CARE - 121 WEST CENTRAL ST","ASSIST OTHER AGENCY P - Services Rendered","ASSIST OTHER AGENCY",42.283651,-71.369312,"121 W CENTRAL ST, NATICK, MA, 01760"
2024/02/16 09:59:00,"4 WALDEN DR Apt. #19","LARCENY / FORGERY/ FRAUD Report to be filed","LARCENY / FORGERY/ FRAUD",42.276717,-71.387681,"4 WALDEN DR, NATICK, MA, 01760"
2024/02/16 10:11:00,"[NAT 1860] ABERCROMBIE AND FITCH - 1245 WORCESTER ST Apt. #2066","911 HANG UP P - Services Rendered","911 HANG UP",42.299500,-71.377749,"1245 WORCESTER ST, NATICK, MA, 01760"
2024/02/16 10:24:00,"[NAT 1705] NATICK POLICE DEPARTMENT - 20 EAST CENTRAL ST","ONLINE INCIDENT REPORT Report to be filed","ONLINE INCIDENT REPORT",42.284248,-71.345123,"20 E CENTRAL ST, NATICK, MA, 01760"
2024/02/16 10:30:00,"[NAT 3879] BERNARDI AUDI - 549 WORCESTER ST","MOTOR VEHICLE STOP Citation/ Warning Issued","MOTOR VEHICLE STOP",42.309143,-71.284371,"549 WORCESTER ST, WELLESLEY HILLS, MA, 02481"
2024/02/16 10:45:00," 1 STONE TER","MOTOR VEHICLE STOP Citation/ Warning Issued","MOTOR VEHICLE STOP",42.290905,-71.395180,"1 STONE TER, NATICK, MA, 01760"
2024/02/16 11:04:00,"56 HARTFORD ST","MOTOR VEHICLE STOP Citation/ Warning Issued","MOTOR VEHICLE STOP",42.293403,-71.385053,"56 HARTFORD ST, NATICK, MA, 01760"
2024/02/16 11:07:00,"[NAT 3836] STARBUCKS - 333 WORCESTER ST","MOTOR VEHICLE STOP Citation/ Warning Issued","MOTOR VEHICLE STOP",42.314475,-71.257305,"333 WORCESTER ST, WELLESLEY HILLS, MA, 02481"
2024/02/16 11:35:00,"[NAT 1011] TEMPLE ISRAEL - 145 HARTFORD ST","MOTOR VEHICLE STOP SUMMONS REQUEST","MOTOR VEHICLE STOP",42.291216,-71.403048,"145 HARTFORD ST, FRAMINGHAM, MA, 01702"
2024/02/16 11:43:00,"[NAT 3879] BERNARDI AUDI - 549 WORCESTER ST","MOTOR VEHICLE STOP Citation/ Warning Issued","MOTOR VEHICLE STOP",42.309143,-71.284371,"549 WORCESTER ST, WELLESLEY HILLS, MA, 02481"
2024/02/16 12:44:00,"113 SPEEN ST ","HAZARD Unfounded","HAZARD",42.279339,-71.376253,"113 SPEEN ST, NATICK, MA, 01760"
2024/02/16 12:45:00,"[NAT 3019] MACY'S - 1247 WORCESTER ST","SHOPLIFTING Arrest(s) Made","SHOPLIFTING",42.299501,-71.377795,"1247 WORCESTER ST, NATICK, MA, 01760"
2024/02/16 13:56:00,"187 SPEEN ST ","MOTOR VEHICLE STOP Citation/ Warning Issued","MOTOR VEHICLE STOP",42.288317,-71.375243,"187 SPEEN ST, NATICK, MA, 01760"
2024/02/16 14:24:00,"289 WEST CENTRAL ST","MOTOR VEHICLE STOP Citation/ Warning Issued","MOTOR VEHICLE STOP",42.281788,-71.393265,"289 W CENTRAL ST, NATICK, MA, 01760"
2024/02/16 14:36:00,"130 SOUTH MAIN ST","SUSPICIOUS ACTIVITY P - Services Rendered","SUSPICIOUS ACTIVITY",42.275640,-71.351636,"130 S MAIN ST, NATICK, MA, 01760"
2024/02/16 15:01:00,"[FRA] 600 CONCORD ST","ESCORT/ TRANSPORT P - Services Rendered","ESCORT/",42.292559,-71.409285,"600 CONCORD ST, FRAMINGHAM, MA, 01702"
2024/02/16 15:13:00,"[NAT 3728] PLANET FITNESS - 215 WEST CENTRAL ST","MOTOR VEHICLE STOP Citation/ Warning Issued","MOTOR VEHICLE STOP",42.281997,-71.390006,"215 W CENTRAL ST, NATICK, MA, 01760"
2024/02/16 15:39:00,"112 SOUTH MAIN ST ","MOTOR VEHICLE CRASH Report to be filed","MOTOR VEHICLE CRASH",42.277034,-71.350424,"112 S MAIN ST, NATICK, MA, 01760"
2024/02/16 15:58:00,"[NAT 3981] MODERA NATICK CENTER - 82 NORTH MAIN ST","F - Well Being Check F - Services Provided","Well Being Check",42.290430,-71.354491,"82 N MAIN ST, NATICK, MA, 01760"
2024/02/16 16:52:00,"131 SPEEN ST","MOTOR VEHICLE STOP Citation/ Warning Issued","MOTOR VEHICLE STOP",42.280055,-71.376182,"131 SPEEN ST, NATICK, MA, 01760"
2024/02/16 17:39:00,"[NAT 655] LONGFELLOW SPORTS CLUB - 203 OAK ST","LARCENY / FORGERY/ FRAUD Report to be filed","LARCENY / FORGERY/ FRAUD",42.314370,-71.339228,"203 OAK ST, NATICK, MA, 01760"
2024/02/16 18:29:00,"25 WASHINGTON ST ","PARKING COMPLAINT Citation/ Warning Issued","PARKING COMPLAINT",42.285324,-71.346353,"25 WASHINGTON ST, NATICK, MA, 01760"
2024/02/16 19:11:00,"[NAT 324] DION'S PACKAGE STORE INC - 4 SOUTH AVE","MOTOR VEHICLE STOP Citation/ Warning Issued","MOTOR VEHICLE STOP",42.285316,-71.347479,"4 SOUTH AVE, NATICK, MA, 01760"
2024/02/16 20:57:00,"[NAT 403] THE CONTAINER STORE - 1265 WORCESTER ST","MOTOR VEHICLE STOP Citation/ Warning Issued","MOTOR VEHICLE STOP",42.299514,-71.378211,"1265 WORCESTER ST, NATICK, MA, 01760"
2024/02/17 00:32:00,"31 SOUTH MAIN ST","MOTOR VEHICLE STOP Citation/ Warning Issued","MOTOR VEHICLE STOP",42.282416,-71.347340,"31 S MAIN ST, NATICK, MA, 01760"
2024/02/17 02:55:00,"[WEL] SHELL GAS STATION - 987 WORCESTER ST","SUSPICIOUS ACTIVITY P - Services Rendered","SUSPICIOUS ACTIVITY",42.299642,-71.363702,"987 WORCESTER ST, NATICK, MA, 01760"
2024/02/17 03:08:00,"8 FROST ST","ASSIST OTHER AGENCY P - Services Rendered","ASSIST OTHER AGENCY",42.323107,-71.336168,"8 FROST ST, NATICK, MA, 01760"
2024/02/17 04:26:00,"[NAT 331] NATICK RADIATOR SERVICE INC - 18 SOUTH AVE","SUSPICIOUS ACTIVITY P - Services Rendered","SUSPICIOUS ACTIVITY",42.285666,-71.344361,"18 SOUTH AVE, NATICK, MA, 01760"
2024/02/17 06:13:00,"[NAT 954] THE VERVE HOTEL - 1360 WORCESTER ST Apt. #624","F - Well Being Check F - Services Provided","Well Being Check",42.298777,-71.391301,"1360 WORCESTER ST, NATICK, MA, 01760"
2024/02/17 07:55:00,"26 UNION ST","COMPLAINT P - Services Rendered","COMPLAINT",42.283671,-71.337531,"26 UNION ST, NATICK, MA, 01760"
2024/02/17 09:31:00,"[NAT 79] BERNARDI HONDA - 960 WORCESTER ST","MOTOR VEHICLE STOP Citation/ Warning Issued","MOTOR VEHICLE STOP",42.299258,-71.365104,"960 WORCESTER ST, NATICK, MA, 01760"
2024/02/17 09:44:00,"[NAT 3314] J.J. LANE PARK - 185 SPEEN ST","MOTOR VEHICLE STOP Citation/ Warning Issued","MOTOR VEHICLE STOP",42.282216,-71.375839,"185 SPEEN ST, NATICK, MA, 01760"
2024/02/17 09:54:00,"[NAT 79] BERNARDI HONDA - 960 WORCESTER ST","M/ V CRASH/ Hit & Run P - Services Rendered","MOTOR VEHICLE CRASH",42.299258,-71.365104,"960 WORCESTER ST, NATICK, MA, 01760"
2024/02/17 10:37:00,"61 WEST CENTRAL ST","PARKING COMPLAINT P - Services Rendered","PARKING COMPLAINT",42.305279,-71.347258,"61 CENTRE ST, NATICK, MA, 01760"
2024/02/17 10:49:00,"1 VILLAGE ROCK LN Apt. #5","LARCENY / FORGERY/ FRAUD Report to be filed","LARCENY / FORGERY/ FRAUD",42.278263,-71.393737,"1 VILLAGE ROCK LN, NATICK, MA, 01760"
2024/02/17 10:50:00,"[NAT 2893] DICK'S SPORTING GOODS - 1336 WORCESTER ST","DISABLED M/V P - Services Rendered","DISABLED M/V",42.298917,-71.387301,"1336 WORCESTER ST, NATICK, MA, 01760"
2024/02/17 11:07:00,"[NAT 869] ROCHE BROS SUPERMARKET - 150 WEST CENTRAL ST","MOTOR VEHICLE STOP Citation/ Warning Issued","MOTOR VEHICLE STOP",42.282483,-71.378214,"150 W CENTRAL ST, NATICK, MA, 01760"
2024/02/17 11:30:00,"[NAT 869] ROCHE BROS SUPERMARKET - 150 WEST CENTRAL ST","MOTOR VEHICLE STOP Citation/ Warning Issued","MOTOR VEHICLE STOP",42.282483,-71.378214,"150 W CENTRAL ST, NATICK, MA, 01760"
2024/02/17 12:29:00,"[NAT 869] ROCHE BROS SUPERMARKET - 150 WEST CENTRAL ST","MOTOR VEHICLE STOP Citation/ Warning Issued","MOTOR VEHICLE STOP",42.282483,-71.378214,"150 W CENTRAL ST, NATICK, MA, 01760"
2024/02/17 12:59:00,"73 MILL ST ","MOTOR VEHICLE STOP Citation/ Warning Issued","MOTOR VEHICLE STOP",42.284859,-71.381432,"73 MILL ST, NATICK, MA, 01760"
2024/02/17 13:23:00,"218 HARTFORD ST","MOTOR VEHICLE STOP Citation/ Warning Issued","MOTOR VEHICLE STOP",42.292248,-71.400938,"218 HARTFORD ST, NATICK, MA, 01760"
2024/02/17 13:26:00,"[NAT 954] THE VERVE HOTEL - 1360 WORCESTER ST","MOTOR VEHICLE STOP SUMMONS REQUEST","MOTOR VEHICLE STOP",42.298777,-71.391301,"1360 WORCESTER ST, NATICK, MA, 01760"
2024/02/17 14:29:00,"[NAT 2052] KENDALL CROSSING APARTMENTS - 20 WOODBINE RD","ALARM, BURGLAR P- Alarm Open Door/ Window","ALARM",42.278666,-71.388775,"20 WOODBINE RD, NATICK, MA, 01760"
2024/02/17 17:12:00,"[NAT 3836] STARBUCKS - 333 WORCESTER ST","MOTOR VEHICLE STOP Citation/ Warning Issued","MOTOR VEHICLE STOP",42.314475,-71.257305,"333 WORCESTER ST, WELLESLEY HILLS, MA, 02481"
2024/02/17 17:43:00,"[NAT 3404] AVALON NATICK APARTMENTS - 1 CHRYSLER RD","SUSPICIOUS ACTIVITY Report to be filed","SUSPICIOUS ACTIVITY",42.305133,-71.382036,"1 CHRYSLER RD, NATICK, MA, 01760"
2024/02/17 18:25:00,"67 BODEN LN ","ASSIST OTHER AGENCY P - Services Rendered","ASSIST OTHER AGENCY",42.282786,-71.391046,"67 BODEN LN, NATICK, MA, 01760"
2024/02/17 19:46:00,"67 BODEN LN ","ASSIST OTHER AGENCY P - Services Rendered","ASSIST OTHER AGENCY",42.282786,-71.391046,"67 BODEN LN, NATICK, MA, 01760"
2024/02/17 20:59:00,"25 WASHINGTON ST ","PARKING COMPLAINT Citation/ Warning Issued","PARKING COMPLAINT",42.285324,-71.346353,"25 WASHINGTON ST, NATICK, MA, 01760"
2024/02/17 23:11:00,"3 HUNTERS LN","ALARM, BURGLAR P - ALARM BLDG Chk Secure","ALARM",42.272960,-71.352886,"3 HUNTERS LN, NATICK, MA, 01760"
2024/02/18 05:02:00,"8 PINEHURST AVE","SUSPICIOUS ACTIVITY P - Services Rendered","SUSPICIOUS ACTIVITY",42.276487,-71.378818,"8 PINEHURST AVE, NATICK, MA, 01760"
2024/02/18 05:10:00,"1 FAIRWAY CIR ","SUSPICIOUS ACTIVITY Vehicle Towed","SUSPICIOUS ACTIVITY",42.292310,-71.378086,"1 FAIRWAY CIR, NATICK, MA, 01760"
2024/02/18 06:14:00,"[NAT 4184] DAVE AND BUSTERS-2ND FLOOR - 1235 WORCESTER ST Apt. #200","ALARM, BURGLAR P - ALARM BLDG Chk Secure","ALARM",42.299493,-71.377519,"1235 WORCESTER ST, NATICK, MA, 01760"
2024/02/18 06:56:00,"[NAT 4184] DAVE AND BUSTERS-2ND FLOOR - 1235 WORCESTER ST Apt. #200","ALARM, BURGLAR P - ALARM BLDG Chk Secure","ALARM",42.299493,-71.377519,"1235 WORCESTER ST, NATICK, MA, 01760"
2024/02/18 10:13:00,"47 VILLAGE BROOK LN Apt. #13","SUSPICIOUS ACTIVITY P - Services Rendered","SUSPICIOUS ACTIVITY",42.277102,-71.392442,"47 VILLAGE BROOK LN, NATICK, MA, 01760"
2024/02/18 10:45:00,"[NAT 4049] ROCHE BOBOIS - 395 WORCESTER ST","ASSIST OTHER AGENCY P - Services Rendered","ASSIST OTHER AGENCY",42.314564,-71.269575,"395 WORCESTER ST, WELLESLEY HILLS, MA, 02481"
2024/02/18 11:12:00,"183 HARTFORD ST ","MOTOR VEHICLE STOP Citation/ Warning Issued","MOTOR VEHICLE STOP",42.291993,-71.398702,"183 HARTFORD ST, NATICK, MA, 01760"
2024/02/18 12:04:00,"[NAT 3298] NATICK FIREPLACE - 671 WORCESTER ST","MOTOR VEHICLE STOP Citation/ Warning Issued","MOTOR VEHICLE STOP",42.306450,-71.295256,"671 WORCESTER ST, WELLESLEY HILLS, MA, 02481"
2024/02/18 12:11:00,"[NAT 1547] SUNNYSIDE PLAZA - 915 WORCESTER ST","MOTOR VEHICLE STOP Citation/ Warning Issued","MOTOR VEHICLE STOP",42.299876,-71.361849,"915 WORCESTER ST, NATICK, MA, 01760"
2024/02/18 13:01:00,"85 HARTFORD ST","MOTOR VEHICLE STOP SUMMONS REQUEST","MOTOR VEHICLE STOP",42.293512,-71.385102,"85 HARTFORD ST, NATICK, MA, 01760"
2024/02/18 13:03:00,"[NAT 4101] BOSTON PIANO - 575 WORCESTER ST","MOTOR VEHICLE STOP Citation/ Warning Issued","MOTOR VEHICLE STOP",42.308812,-71.285197,"575 WORCESTER ST, WELLESLEY HILLS, MA, 02481"
2024/02/18 13:28:00,"[NAT 3879] BERNARDI AUDI - 549 WORCESTER ST","MOTOR VEHICLE STOP Citation/ Warning Issued","MOTOR VEHICLE STOP",42.309143,-71.284371,"549 WORCESTER ST, WELLESLEY HILLS, MA, 02481"
2024/02/18 13:42:00,"[NAT 947] RW HOLMES REALTY - 1085 WORCESTER ST","MOTOR VEHICLE STOP SUMMONS REQUEST","MOTOR VEHICLE STOP",42.299327,-71.366223,"1085 WORCESTER ST, NATICK, MA, 01760"
2024/02/18 14:35:00,"[NAT 2051] HOME DEPOT - 339 SPEEN ST","911 HANG UP P - Services Rendered","911 HANG UP",42.301047,-71.379963,"339 SPEEN ST, NATICK, MA, 01760"
2024/02/18 15:19:00,"[NAT 1541] METROWEST SUBARU LLC - 948 WORCESTER ST","MOTOR VEHICLE STOP Citation/ Warning Issued","MOTOR VEHICLE STOP",42.299337,-71.364467,"948 WORCESTER ST, NATICK, MA, 01760"
2024/02/18 15:41:00,"23 NORTH MAIN ST","MOTOR VEHICLE STOP Citation/ Warning Issued","MOTOR VEHICLE STOP",42.286465,-71.348973,"23 N MAIN ST, NATICK, MA, 01760"
2024/02/18 16:54:00,"[NAT 3147] LOUIS VUITTON - 1245 WORCESTER ST Apt. #3025","SUSPICIOUS ACTIVITY Report to be filed","SUSPICIOUS ACTIVITY",42.299500,-71.377749,"1245 WORCESTER ST, NATICK, MA, 01760"
2024/02/19 08:15:00,"[NAT 1727] MASTER MECHANICS AUTOMOTIVE - 10 SOUTH AVE","LOCKOUT (VEHICLE) P - Services Rendered","LOCKOUT",42.285331,-71.347225,"10 SOUTH AVE, NATICK, MA, 01760"
2024/02/19 09:02:00,"7 UNIVERSITY DR","Animals (Other) Report to be filed","ANIMALS",42.288584,-71.329993,"7 UNIVERSITY DR, NATICK, MA, 01760"
2024/02/19 09:56:00,"15 VILLAGE WAY Apt. #3","SUSPICIOUS ACTIVITY P - Services Rendered","SUSPICIOUS ACTIVITY",42.280352,-71.390290,"15 VILLAGE WAY, NATICK, MA, 01760"
2024/02/19 10:15:00,"[NAT 3757] SUPERCUTS - 933 WORCESTER ST","MOTOR VEHICLE STOP Citation/ Warning Issued","MOTOR VEHICLE STOP",42.299818,-71.362312,"933 WORCESTER ST, NATICK, MA, 01760"
2024/02/19 10:19:00,"[NAT 947] RW HOLMES REALTY - 1085 WORCESTER ST","MOTOR VEHICLE STOP Citation/ Warning Issued","MOTOR VEHICLE STOP",42.299327,-71.366223,"1085 WORCESTER ST, NATICK, MA, 01760"
2024/02/19 10:25:00,"[NAT 3790] HANSSEM KITCHEN AND BATH - 577 WORCESTER ST","MOTOR VEHICLE STOP Citation/ Warning Issued","MOTOR VEHICLE STOP",42.308786,-71.285260,"577 WORCESTER ST, WELLESLEY HILLS, MA, 02481"
2024/02/19 10:34:00,"61 HARTFORD ST","MOTOR VEHICLE STOP Citation/ Warning Issued","MOTOR VEHICLE STOP",42.294569,-71.382579,"61 HARTFORD ST, NATICK, MA, 01760"
2024/02/19 11:25:00,"1080 WORCESTER ST","MOTOR VEHICLE STOP SUMMONS REQUEST","MOTOR VEHICLE STOP",42.298426,-71.370126,"1080 WORCESTER ST, NATICK, MA, 01760"
2024/02/19 11:52:00,"1245 WORCESTER ST","ASSIST OTHER AGENCY P - Services Rendered","ASSIST OTHER AGENCY",42.299500,-71.377749,"1245 WORCESTER ST, NATICK, MA, 01760"
2024/02/19 11:58:00,"1080 WORCESTER ST","MOTOR VEHICLE STOP Citation/ Warning Issued","MOTOR VEHICLE STOP",42.298426,-71.370126,"1080 WORCESTER ST, NATICK, MA, 01760"
2024/02/19 12:04:00,"[NAT 1547] SUNNYSIDE PLAZA - 915 WORCESTER ST","M/ V CRASH/ PRIVATE PROPERTY P - Services Rendered","MOTOR VEHICLE CRASH",42.299876,-71.361849,"915 WORCESTER ST, NATICK, MA, 01760"
2024/02/19 12:54:00,"[NAT 220] SCRUB A DUB AUTO WASH OF NATICK - 172 WORCESTER ST","LOCKOUT (VEHICLE) P - Services Rendered","LOCKOUT",42.303126,-71.333385,"172 WORCESTER ST, NATICK, MA, 01760"
2024/02/19 13:02:00,"172 CEDAR TER Apt. #A","ROAD RAGE INCIDENT P - Services Rendered","ROAD RAGE INCIDENT",42.273448,-71.356991,"172 CEDAR TER, NATICK, MA, 01760"
2024/02/19 14:33:00,"[NAT 3019] MACY'S - 1247 WORCESTER ST","PARKING COMPLAINT P - Services Rendered","PARKING COMPLAINT",42.299501,-71.377795,"1247 WORCESTER ST, NATICK, MA, 01760"
2024/02/19 14:55:00,"1245 WORCESTER ST","SUSPICIOUS ACTIVITY P - Services Rendered","SUSPICIOUS ACTIVITY",42.299500,-71.377749,"1245 WORCESTER ST, NATICK, MA, 01760"
2024/02/19 16:02:00,"21 LARKSPUR WAY Apt. #3","LARCENY / FORGERY/ FRAUD Report to be filed","LARCENY / FORGERY/ FRAUD",42.278287,-71.390537,"21 LARKSPUR WAY, NATICK, MA, 01760"
2024/02/19 18:51:00,"1245 WORCESTER ST","MOTOR VEHICLE STOP Citation/ Warning Issued","MOTOR VEHICLE STOP",42.299500,-71.377749,"1245 WORCESTER ST, NATICK, MA, 01760"
2024/02/19 19:10:00,"1245 WORCESTER ST","MOTOR VEHICLE STOP Citation/ Warning Issued","MOTOR VEHICLE STOP",42.299500,-71.377749,"1245 WORCESTER ST, NATICK, MA, 01760"
2024/02/19 19:26:00,"[NAT 3233] ALLEN EDMUNDS - 1245 WORCESTER ST Apt. #3064","ALARM, BURGLAR P - ALARM SET OFF IN ERROR","ALARM",42.299500,-71.377749,"1245 WORCESTER ST, NATICK, MA, 01760"
2024/02/19 19:28:00,"63 BEAVER DAM RD","LARCENY / FORGERY/ FRAUD Report to be filed","LARCENY / FORGERY/ FRAUD",42.287367,-71.380734,"63 BEAVERDAM RD, NATICK, MA, 01760"
2024/02/20 00:57:00,"[NAT 865] CVS PHARMACY 2125 - 137 WEST CENTRAL ST","MOTOR VEHICLE STOP Citation/ Warning Issued","MOTOR VEHICLE STOP",42.283147,-71.372361,"137 W CENTRAL ST, NATICK, MA, 01760"
2024/02/20 07:23:00,"[NAT 1580] 15 BARNESDALE RD - 15 BARNESDALE RD","ALARM, BURGLAR P - ALARM BLDG Chk Secure","ALARM",42.293366,-71.380998,"15 BARNESDALE RD, NATICK, MA, 01760"
2024/02/20 07:40:00,"[NAT 1092] JOHNSON SCHOOL - 99 SOUTH MAIN ST","SUSPICIOUS ACTIVITY P - Services Rendered","SUSPICIOUS ACTIVITY",42.278201,-71.349598,"99 S MAIN ST, NATICK, MA, 01760"
2024/02/20 09:36:00,"89 HARTFORD ST","MOTOR VEHICLE STOP Citation/ Warning Issued","MOTOR VEHICLE STOP",42.293405,-71.385522,"89 HARTFORD ST, NATICK, MA, 01760"
2024/02/20 10:53:00,"[NAT 3790] HANSSEM KITCHEN AND BATH - 577 WORCESTER ST","MOTOR VEHICLE STOP Citation/ Warning Issued","MOTOR VEHICLE STOP",42.308786,-71.285260,"577 WORCESTER ST, WELLESLEY HILLS, MA, 02481"
2024/02/20 11:09:00,"[NAT 68] MCDONALDS, RT 9 EASTBOUND - 290 WORCESTER ST","MOTOR VEHICLE STOP Citation/ Warning Issued","MOTOR VEHICLE STOP",42.301963,-71.340499,"290 WORCESTER ST, NATICK, MA, 01760"
2024/02/20 11:20:00,"122 WEST CENTRAL ST","SUSPICIOUS ACTIVITY P - Services Rendered","SUSPICIOUS ACTIVITY",42.282869,-71.364184,"122 W CENTRAL ST, NATICK, MA, 01760"
2024/02/20 11:44:00,"577 WORCESTER ST ","MOTOR VEHICLE STOP Citation/ Warning Issued","MOTOR VEHICLE STOP",42.308786,-71.285260,"577 WORCESTER ST, WELLESLEY HILLS, MA, 02481"
2024/02/20 11:46:00,"691 WORCESTER ST ","MOTOR VEHICLE STOP Citation/ Warning Issued","MOTOR VEHICLE STOP",42.306156,-71.296741,"691 WORCESTER ST, WELLESLEY HILLS, MA, 02481"
2024/02/20 12:27:00,"98 HARTFORD ST","MOTOR VEHICLE STOP SUMMONS REQUEST","MOTOR VEHICLE STOP",42.292163,-71.388557,"98 HARTFORD ST, NATICK, MA, 01760"
2024/02/20 13:46:00,"59 WESTLAKE RD","F - Structure Fire F - Services Provided","Structure Fire",42.309819,-71.359202,"59 WESTLAKE RD, NATICK, MA, 01760"
2024/02/20 14:48:00,"[NAT 2101] NATICK MALL (PARKING DECK C) - 1249 WORCESTER ST","SUSPICIOUS ACTIVITY Report to be filed","SUSPICIOUS ACTIVITY",42.299503,-71.377842,"1249 WORCESTER ST, NATICK, MA, 01760"
2024/02/20 16:36:00,"44 CURVE ST Apt. #1","F - Well Being Check F - Services Provided","Well Being Check",42.276618,-71.356431,"44 CURVE ST, NATICK, MA, 01760"
2024/02/20 16:39:00,"[NAT 865] CVS PHARMACY 2125 - 137 WEST CENTRAL ST","DISTURBANCE P - Services Rendered","DISTURBANCE",42.283147,-71.372361,"137 W CENTRAL ST, NATICK, MA, 01760"
2024/02/20 17:09:00,"[NAT 3019] MACY'S - 1247 WORCESTER ST","SHOPLIFTING Civil Matter","SHOPLIFTING",42.299501,-71.377795,"1247 WORCESTER ST, NATICK, MA, 01760"
2024/02/20 17:21:00,"[NAT 1063] METROWEST MEDICAL CENTER - LEONARD MORSE HOSP - 67 UNION ST Apt. #433","COMPLAINT Report to be filed","COMPLAINT",42.280369,-71.332476,"67 UNION ST, NATICK, MA, 01760"
2024/02/20 17:36:00,"[NAT 4049] ROCHE BOBOIS - 395 WORCESTER ST","HAZARD P - Services Rendered","HAZARD",42.314564,-71.269575,"395 WORCESTER ST, WELLESLEY HILLS, MA, 02481"
2024/02/20 18:24:00,"[NAT 2068] FORMAN INDUSTRIES - 17 MERCER RD","ALARM, BURGLAR P - ALARM SET OFF IN ERROR","ALARM",42.296692,-71.390825,"17 MERCER RD, NATICK, MA, 01760"
2024/02/20 18:51:00,"23 LAKEVIEW GARDENS Apt. #719","NOISE COMPLAINT P - Services Rendered","NOISE COMPLAINT",42.275260,-71.369634,"23 LAKEVIEW AVE, NATICK, MA, 01760"
2024/02/20 19:01:00,"42 SECOND ST","F - Well Being Check F-Cancelled","Well Being Check",42.294169,-71.362306,"42 2ND ST, NATICK, MA, 01760"
2024/02/20 19:20:00,"[NAT 4169] LULULEMON - 1245 WORCESTER ST Apt. #4045","SUSPICIOUS ACTIVITY P - Services Rendered","SUSPICIOUS ACTIVITY",42.299500,-71.377749,"1245 WORCESTER ST, NATICK, MA, 01760"
2024/02/20 20:04:00,"[NAT 920] NATICK MALL (MALL I) - 1245 WORCESTER ST","LARCENY / FORGERY/ FRAUD Report to be filed","LARCENY / FORGERY/ FRAUD",42.299500,-71.377749,"1245 WORCESTER ST, NATICK, MA, 01760"
2024/02/20 20:11:00,"25 LAKEVIEW GARDENS Apt. #706","NOISE COMPLAINT P - Services Rendered","NOISE COMPLAINT",42.275004,-71.369580,"25 LAKEVIEW AVE, NATICK, MA, 01760"
2024/02/20 21:46:00,"[NAT 3981] MODERA NATICK CENTER - 82 NORTH MAIN ST","COMPLAINT P - Services Rendered","COMPLAINT",42.290430,-71.354491,"82 N MAIN ST, NATICK, MA, 01760"
2024/02/20 23:12:00,"[NAT 1147] AUTO ZONE - 120 WORCESTER ST","SUSPICIOUS ACTIVITY P - Services Rendered","SUSPICIOUS ACTIVITY",42.303663,-71.331179,"120 WORCESTER ST, NATICK, MA, 01760"
2024/02/21 00:39:00,"[NAT 1705] NATICK POLICE DEPARTMENT - 20 EAST CENTRAL ST","ESCORT/ TRANSPORT P - Services Rendered","ESCORT/",42.284248,-71.345123,"20 E CENTRAL ST, NATICK, MA, 01760"
2024/02/21 03:23:00,"[NAT 3172] BERNARDI SERVICE AND STORAGE FACILITY - 9 COCHITUATE ST","ALARM, BURGLAR P - ALARM SET OFF IN ERROR","ALARM",42.285876,-71.350949,"9 COCHITUATE ST, NATICK, MA, 01760"
2024/02/21 07:11:00,"[NAT 3879] BERNARDI AUDI - 549 WORCESTER ST","F - MVA w/Injury Rt.9 Vehicle Towed","MOTOR VEHICLE CRASH",42.309143,-71.284371,"549 WORCESTER ST, WELLESLEY HILLS, MA, 02481"
2024/02/21 07:42:00,"[NAT 819] EZ MINI STORAGE - 336 SPEEN ST","F - MVA with Injury Merge: 24-3170 By: 41707","MOTOR VEHICLE CRASH",42.300739,-71.379942,"336 SPEEN ST, NATICK, MA, 01760"
2024/02/21 07:43:00,"323 SPEEN ST","MOTOR VEHICLE CRASH Report to be filed","MOTOR VEHICLE CRASH",42.301016,-71.379945,"323 SPEEN ST, NATICK, MA, 01760"
2024/02/21 08:47:00,"83 OAK ST ","HAZARD Removed Hazard","HAZARD",42.304081,-71.332045,"83 OAK ST, NATICK, MA, 01760"
2024/02/21 09:08:00,"89 HARTFORD ST","MOTOR VEHICLE STOP Citation/ Warning Issued","MOTOR VEHICLE STOP",42.293405,-71.385522,"89 HARTFORD ST, NATICK, MA, 01760"
2024/02/21 09:11:00,"[NAT 2893] 1336 WORCESTER ST","MOTOR VEHICLE STOP Citation/ Warning Issued","MOTOR VEHICLE STOP",42.298917,-71.387301,"1336 WORCESTER ST, NATICK, MA, 01760"
2024/02/21 09:12:00,"53 MILL ST ","MOTOR VEHICLE STOP Citation/ Warning Issued","MOTOR VEHICLE STOP",42.281924,-71.380243,"53 MILL ST, NATICK, MA, 01760"
2024/02/21 09:18:00,"1245 WORCESTER ST","MOTOR VEHICLE STOP Citation/ Warning Issued","MOTOR VEHICLE STOP",42.299500,-71.377749,"1245 WORCESTER ST, NATICK, MA, 01760"
2024/02/21 09:18:00,"4 UNIVERSITY DR","Animals (Other) Log Entry","ANIMALS",42.288747,-71.329699,"4 UNIVERSITY DR, NATICK, MA, 01760"
2024/02/21 09:32:00,"51 ELIOT ST ","MOTOR VEHICLE CRASH Gone On Arrival","MOTOR VEHICLE CRASH",42.273675,-71.315396,"51 ELIOT ST, NATICK, MA, 01760"
2024/02/21 09:42:00,"3 STETSON RD ","MOTOR VEHICLE STOP SUMMONS REQUEST","MOTOR VEHICLE STOP",42.295149,-71.382457,"3 STETSON RD, NATICK, MA, 01760"
2024/02/21 11:32:00,"[NAT 3022] 5 AZALEA CIR - 5 AZALEA CIR","LOCKOUT (VEHICLE) P - Services Rendered","LOCKOUT",42.279340,-71.329402,"5 AZALEA CIR, NATICK, MA, 01760"
2024/02/21 12:15:00,"22 NOTTINGHAM DR","MOTOR VEHICLE STOP P - Services Rendered","MOTOR VEHICLE STOP",42.295916,-71.378652,"22 NOTTINGHAM DR, NATICK, MA, 01760"
2024/02/21 12:33:00,"24 WATER ST Apt. #2","Animals (Other) Log Entry","ANIMALS",42.272784,-71.311415,"24 WATER ST, NATICK, MA, 01760"
2024/02/21 14:02:00,"44 BENNETT ST","SERVE SUMMONS SERVED IN-HAND","SERVE SUMMONS",42.275346,-71.354926,"44 BENNETT ST, NATICK, MA, 01760"
2024/02/21 14:09:00,"186 MILL ST","MOTOR VEHICLE STOP Citation/ Warning Issued","MOTOR VEHICLE STOP",42.290626,-71.387771,"186 MILL ST, NATICK, MA, 01760"
2024/02/21 14:18:00,"4 WHEELER LN","SERVE SUMMONS SERVED IN-HAND","SERVE SUMMONS",42.301640,-71.349166,"4 WHEELER LN, NATICK, MA, 01760"
2024/02/21 14:22:00,"94 HARTFORD ST","MOTOR VEHICLE STOP Report to be filed","MOTOR VEHICLE STOP",42.293366,-71.385199,"94 HARTFORD ST, NATICK, MA, 01760"
2024/02/21 14:57:00,"[NAT 27] RAMP FROM RT9 EAST TO NORTH MAIN ST SOUTH - RAMP - RT9 EB TO RT27 SB","MOTOR VEHICLE CRASH SUMMONS REQUEST","MOTOR VEHICLE CRASH",42.286082,-71.348580,"9 N MAIN ST, NATICK, MA, 01760"
2024/02/21 15:49:00,"[NAT 3019] MACY'S - 1247 WORCESTER ST","SHOPLIFTING SUMMONS REQUEST","SHOPLIFTING",42.299501,-71.377795,"1247 WORCESTER ST, NATICK, MA, 01760"
2024/02/21 16:06:00,"[NAT 3165] APPLE STORE - 1245 WORCESTER ST Apt. #3082","SHOPLIFTING Report to be filed","SHOPLIFTING",42.299500,-71.377749,"1245 WORCESTER ST, NATICK, MA, 01760"
2024/02/21 16:43:00,"5 COMMONWEALTH WEST RD","DISABLED M/V Removed Hazard","DISABLED M/V RemovedHazard",42.308705,-71.382072,"5 COMMONWEALTH RD, NATICK, MA, 01760"
2024/02/21 17:54:00,"[NAT 1347] BELKIN LOOKOUT FARM ( ROAD STAND) - 89 PLEASANT ST","ERRATIC OPERATOR Log Entry","ERRATIC OPERATOR",42.298352,-71.356035,"89 PLEASANT ST, NATICK, MA, 01760"
2024/02/21 18:13:00,"[NAT 1100] WEST NATICK FIRE STATION - 268 SPEEN ST","DISABLED M/V P - Services Rendered","DISABLED M/V",42.297170,-71.377703,"268 SPEEN ST, NATICK, MA, 01760"
2024/02/21 19:02:00,"50 HARTFORD ST","MOTOR VEHICLE STOP Citation/ Warning Issued","MOTOR VEHICLE STOP",42.295059,-71.381678,"50 HARTFORD ST, NATICK, MA, 01760"
2024/02/21 19:33:00,"84 SPEEN ST ","HAZARD Unfounded","HAZARD",42.278217,-71.376378,"84 SPEEN ST, NATICK, MA, 01760"
2024/02/21 20:24:00,"[NAT 3173] ZARA - 1245 WORCESTER ST Apt. #4072","VANDALISM Report to be filed","VANDALISM",42.299500,-71.377749,"1245 WORCESTER ST, NATICK, MA, 01760"
2024/02/21 20:26:00," 1 STONE TER","MOTOR VEHICLE STOP Citation/ Warning Issued","MOTOR VEHICLE STOP",42.290905,-71.395180,"1 STONE TER, NATICK, MA, 01760"
2024/02/21 20:27:00,"78 SUMMER ST","PARKING COMPLAINT P - Services Rendered","PARKING COMPLAINT",42.284016,-71.351217,"78 SUMMER ST, NATICK, MA, 01760"
2024/02/21 21:17:00,"151 HARTFORD ST","MOTOR VEHICLE STOP Citation/ Warning Issued","MOTOR VEHICLE STOP",42.290752,-71.393243,"151 HARTFORD ST, NATICK, MA, 01760"
2024/02/22 02:00:00,"[NAT 3879] BERNARDI AUDI - 549 WORCESTER ST","MOTOR VEHICLE STOP Citation/ Warning Issued","MOTOR VEHICLE STOP",42.309143,-71.284371,"549 WORCESTER ST, WELLESLEY HILLS, MA, 02481"
2024/02/22 02:29:00,"[NAT 2985] FALCETTI PIANOS - 579 WORCESTER ST","MOTOR VEHICLE STOP Citation/ Warning Issued","MOTOR VEHICLE STOP",42.308761,-71.285324,"579 WORCESTER ST, WELLESLEY HILLS, MA, 02481"
2024/02/22 08:43:00,"[NAT 4049] ROCHE BOBOIS - 395 WORCESTER ST","MOTOR VEHICLE STOP Citation/ Warning Issued","MOTOR VEHICLE STOP",42.314564,-71.269575,"395 WORCESTER ST, WELLESLEY HILLS, MA, 02481"
2024/02/22 09:18:00,"[NAT 955] DUNKIN DONUTS - 1362 WORCESTER ST","MOTOR VEHICLE CRASH Report to be filed","MOTOR VEHICLE CRASH",42.298771,-71.391457,"1362 WORCESTER ST, NATICK, MA, 01760"
2024/02/22 09:24:00,"52 PILGRIM RD","Animals (Other) Log Entry","ANIMALS",42.287208,-71.388975,"52 PILGRIM RD, NATICK, MA, 01760"
2024/02/22 10:03:00,"2 ROUNDWOOD RD ","SOLICITOR(S) Unfounded","SOLICITOR(S)",42.296072,-71.348004,"2 ROUNDWOOD RD, NATICK, MA, 01760"
2024/02/22 10:06:00,"[NAT 403] THE CONTAINER STORE - 1265 WORCESTER ST","MOTOR VEHICLE STOP SUMMONS REQUEST","MOTOR VEHICLE STOP",42.299514,-71.378211,"1265 WORCESTER ST, NATICK, MA, 01760"
2024/02/22 10:24:00,"107 SPEEN ST Apt. #A","Animals (Other) Log Entry","ANIMALS",42.279101,-71.376252,"107 SPEEN ST, NATICK, MA, 01760"
2024/02/22 11:17:00,"[NAT 514] COOLIDGE GARDENS - 4 COTTAGE ST Apt. #11","F - Well Being Check F - No Patient","Well Being Check",42.280473,-71.347181,"4 COTTAGE ST, NATICK, MA, 01760"
2024/02/22 11:22:00,"168 SPEEN ST ","MOTOR VEHICLE STOP SUMMONS REQUEST","MOTOR VEHICLE STOP",42.287217,-71.375267,"168 SPEEN ST, NATICK, MA, 01760"
2024/02/22 11:59:00,"176 NORTH MAIN ST","FOUND/ LOST PROPERTY Taken/Refer Other Agency","FOUND/ LOST PROPERTY",42.297990,-71.359327,"176 N MAIN ST, NATICK, MA, 01760"
2024/02/22 13:57:00,"[NAT 220] SCRUB A DUB AUTO WASH OF NATICK - 172 WORCESTER ST","MOTOR VEHICLE STOP SUMMONS REQUEST","MOTOR VEHICLE STOP",42.303126,-71.333385,"172 WORCESTER ST, NATICK, MA, 01760"
2024/02/22 15:07:00,"1 BEAR HILL RD ","FOUND/ LOST PROPERTY P - Services Rendered","FOUND/ LOST PROPERTY",42.272026,-71.354649,"1 BEAR HILL RD, NATICK, MA, 01760"
2024/02/22 15:34:00,"[NAT 4233] TILLYS    SPACE 2148 - 1245 WORCESTER ST","SUSPICIOUS ACTIVITY Report to be filed","SUSPICIOUS ACTIVITY",42.299500,-71.377749,"1245 WORCESTER ST, NATICK, MA, 01760"
2024/02/22 16:41:00,"67 SUMMER ST","FOUND/ LOST PROPERTY Unfounded","FOUND/ LOST PROPERTY",42.284048,-71.351968,"67 SUMMER ST, NATICK, MA, 01760"
2024/02/22 17:10:00,"113 SPEEN ST ","MOTOR VEHICLE CRASH Report to be filed","MOTOR VEHICLE CRASH",42.279339,-71.376253,"113 SPEEN ST, NATICK, MA, 01760"
2024/02/22 18:35:00,"17 WALDEN DR","SUSPICIOUS ACTIVITY Unable to Locate","SUSPICIOUS ACTIVITY",42.276787,-71.387309,"17 WALDEN DR, NATICK, MA, 01760"
2024/02/22 19:05:00,"[NAT 3019] MACY'S - 1247 WORCESTER ST","SHOPLIFTING P - Services Rendered","SHOPLIFTING",42.299501,-71.377795,"1247 WORCESTER ST, NATICK, MA, 01760"
2024/02/22 19:12:00,"6 VILLAGE GREEN LN","B& E MOTOR VEHICLE Report to be filed","B& E MOTOR VEHICLE",42.281135,-71.391688,"6 VILLAGE GREEN LN, NATICK, MA, 01760"
2024/02/22 19:43:00,"14 SOUTH AVE ","PARKING COMPLAINT Citation/ Warning Issued","PARKING COMPLAINT",42.285567,-71.345200,"14 SOUTH AVE, NATICK, MA, 01760"
2024/02/22 20:11:00,"[NAT 4037] LA FITNESS - 1 DEAN RD","ASSAULT Gone On Arrival","ASSAULT",42.296920,-71.387206,"1 DEAN RD, NATICK, MA, 01760"
2024/02/22 20:23:00,"1245 WORCESTER ST ","MOTOR VEHICLE STOP Citation/ Warning Issued","MOTOR VEHICLE STOP",42.299500,-71.377749,"1245 WORCESTER ST, NATICK, MA, 01760"
2024/02/22 23:44:00,"[NAT 3404] AVALON NATICK APARTMENTS - 1 CHRYSLER RD Apt. #904","F - Well Being Check F - Services Provided","Well Being Check",42.305133,-71.382036,"1 CHRYSLER RD, NATICK, MA, 01760"
2024/02/23 00:31:00,"[NAT 1705] NATICK POLICE DEPARTMENT - 20 EAST CENTRAL ST","LARCENY / FORGERY/ FRAUD Report to be filed","LARCENY / FORGERY/ FRAUD",42.284248,-71.345123,"20 E CENTRAL ST, NATICK, MA, 01760"
2024/02/23 00:41:00,"[NAT 3879] BERNARDI AUDI - 549 WORCESTER ST","MOTOR VEHICLE STOP SUMMONS REQUEST","MOTOR VEHICLE STOP",42.309143,-71.284371,"549 WORCESTER ST, WELLESLEY HILLS, MA, 02481"
2024/02/23 04:31:00,"[NAT 3893] MUTUAL ONE BANK - 49 MAIN ST","ALARM, BURGLAR P - ALARM BLDG Chk Secure","ALARM",42.285312,-71.347748,"49 MAIN ST, NATICK, MA, 01760"
2024/02/23 08:56:00,"5 COOLIDGE AVE ","Animals (Other) Removed Hazard","ANIMALS",42.278354,-71.346668,"5 COOLIDGE AVE, NATICK, MA, 01760"
2024/02/23 09:01:00,"[NAT 1238] PUMPING STATION - 1080 WORCESTER ST","MOTOR VEHICLE CRASH P - Services Rendered","MOTOR VEHICLE CRASH",42.298426,-71.370126,"1080 WORCESTER ST, NATICK, MA, 01760"
2024/02/23 09:06:00,"[NAT 355] SWEETWATERS COFFEE AND TEA - 19 SOUTH MAIN ST","FOUND/ LOST PROPERTY P - Services Rendered","FOUND/ LOST PROPERTY",42.282648,-71.347329,"19 S MAIN ST, NATICK, MA, 01760"
2024/02/23 09:19:00,"53 WEST CENTRAL ST","Animals (Other) Removed Hazard","ANIMALS",42.283103,-71.353018,"53 W CENTRAL ST, NATICK, MA, 01760"
2024/02/23 09:43:00,"17 OAK ST","Animals (Other) P - Services Rendered","ANIMALS",42.324472,-71.344612,"17 OAK ST, WAYLAND, MA, 01778"
2024/02/23 11:05:00,"[NAT 3732] DC NATICK CONSIGNMENTS - 42 WORCESTER ST","SHOPLIFTING Report to be filed","SHOPLIFTING",42.304053,-71.329029,"42 WORCESTER ST, NATICK, MA, 01760"
2024/02/23 11:10:00,"43 POND ST","COMPLAINT Report to be filed","COMPLAINT",42.282191,-71.350813,"43 POND ST, NATICK, MA, 01760"
2024/02/23 11:30:00,"158 EAST CENTRAL ST","F - MVA with Injury Log Entry","MOTOR VEHICLE CRASH",42.288344,-71.332171,"158 E CENTRAL ST, NATICK, MA, 01760"
2024/02/23 11:52:00,"[NAT 1705] NATICK POLICE DEPARTMENT - 20 EAST CENTRAL ST","ONLINE INCIDENT REPORT Report to be filed","ONLINE INCIDENT REPORT",42.284248,-71.345123,"20 E CENTRAL ST, NATICK, MA, 01760"
2024/02/23 11:52:00,"[NAT 1018] 23 EAST EVERGREEN RD ","SUSPICIOUS ACTIVITY Unfounded","SUSPICIOUS ACTIVITY",42.307050,-71.357931,"23 E EVERGREEN RD, NATICK, MA, 01760"
2024/02/23 12:44:00,"[NAT 3616] AVALON NATICK - CLUBHOUSE - 3 CHRYSLER RD","MOTOR VEHICLE TOW Vehicle Towed","MOTOR VEHICLE TOW",42.305152,-71.381969,"3 CHRYSLER RD, NATICK, MA, 01760"
2024/02/23 13:23:00,"[WAY] 344 COMMONWEALTH RD","ASSIST OTHER AGENCY Report to be filed","ASSIST OTHER AGENCY",42.323190,-71.352021,"344 COMMONWEALTH RD, WAYLAND, MA, 01778"
2024/02/23 14:35:00,"[NAT 865] CVS PHARMACY 2125 - 137 WEST CENTRAL ST","F - Investigation Report to be filed","Investigation",42.283147,-71.372361,"137 W CENTRAL ST, NATICK, MA, 01760"
2024/02/23 15:50:00,"[NAT 2688] COURTYARD BY MARRIOTT - 342 SPEEN ST","SUSPICIOUS ACTIVITY SUMMONS REQUEST","SUSPICIOUS ACTIVITY",42.300749,-71.379948,"342 SPEEN ST, NATICK, MA, 01760"
2024/02/23 16:18:00,"[NAT 3004] 25 HARTFORD ST - 25 HARTFORD ST","LARCENY / FORGERY/ FRAUD Report to be filed","LARCENY / FORGERY/ FRAUD",42.297037,-71.378815,"25 HARTFORD ST, NATICK, MA, 01760"
2024/02/23 18:14:00,"[NAT 963] HAMPTON INN - 319 SPEEN ST","FOUND/ LOST PROPERTY Report to be filed","FOUND/ LOST PROPERTY",42.301009,-71.379941,"319 SPEEN ST, NATICK, MA, 01760"
2024/02/23 18:49:00,"[NAT 4025] TOTAL WINE AND MORE - 321 SPEEN ST","REMOVE UNWANTED PERSON(S) P - Services Rendered","REMOVE UNWANTED PERSON(S)",42.301013,-71.379943,"321 SPEEN ST, NATICK, MA, 01760"
2024/02/23 21:03:00,"[NAT 920] NATICK MALL (MALL I) - 1245 WORCESTER ST","FOUND/ LOST PROPERTY P - Services Rendered","FOUND/ LOST PROPERTY",42.299500,-71.377749,"1245 WORCESTER ST, NATICK, MA, 01760"
2024/02/23 23:04:00,"110 WILSON DR","ASSIST OTHER AGENCY Unable to Locate","ASSIST OTHER AGENCY",42.285474,-71.400634,"110 WILSON DR, FRAMINGHAM, MA, 01702"
2024/02/24 09:10:00,"[NAT 68] MCDONALDS, RT 9 EASTBOUND - 290 WORCESTER ST","MOTOR VEHICLE STOP Citation/ Warning Issued","MOTOR VEHICLE STOP",42.301963,-71.340499,"290 WORCESTER ST, NATICK, MA, 01760"
2024/02/24 09:16:00,"119 WORCESTER ST ","MOTOR VEHICLE STOP Citation/ Warning Issued","MOTOR VEHICLE STOP",42.303252,-71.333703,"119 WORCESTER ST, NATICK, MA, 01760"
2024/02/24 09:20:00,"1 KENDALL LN ","MOTOR VEHICLE STOP Citation/ Warning Issued","MOTOR VEHICLE STOP",42.274467,-71.393539,"1 KENDALL LN, NATICK, MA, 01760"
2024/02/24 09:53:00,"313 SPEEN ST ","MOTOR VEHICLE STOP Citation/ Warning Issued","MOTOR VEHICLE STOP",42.300998,-71.379934,"313 SPEEN ST, NATICK, MA, 01760"
2024/02/24 10:19:00,"[NAT 1639] 84 PLEASANT ST","ALARM, BURGLAR P - ALARM SET OFF IN ERROR","ALARM",42.298465,-71.356095,"84 PLEASANT ST, NATICK, MA, 01760"
2024/02/24 10:21:00,"[NAT 403] THE CONTAINER STORE - 1265 WORCESTER ST","MOTOR VEHICLE STOP Citation/ Warning Issued","MOTOR VEHICLE STOP",42.299514,-71.378211,"1265 WORCESTER ST, NATICK, MA, 01760"
2024/02/24 10:27:00,"290 WORCESTER ST","MOTOR VEHICLE STOP Citation/ Warning Issued","MOTOR VEHICLE STOP",42.301963,-71.340499,"290 WORCESTER ST, NATICK, MA, 01760"
2024/02/24 10:44:00,"1245 WORCESTER ST","MOTOR VEHICLE STOP Citation/ Warning Issued","MOTOR VEHICLE STOP",42.299500,-71.377749,"1245 WORCESTER ST, NATICK, MA, 01760"
2024/02/24 10:53:00,"160 WEST CENTRAL ST ","MOTOR VEHICLE STOP Citation/ Warning Issued","MOTOR VEHICLE STOP",42.282474,-71.378819,"160 W CENTRAL ST, NATICK, MA, 01760"
2024/02/24 11:00:00,"[NAT 963] HAMPTON INN - 319 SPEEN ST","MOTOR VEHICLE STOP Citation/ Warning Issued","MOTOR VEHICLE STOP",42.301009,-71.379941,"319 SPEEN ST, NATICK, MA, 01760"
2024/02/24 11:22:00,"1245 WORCESTER ST","MOTOR VEHICLE STOP Citation/ Warning Issued","MOTOR VEHICLE STOP",42.299500,-71.377749,"1245 WORCESTER ST, NATICK, MA, 01760"
2024/02/24 11:29:00," 1 MALL RD","MOTOR VEHICLE STOP Citation/ Warning Issued","MOTOR VEHICLE STOP",42.278235,-71.376336,"1 MILL ST, NATICK, MA, 01760"
2024/02/24 12:31:00,"[NAT 3019] MACY'S - 1247 WORCESTER ST","ROAD RAGE INCIDENT P - Services Rendered","ROAD RAGE INCIDENT",42.299501,-71.377795,"1247 WORCESTER ST, NATICK, MA, 01760"
2024/02/24 13:37:00,"[NAT 2371] SHERWOOD PLAZA (WEST) - 1298 WORCESTER ST","M/ V CRASH/ PRIVATE PROPERTY P - Services Rendered","MOTOR VEHICLE CRASH",42.298923,-71.387223,"1298 WORCESTER ST, NATICK, MA, 01760"
2024/02/24 13:40:00,"WINSOR - 1245 WORCESTER ST","COMPLAINT P - Services Rendered","COMPLAINT",42.299500,-71.377749,"1245 WORCESTER ST, NATICK, MA, 01760"
2024/02/24 14:16:00,"[NAT 3879] BERNARDI AUDI - 549 WORCESTER ST","MOTOR VEHICLE STOP P - Services Rendered","MOTOR VEHICLE STOP",42.309143,-71.284371,"549 WORCESTER ST, WELLESLEY HILLS, MA, 02481"
2024/02/24 15:14:00,"[NAT 466] 7- ELEVEN - 172 NORTH MAIN ST","MOTOR VEHICLE STOP Citation/ Warning Issued","MOTOR VEHICLE STOP",42.297786,-71.359299,"172 N MAIN ST, NATICK, MA, 01760"
2024/02/24 15:22:00,"[NAT 2101] NATICK MALL (PARKING DECK C) - 1249 WORCESTER ST","ROAD RAGE INCIDENT P - Services Rendered","ROAD RAGE INCIDENT",42.299503,-71.377842,"1249 WORCESTER ST, NATICK, MA, 01760"
2024/02/24 15:45:00,"[NAT 869] ROCHE BROS SUPERMARKET - 150 WEST CENTRAL ST","MOTOR VEHICLE CRASH Report to be filed","MOTOR VEHICLE CRASH",42.282483,-71.378214,"150 W CENTRAL ST, NATICK, MA, 01760"
2024/02/24 15:50:00,"[NAT 4367] FIDO DOG PARK - 109 WEST CENTRAL ST","SUSPICIOUS ACTIVITY P - Services Rendered","SUSPICIOUS ACTIVITY",42.283576,-71.366282,"109 W CENTRAL ST, NATICK, MA, 01760"
2024/02/24 16:37:00,"52 WOODLAND ST","Animals (Other) P - Services Rendered","ANIMALS",42.273018,-71.338960,"52 WOODLAND ST, NATICK, MA, 01760"
2024/02/24 16:56:00,"17 COOPER RD","MOTOR VEHICLE TOW Vehicle Towed","MOTOR VEHICLE TOW",42.302797,-71.330356,"17 COOPER RD, NATICK, MA, 01760"
2024/02/24 17:11:00,"[NAT 3019] MACY'S - 1247 WORCESTER ST","SHOPLIFTING P - Services Rendered","SHOPLIFTING",42.299501,-71.377795,"1247 WORCESTER ST, NATICK, MA, 01760"
2024/02/24 17:28:00,"161 MILL ST ","MOTOR VEHICLE STOP Citation/ Warning Issued","MOTOR VEHICLE STOP",42.288710,-71.384402,"161 MILL ST, NATICK, MA, 01760"
2024/02/24 18:21:00,"[NAT 956] FIRESTONE TIRE SERVICE - 1362 WORCESTER ST","MOTOR VEHICLE CRASH SUMMONS REQUEST","MOTOR VEHICLE CRASH",42.298771,-71.391457,"1362 WORCESTER ST, NATICK, MA, 01760"
2024/02/24 18:27:00,"125 HARTFORD ST","F - MVA with Injury SUMMONS REQUEST","MOTOR VEHICLE CRASH",42.291859,-71.389796,"125 HARTFORD ST, NATICK, MA, 01760"
2024/02/24 18:31:00,"5 PLAIN ST ","PARKING COMPLAINT Gone On Arrival","PARKING COMPLAINT",42.282379,-71.348869,"5 PLAIN ST, NATICK, MA, 01760"
2024/02/24 19:38:00,"[NAT 2101] NATICK MALL (PARKING DECK C) - 1249 WORCESTER ST","SUSPICIOUS ACTIVITY Unable to Locate","SUSPICIOUS ACTIVITY",42.299503,-71.377842,"1249 WORCESTER ST, NATICK, MA, 01760"
2024/02/24 21:05:00,"[NAT 3222] CHEESECAKE FACTORY - 1245 WORCESTER ST Apt. #1098","PARKING COMPLAINT Unable to Locate","PARKING COMPLAINT",42.299500,-71.377749,"1245 WORCESTER ST, NATICK, MA, 01760"
2024/02/24 21:25:00,"6 EMERSON ST","SUSPICIOUS ACTIVITY P - Services Rendered","SUSPICIOUS ACTIVITY",42.305667,-71.351544,"6 EMERSON RD, NATICK, MA, 01760"
2024/02/24 23:44:00,"[NAT 1532] 28 WEST CENTRAL ST - 28 WEST CENTRAL ST Apt. #2","ANIMALS, BARKING DOG P - Services Rendered","ANIMALS",42.283347,-71.350251,"28 W CENTRAL ST, NATICK, MA, 01760"
2024/02/25 01:59:00,"[NAT 403] THE CONTAINER STORE - 1265 WORCESTER ST","MOTOR VEHICLE STOP Citation/ Warning Issued","MOTOR VEHICLE STOP",42.299514,-71.378211,"1265 WORCESTER ST, NATICK, MA, 01760"
2024/02/25 03:58:00,"1 CHARLES ST ","DISABLED M/V Log Entry","DISABLED M/V",42.289203,-71.350804,"1 CHARLES ST, NATICK, MA, 01760"
2024/02/25 09:34:00,"50 UNION ST","MOTOR VEHICLE STOP Citation/ Warning Issued","MOTOR VEHICLE STOP",42.282068,-71.334670,"50 UNION ST, NATICK, MA, 01760"
2024/02/25 10:35:00,"[NAT 68] MCDONALDS, RT 9 EASTBOUND - 290 WORCESTER ST","MOTOR VEHICLE STOP Citation/ Warning Issued","MOTOR VEHICLE STOP",42.301963,-71.340499,"290 WORCESTER ST, NATICK, MA, 01760"
2024/02/25 10:42:00,"50 HARTFORD ST","MOTOR VEHICLE STOP Citation/ Warning Issued","MOTOR VEHICLE STOP",42.295059,-71.381678,"50 HARTFORD ST, NATICK, MA, 01760"
2024/02/25 10:58:00,"[NAT 3298] NATICK FIREPLACE - 671 WORCESTER ST","MOTOR VEHICLE STOP Citation/ Warning Issued","MOTOR VEHICLE STOP",42.306450,-71.295256,"671 WORCESTER ST, WELLESLEY HILLS, MA, 02481"
2024/02/25 11:51:00,"87 HARTFORD ST","MOTOR VEHICLE STOP Citation/ Warning Issued","MOTOR VEHICLE STOP",42.293475,-71.385249,"87 HARTFORD ST, NATICK, MA, 01760"
2024/02/25 13:01:00,"[NAT 941] VALVOLINE INSTANT OIL CHANGE - 891 WORCESTER ST","MOTOR VEHICLE CRASH P - Services Rendered","MOTOR VEHICLE CRASH",42.305265,-71.315556,"891 WORCESTER ST, WELLESLEY, MA, 02482"
2024/02/25 13:02:00,"C-DECK - 1245 WORCESTER ST","MOTOR VEHICLE STOP SUMMONS REQUEST","MOTOR VEHICLE STOP",42.299500,-71.377749,"1245 WORCESTER ST, NATICK, MA, 01760"
2024/02/25 13:12:00,"141 NORTH MAIN ST","MOTOR VEHICLE STOP Arrest(s) Made","MOTOR VEHICLE STOP",42.294501,-71.357956,"141 N MAIN ST, NATICK, MA, 01760"
2024/02/25 13:30:00,"44 EAST CENTRAL ST ","HAZARD Removed Hazard","HAZARD",42.284610,-71.343196,"44 E CENTRAL ST, NATICK, MA, 01760"
2024/02/25 13:58:00,"[NAT 135] BRIGHAM GILL MOTORCARS INC - 817 WORCESTER ST","MOTOR VEHICLE STOP Citation/ Warning Issued","MOTOR VEHICLE STOP",42.305644,-71.310768,"817 WORCESTER ST, WELLESLEY HILLS, MA, 02481"
2024/02/25 14:16:00,"[NAT 3616] AVALON NATICK - CLUBHOUSE - 3 CHRYSLER RD","M/ V CRASH/ PRIVATE PROPERTY P - Services Rendered","MOTOR VEHICLE CRASH",42.305152,-71.381969,"3 CHRYSLER RD, NATICK, MA, 01760"
2024/02/25 14:24:00,"[NAT 4092] NEWTON DISTRIBUTING - 245 WEST CENTRAL ST","MOTOR VEHICLE STOP Citation/ Warning Issued","MOTOR VEHICLE STOP",42.281973,-71.390508,"245 W CENTRAL ST, NATICK, MA, 01760"
2024/02/25 15:56:00,"[NAT 3019] MACY'S - 1247 WORCESTER ST","SHOPLIFTING Arrest(s) Made","SHOPLIFTING",42.299501,-71.377795,"1247 WORCESTER ST, NATICK, MA, 01760"
2024/02/25 16:12:00,"[NAT 703] BURLINGTON COAT FACTORY - 321 SPEEN ST","LARCENY / FORGERY/ FRAUD Report to be filed","LARCENY / FORGERY/ FRAUD",42.301013,-71.379943,"321 SPEEN ST, NATICK, MA, 01760"
2024/02/25 16:30:00,"[NAT 2051] HOME DEPOT - 339 SPEEN ST","PARKING COMPLAINT Citation/ Warning Issued","PARKING COMPLAINT",42.301047,-71.379963,"339 SPEEN ST, NATICK, MA, 01760"
2024/02/25 16:48:00,"[NAT 3236] WALNUT HILL SCHOOL / BISHOP HALL - 81 WALNUT ST","SUSPICIOUS ACTIVITY Unfounded","SUSPICIOUS ACTIVITY",42.290503,-71.348200,"81 WALNUT ST, NATICK, MA, 01760"
2024/02/25 18:15:00,"[NAT 1881] CALIFORNIA PIZZA KITCHEN - 1245 WORCESTER ST Apt. #1092","ALARM, HOLD-UP Unable to Locate","ALARM",42.299500,-71.377749,"1245 WORCESTER ST, NATICK, MA, 01760"
2024/02/25 21:25:00,"242 SPEEN ST ","MOTOR VEHICLE STOP Citation/ Warning Issued","MOTOR VEHICLE STOP",42.294937,-71.376894,"242 SPEEN ST, NATICK, MA, 01760"
2024/02/25 22:16:00,"[NAT 4011] DUNKIN DONUTS - 119 WEST CENTRAL ST Apt. #1-A","MOTOR VEHICLE STOP Citation/ Warning Issued","MOTOR VEHICLE STOP",42.283715,-71.368930,"119 W CENTRAL ST, NATICK, MA, 01760"
2024/02/25 23:09:00,"63 SPEEN ST ","MOTOR VEHICLE STOP Citation/ Warning Issued","MOTOR VEHICLE STOP",42.275927,-71.377395,"63 SPEEN ST, NATICK, MA, 01760"
2024/02/26 06:33:00,"[NAT 355] SWEETWATERS COFFEE AND TEA - 19 SOUTH MAIN ST","ALARM, BURGLAR P - ALARM SET OFF IN ERROR","ALARM",42.282648,-71.347329,"19 S MAIN ST, NATICK, MA, 01760"
2024/02/26 06:40:00,"[NAT 2051] HOME DEPOT - 339 SPEEN ST","PARKING COMPLAINT P - Services Rendered","PARKING COMPLAINT",42.301047,-71.379963,"339 SPEEN ST, NATICK, MA, 01760"
2024/02/26 06:45:00,"2 DOTTIES CT","JUVENILE PROBLEM P - Services Rendered","JUVENILE PROBLEM",42.314551,-71.356665,"2 DOTTIES CT, NATICK, MA, 01760"
2024/02/26 07:46:00,"66 POND ST","B& E MOTOR VEHICLE Report to be filed","B& E MOTOR VEHICLE",42.281502,-71.352613,"66 POND ST, NATICK, MA, 01760"
2024/02/26 08:13:00,"[NAT 1011] TEMPLE ISRAEL - 145 HARTFORD ST","911 HANG UP P - Services Rendered","911 HANG UP",42.291216,-71.403048,"145 HARTFORD ST, FRAMINGHAM, MA, 01702"
2024/02/26 08:49:00,"[NAT 2643] STICKLEY FURNITURE - 323 SPEEN ST","ALARM, BURGLAR P - ALARM SET OFF IN ERROR","ALARM",42.301016,-71.379945,"323 SPEEN ST, NATICK, MA, 01760"
2024/02/26 08:53:00,"[FRA] 600 CONCORD ST","ESCORT/ TRANSPORT P - Services Rendered","ESCORT/",42.292559,-71.409285,"600 CONCORD ST, FRAMINGHAM, MA, 01702"
2024/02/26 09:35:00,"165 HARTFORD ST","MOTOR VEHICLE STOP P - Services Rendered","MOTOR VEHICLE STOP",42.291059,-71.396165,"165 HARTFORD ST, NATICK, MA, 01760"
2024/02/26 09:51:00,"43 NORTH MAIN ST","F - MVA with Injury Vehicle Towed","MOTOR VEHICLE CRASH",42.287916,-71.349934,"43 N MAIN ST, NATICK, MA, 01760"
2024/02/26 09:51:00,"[NAT 436] 43 MAIN ST","MOTOR VEHICLE CRASH Merge: 24-3497 By: 41598","MOTOR VEHICLE CRASH",42.285301,-71.347743,"43 MAIN ST, NATICK, MA, 01760"
2024/02/26 10:14:00,"13 POSSUM HOLLOW LN","F - Well Being Check F - No Patient","Well Being Check",42.294161,-71.373584,"13 POSSUM HOLLOW LN, NATICK, MA, 01760"
2024/02/26 11:10:00,"517 WORCESTER ST ","MOTOR VEHICLE STOP Citation/ Warning Issued","MOTOR VEHICLE STOP",42.310568,-71.280848,"517 WORCESTER ST, WELLESLEY HILLS, MA, 02481"
2024/02/26 11:29:00,"721 WORCESTER ST","MOTOR VEHICLE STOP Citation/ Warning Issued","MOTOR VEHICLE STOP",42.306036,-71.299174,"721 WORCESTER ST, WELLESLEY HILLS, MA, 02481"
2024/02/26 11:33:00,"842 WORCESTER ST ","MOTOR VEHICLE STOP Citation/ Warning Issued","MOTOR VEHICLE STOP",42.300178,-71.357070,"842 WORCESTER ST, NATICK, MA, 01760"
2024/02/26 12:06:00,"[NAT 1513] 148 MILL ST - 148 MILL ST","MOTOR VEHICLE STOP Citation/ Warning Issued","MOTOR VEHICLE STOP",42.287773,-71.383251,"148 MILL ST, NATICK, MA, 01760"
2024/02/26 12:53:00,"62 HARTFORD ST","MOTOR VEHICLE STOP SUMMONS REQUEST","MOTOR VEHICLE STOP",42.289449,-71.407687,"62 HARTFORD ST, FRAMINGHAM, MA, 01702"
2024/02/26 13:02:00,"[NAT 2983] SUBWAY ( EAST NATICK ) - 189 WORCESTER ST","MOTOR VEHICLE STOP Citation/ Warning Issued","MOTOR VEHICLE STOP",42.303249,-71.333719,"189 WORCESTER ST, NATICK, MA, 01760"
2024/02/26 13:13:00,"304 WEST CENTRAL ST","JUVENILE PROBLEM P - Services Rendered","JUVENILE PROBLEM",42.281054,-71.397012,"304 W CENTRAL ST, NATICK, MA, 01760"
2024/02/26 13:23:00,"10 GRANT ST Apt. #2","ASSIST OTHER AGENCY P - Services Rendered","ASSIST OTHER AGENCY",42.284582,-71.341810,"10 GRANT ST, NATICK, MA, 01760"
2024/02/26 14:11:00,"4 WETHERSFIELD RD ","MOTOR VEHICLE STOP Citation/ Warning Issued","MOTOR VEHICLE STOP",42.302347,-71.352388,"4 WETHERSFIELD RD, NATICK, MA, 01760"
2024/02/26 14:21:00,"[NAT 3165] APPLE STORE - 1245 WORCESTER ST Apt. #3082","LARCENY / FORGERY/ FRAUD P - Services Rendered","LARCENY / FORGERY/ FRAUD",42.299500,-71.377749,"1245 WORCESTER ST, NATICK, MA, 01760"
2024/02/26 14:27:00,"[NAT 855] THRIVE PET HEALTH CARE - 121 WEST CENTRAL ST","MOTOR VEHICLE STOP Citation/ Warning Issued","MOTOR VEHICLE STOP",42.283651,-71.369312,"121 W CENTRAL ST, NATICK, MA, 01760"
2024/02/26 14:37:00,"[NAT 3364] PANERA BREAD - 841 WORCESTER ST","SUSPICIOUS ACTIVITY Report to be filed","SUSPICIOUS ACTIVITY",42.305605,-71.311290,"841 WORCESTER ST, WELLESLEY HILLS, MA, 02481"
2024/02/26 14:45:00,"[NAT 2157] COOLIDGE FIELD - 5 CHESTER ST","Animals (Other) P - Services Rendered","ANIMALS",42.280438,-71.343831,"5 CHESTER ST, NATICK, MA, 01760"
2024/02/26 17:00:00,"[NAT 1502] 41 HOPEWELL FARM RD - 41 HOPEWELL FARM RD","ALARM, BURGLAR P - ALARM BLDG Chk Secure","ALARM",42.260170,-71.347165,"41 HOPEWELL FARM RD, NATICK, MA, 01760"
2024/02/26 17:37:00,"21 LAKEVIEW GARDENS Apt. #914","SUSPICIOUS ACTIVITY Report to be filed","SUSPICIOUS ACTIVITY",42.275519,-71.369695,"21 LAKEVIEW AVE, NATICK, MA, 01760"
2024/02/26 18:17:00,"[NAT 1772] NATICK COMMON - 1 EAST CENTRAL ST ","FOUND/ LOST PROPERTY Log Entry","FOUND/ LOST PROPERTY",42.284032,-71.345567,"1 E CENTRAL ST, NATICK, MA, 01760"
2024/02/26 18:37:00,"[NAT 1502] 41 HOPEWELL FARM RD - 41 HOPEWELL FARM RD","ALARM, BURGLAR P - ALARM BLDG Chk Secure","ALARM",42.260170,-71.347165,"41 HOPEWELL FARM RD, NATICK, MA, 01760"
2024/02/26 18:49:00,"26 ELMWOOD AVE","SUSPICIOUS ACTIVITY P - Services Rendered","SUSPICIOUS ACTIVITY",42.276471,-71.348155,"26 ELMWOOD AVE, NATICK, MA, 01760"
2024/02/26 19:56:00,"[NAT 4092] NEWTON DISTRIBUTING - 245 WEST CENTRAL ST","MOTOR VEHICLE STOP SUMMONS REQUEST","MOTOR VEHICLE STOP",42.281973,-71.390508,"245 W CENTRAL ST, NATICK, MA, 01760"
2024/02/26 21:40:00,"[NAT 869] ROCHE BROS SUPERMARKET - 150 WEST CENTRAL ST","MOTOR VEHICLE STOP Citation/ Warning Issued","MOTOR VEHICLE STOP",42.282483,-71.378214,"150 W CENTRAL ST, NATICK, MA, 01760"
2024/02/27 07:21:00,"250 BACON ST","MOTOR VEHICLE STOP Citation/ Warning Issued","MOTOR VEHICLE STOP",42.297165,-71.356701,"250 BACON ST, NATICK, MA, 01760"
2024/02/27 08:11:00,"[NAT 3153] ANTHROPOLOGIE - 1245 WORCESTER ST Apt. #4012","ALARM, BURGLAR P - ALARM SET OFF IN ERROR","ALARM",42.299500,-71.377749,"1245 WORCESTER ST, NATICK, MA, 01760"
2024/02/27 08:29:00,"[NAT 920] NATICK MALL (MALL I) - 1245 WORCESTER ST","MOTOR VEHICLE STOP Citation/ Warning Issued","MOTOR VEHICLE STOP",42.299500,-71.377749,"1245 WORCESTER ST, NATICK, MA, 01760"
2024/02/27 08:42:00,"[NAT 2047] SPEEDWAY - 194 WEST CENTRAL ST","MOTOR VEHICLE STOP SUMMONS REQUEST","MOTOR VEHICLE STOP",42.282353,-71.382449,"194 W CENTRAL ST, NATICK, MA, 01760"
2024/02/27 09:01:00,"6 PORTER RD","MOTOR VEHICLE STOP Citation/ Warning Issued","MOTOR VEHICLE STOP",42.291962,-71.391470,"6 PORTER RD, NATICK, MA, 01760"
2024/02/27 09:13:00,"[NAT 3971] COMMON STREET COMMUNITY CHURCH - 13 COMMON ST","SUSPICIOUS ACTIVITY Report to be filed","SUSPICIOUS ACTIVITY",42.282888,-71.345859,"13 COMMON ST, NATICK, MA, 01760"
2024/02/27 09:26:00,"107 SPEEN ST Apt. #A","Animals (Other) P - Services Rendered","ANIMALS",42.279101,-71.376252,"107 SPEEN ST, NATICK, MA, 01760"
2024/02/27 09:34:00,"[NAT 1238] PUMPING STATION - 1080 WORCESTER ST","MOTOR VEHICLE STOP SUMMONS REQUEST","MOTOR VEHICLE STOP",42.298426,-71.370126,"1080 WORCESTER ST, NATICK, MA, 01760"
2024/02/27 09:39:00,"[NAT 3731] MERCEDES BENZ OF NATICK - 253 NORTH MAIN ST","MOTOR VEHICLE STOP Citation/ Warning Issued","MOTOR VEHICLE STOP",42.307387,-71.361712,"253 N MAIN ST, NATICK, MA, 01760"
2024/02/27 10:13:00,"[NAT 3393] 1 LELAND RD - 1 LELAND RD","LARCENY / FORGERY/ FRAUD Report to be filed","LARCENY / FORGERY/ FRAUD",42.305407,-71.336983,"1 LELAND RD, NATICK, MA, 01760"
2024/02/27 10:53:00,"[NAT 2933] LZ-7 NATICK (MURPHY FIELD) - 156 NORTH MAIN ST","MOTOR VEHICLE STOP Citation/ Warning Issued","MOTOR VEHICLE STOP",42.296528,-71.358975,"156 N MAIN ST, NATICK, MA, 01760"
2024/02/27 11:22:00,"82 SPEEN ST ","Animals (Other) Gone On Arrival","ANIMALS",42.278118,-71.376379,"82 SPEEN ST, NATICK, MA, 01760"
2024/02/27 11:41:00,"84 SPEEN ST ","Animals (Other) P - Services Rendered","ANIMALS",42.278217,-71.376378,"84 SPEEN ST, NATICK, MA, 01760"
2024/02/27 11:50:00,"[NAT 79] BERNARDI HONDA - 960 WORCESTER ST","MOTOR VEHICLE STOP Citation/ Warning Issued","MOTOR VEHICLE STOP",42.299258,-71.365104,"960 WORCESTER ST, NATICK, MA, 01760"
2024/02/27 11:53:00,"[NAT 4013] MITCHEL GOLD & BOB WILLIAMS - 625 WORCESTER ST Apt. #ST","MOTOR VEHICLE STOP Citation/ Warning Issued","MOTOR VEHICLE STOP",42.307026,-71.292761,"625 WORCESTER ST, WELLESLEY HILLS, MA, 02481"
2024/02/27 11:59:00,"[NAT 2212] LIBERTY PIZZA OF NATICK - 2 MILL ST","Animals (Other) P - Services Rendered","ANIMALS",42.278133,-71.376408,"2 MILL ST, NATICK, MA, 01760"
2024/02/27 12:13:00,"2 POST OAK LN Apt. #6","SERVE SUMMONS SERVED IN-HAND","SERVE SUMMONS",42.277821,-71.386779,"2 POST OAK LN, NATICK, MA, 01760"
2024/02/27 12:52:00,"[NAT 68] MCDONALDS, RT 9 EASTBOUND - 290 WORCESTER ST","MOTOR VEHICLE STOP Citation/ Warning Issued","MOTOR VEHICLE STOP",42.301963,-71.340499,"290 WORCESTER ST, NATICK, MA, 01760"
2024/02/27 13:03:00,"119 WORCESTER ST ","MOTOR VEHICLE STOP Citation/ Warning Issued","MOTOR VEHICLE STOP",42.303252,-71.333703,"119 WORCESTER ST, NATICK, MA, 01760"
2024/02/27 13:06:00,"89 HARTFORD ST","MOTOR VEHICLE STOP Citation/ Warning Issued","MOTOR VEHICLE STOP",42.293405,-71.385522,"89 HARTFORD ST, NATICK, MA, 01760"
2024/02/27 13:18:00,"[NAT 3287] NORDSTROM - 290 SPEEN ST","SUSPICIOUS ACTIVITY Unfounded","SUSPICIOUS ACTIVITY",42.299269,-71.379049,"290 SPEEN ST, NATICK, MA, 01760"
2024/02/27 13:31:00,"[NAT 75] NATICK- WELLESLEY VETERINARY HOSPITAL - 359 WORCESTER ST","MOTOR VEHICLE STOP Citation/ Warning Issued","MOTOR VEHICLE STOP",42.314806,-71.267133,"359 WORCESTER ST, WELLESLEY HILLS, MA, 02481"
2024/02/27 13:33:00,"160 WEST CENTRAL ST ","MOTOR VEHICLE STOP Citation/ Warning Issued","MOTOR VEHICLE STOP",42.282474,-71.378819,"160 W CENTRAL ST, NATICK, MA, 01760"
2024/02/27 13:39:00,"99 OAK ST","MOTOR VEHICLE STOP Citation/ Warning Issued","MOTOR VEHICLE STOP",42.305492,-71.332428,"99 OAK ST, NATICK, MA, 01760"
2024/02/27 13:44:00,"[NAT 869] ROCHE BROS SUPERMARKET - 150 WEST CENTRAL ST","MOTOR VEHICLE STOP Citation/ Warning Issued","MOTOR VEHICLE STOP",42.282483,-71.378214,"150 W CENTRAL ST, NATICK, MA, 01760"
2024/02/27 13:50:00,"73 MILL ST ","MOTOR VEHICLE STOP Citation/ Warning Issued","MOTOR VEHICLE STOP",42.284859,-71.381432,"73 MILL ST, NATICK, MA, 01760"
2024/02/27 14:30:00,"1 CENTRE ST","MOTOR VEHICLE STOP Citation/ Warning Issued","MOTOR VEHICLE STOP",42.301734,-71.344706,"1 CENTRE ST, NATICK, MA, 01760"
2024/02/27 14:43:00,"[NAT 3640] 538 WORCESTER ST ","DISABLED M/V P - Services Rendered","DISABLED M/V",42.301328,-71.346473,"538 WORCESTER ST, NATICK, MA, 01760"
2024/02/27 14:47:00,"[NAT 937] OGA'S JAPANESE CUISINE - 915 WORCESTER ST","MOTOR VEHICLE STOP Citation/ Warning Issued","MOTOR VEHICLE STOP",42.299876,-71.361849,"915 WORCESTER ST, NATICK, MA, 01760"
2024/02/27 14:53:00,"155 MILL ST","MOTOR VEHICLE STOP Citation/ Warning Issued","MOTOR VEHICLE STOP",42.288524,-71.384142,"155 MILL ST, NATICK, MA, 01760"
2024/02/27 14:57:00,"3 SHERMAN TER","SUSPICIOUS ACTIVITY Report to be filed","SUSPICIOUS ACTIVITY",42.282740,-71.340065,"3 SHERMAN TER, NATICK, MA, 01760"
2024/02/27 15:09:00,"182 PINE ST ","F - MVA with Injury SUMMONS REQUEST","MOTOR VEHICLE CRASH",42.315651,-71.341296,"182 PINE ST, NATICK, MA, 01760"
2024/02/27 16:08:00,"[NAT 1705] NATICK POLICE DEPARTMENT - 20 EAST CENTRAL ST","ONLINE INCIDENT REPORT Report to be filed","ONLINE INCIDENT REPORT",42.284248,-71.345123,"20 E CENTRAL ST, NATICK, MA, 01760"
2024/02/27 16:26:00,"3 ALLEN CT","PARKING COMPLAINT P - Services Rendered","PARKING COMPLAINT",42.286693,-71.347818,"3 ALLEN CT, NATICK, MA, 01760"
2024/02/27 16:46:00,"[NAT 3590] TILES PLUS MORE - 309 WORCESTER ST","SUSPICIOUS ACTIVITY Report to be filed","SUSPICIOUS ACTIVITY",42.314519,-71.256927,"309 WORCESTER ST, WELLESLEY HILLS, MA, 02481"
2024/02/27 17:18:00,"[NAT 3396] 2 AUSTIN WAY - 2 AUSTIN WAY","ALARM, BURGLAR P - ALARM SET OFF IN ERROR","ALARM",42.293280,-71.340180,"2 AUSTIN WAY, NATICK, MA, 01760"
2024/02/27 17:27:00,"BOOT BARN - 321 SPEEN ST","ALARM, BURGLAR P - ALARM SET OFF IN ERROR","ALARM",42.301013,-71.379943,"321 SPEEN ST, NATICK, MA, 01760"
2024/02/27 17:34:00,"[NAT 2448] MURPHY FIELD - 161 NORTH MAIN ST","F - MVA with Injury Report to be filed","MOTOR VEHICLE CRASH",42.297147,-71.359019,"161 N MAIN ST, NATICK, MA, 01760"
2024/02/27 18:15:00,"[NAT 169] 25 IRVING RD - 25 IRVING RD","FOUND/ LOST PROPERTY P - Services Rendered","FOUND/ LOST PROPERTY",42.308021,-71.348497,"25 IRVING RD, NATICK, MA, 01760"
2024/02/27 19:23:00,"325 SPEEN ST Apt. #614","F - Well Being Check Report to be filed","Well Being Check",42.301020,-71.379948,"325 SPEEN ST, NATICK, MA, 01760"
2024/02/27 20:42:00,"[NAT 79] 262 SPEEN ST ","F - MVA with Injury F - Transport-Hospital","MOTOR VEHICLE CRASH",42.297144,-71.377679,"262 SPEEN ST, NATICK, MA, 01760"
2024/02/27 20:42:00,"11 VILLAGE WAY Apt. #6","FOUND/ LOST PROPERTY Report to be filed","FOUND/ LOST PROPERTY",42.280407,-71.390228,"11 VILLAGE WAY, NATICK, MA, 01760"
2024/02/28 00:14:00,"[NAT 4139] COMMERCIAL BUILDING - 16 TECH CIR","ALARM, BURGLAR P - Services Rendered","ALARM",42.313778,-71.337926,"16 TECH CIR, NATICK, MA, 01760"
2024/02/28 02:33:00,"DRIS CORP - 16 TECH CIR","ALARM, BURGLAR P - Services Rendered","ALARM",42.313778,-71.337926,"16 TECH CIR, NATICK, MA, 01760"
2024/02/28 06:31:00,"[NAT 3116] BRIGHT HORIZONS AT NATICK - 313 SPEEN ST","ALARM, BURGLAR P - Services Rendered","ALARM",42.300998,-71.379934,"313 SPEEN ST, NATICK, MA, 01760"
2024/02/28 07:31:00,"164 SPEEN ST","F - Well Being Check F - No Patient","Well Being Check",42.286542,-71.375307,"164 SPEEN ST, NATICK, MA, 01760"
2024/02/28 10:12:00,"260 SPEEN ST","MOTOR VEHICLE STOP Citation/ Warning Issued","MOTOR VEHICLE STOP",42.297136,-71.377671,"260 SPEEN ST, NATICK, MA, 01760"
2024/02/28 10:31:00,"BOOT BARN - 321 SPEEN ST","ALARM, BURGLAR P - ALARM SET OFF IN ERROR","ALARM",42.301013,-71.379943,"321 SPEEN ST, NATICK, MA, 01760"
2024/02/28 11:21:00,"167 SOUTH MAIN ST ","DISABLED M/V Vehicle Towed","DISABLED M/V",42.272026,-71.354650,"167 S MAIN ST, NATICK, MA, 01760"
2024/02/28 11:32:00,"219 NORTH MAIN ST","HAZARD Removed Hazard","HAZARD",42.303076,-71.361265,"219 N MAIN ST, NATICK, MA, 01760"
2024/02/28 13:25:00,"[NAT 3222] CHEESECAKE FACTORY - 1245 WORCESTER ST Apt. #1098","SUSPICIOUS ACTIVITY P - Services Rendered","SUSPICIOUS ACTIVITY",42.299500,-71.377749,"1245 WORCESTER ST, NATICK, MA, 01760"
2024/02/28 13:35:00,"[NAT 431] CITIZENS BANK - 34 MAIN ST","ASSAULT Report to be filed","ASSAULT",42.285688,-71.348005,"34 MAIN ST, NATICK, MA, 01760"
2024/02/28 13:56:00,"[NAT 1541] METROWEST SUBARU LLC - 948 WORCESTER ST","MOTOR VEHICLE STOP Citation/ Warning Issued","MOTOR VEHICLE STOP",42.299337,-71.364467,"948 WORCESTER ST, NATICK, MA, 01760"
2024/02/28 14:00:00,"1245 WORCESTER ST","LARCENY / FORGERY/ FRAUD Report to be filed","LARCENY / FORGERY/ FRAUD",42.299500,-71.377749,"1245 WORCESTER ST, NATICK, MA, 01760"
2024/02/28 14:26:00,"6 VILLAGE GREEN LN Apt. #19","F - Well Being Check F - Transport-Hospital","Well Being Check",42.281135,-71.391688,"6 VILLAGE GREEN LN, NATICK, MA, 01760"
2024/02/28 16:59:00,"[NAT 626] DEBCO MACHINE - 85 NORTH AVE","ALARM, BURGLAR P - ALARM BLDG Chk Secure","ALARM",42.286679,-71.343064,"85 NORTH AVE, NATICK, MA, 01760"
2024/02/28 17:48:00,"313 SPEEN ST","MOTOR VEHICLE STOP Citation/ Warning Issued","MOTOR VEHICLE STOP",42.300998,-71.379934,"313 SPEEN ST, NATICK, MA, 01760"
2024/02/28 18:15:00,"[NAT 626] DEBCO MACHINE - 85 NORTH AVE","ALARM, BURGLAR P - ALARM BLDG Chk Secure","ALARM",42.286679,-71.343064,"85 NORTH AVE, NATICK, MA, 01760"
2024/02/28 18:20:00,"[NAT 4385] 16 CURVE ST 3 FAMILY - 16 CURVE ST Apt. #3","ASSIST OTHER AGENCY Log Entry","ASSIST OTHER AGENCY",42.277035,-71.352335,"16 CURVE ST, NATICK, MA, 01760"
2024/02/28 18:39:00,"[NAT 3732] DC NATICK CONSIGNMENTS - 42 WORCESTER ST","F - MVA with Injury F - Transport-Hospital","MOTOR VEHICLE CRASH",42.304053,-71.329029,"42 WORCESTER ST, NATICK, MA, 01760"
2024/02/28 18:44:00,"150 WEST CENTRAL ST ","F - MVA with Injury Report to be filed","MOTOR VEHICLE CRASH",42.282483,-71.378214,"150 W CENTRAL ST, NATICK, MA, 01760"
2024/02/28 18:57:00,"53 ELIOT HILL RD","LARCENY / FORGERY/ FRAUD Report to be filed","LARCENY / FORGERY/ FRAUD",42.260857,-71.337160,"53 ELIOT HILL RD, NATICK, MA, 01760"
2024/02/28 19:09:00,"[NAT 66] STAPLES OFFICE SUPPLIES - 881 WORCESTER ST","SUSPICIOUS ACTIVITY Log Entry","SUSPICIOUS ACTIVITY",42.305408,-71.313606,"881 WORCESTER ST, WELLESLEY, MA, 02482"
2024/02/28 19:35:00,"23 MAIN ST","MOTOR VEHICLE TOW Vehicle Towed","MOTOR VEHICLE TOW",42.284542,-71.347525,"23 MAIN ST, NATICK, MA, 01760"
2024/02/28 20:11:00,"[NAT 2662] NATICK FIRE DEPARTMENT - 22 EAST CENTRAL ST","SUSPICIOUS ACTIVITY Log Entry","SUSPICIOUS ACTIVITY",42.284254,-71.345093,"22 E CENTRAL ST, NATICK, MA, 01760"
2024/02/28 21:49:00,"122 OAK ST","ALARM, BURGLAR P - Services Rendered","ALARM",42.308602,-71.333447,"122 OAK ST, NATICK, MA, 01760"
2024/02/28 22:29:00,"PRECOR HOME FITNESS - 1400 WORCESTER ST","ALARM, BURGLAR P- Alarm Open Door/ Window","ALARM",42.298767,-71.391565,"1400 WORCESTER ST, NATICK, MA, 01760"
2024/02/28 22:47:00,"[NAT 4165] ADVANCE AUTO PARTS - 219 NORTH MAIN ST","ALARM, BURGLAR P- Alarm Open Door/ Window","ALARM",42.303076,-71.361265,"219 N MAIN ST, NATICK, MA, 01760"
2024/02/29 06:03:00,"1 MAINSTONE RD ","HAZARD P - Services Rendered","HAZARD",42.329661,-71.330200,"1 MAINSTONE RD, WAYLAND, MA, 01778"
2024/02/29 07:07:00,"41 SPEEN ST","MOTOR VEHICLE STOP P - Services Rendered","MOTOR VEHICLE STOP",42.274000,-71.378790,"41 SPEEN ST, NATICK, MA, 01760"
2024/02/29 08:33:00,"[NAT 3019] MACY'S - 1247 WORCESTER ST","MOTOR VEHICLE STOP Citation/ Warning Issued","MOTOR VEHICLE STOP",42.299501,-71.377795,"1247 WORCESTER ST, NATICK, MA, 01760"
2024/02/29 10:28:00,"BOOT BARN - 321 SPEEN ST","ALARM, BURGLAR P - ALARM SET OFF IN ERROR","ALARM",42.301013,-71.379943,"321 SPEEN ST, NATICK, MA, 01760"
2024/02/29 11:48:00,"2 VILLAGE HILL LN Apt. #4","B& E MOTOR VEHICLE P - Services Rendered","B& E MOTOR VEHICLE",42.277677,-71.393793,"2 VILLAGE HILL LN, NATICK, MA, 01760"
2024/02/29 12:07:00,"10 VILLAGE GREEN LN","Animals (Other) P - Services Rendered","ANIMALS",42.281097,-71.391754,"10 VILLAGE GREEN LN, NATICK, MA, 01760"
2024/02/29 12:32:00,"[NAT 2519] ATTYS HORNUNG & SIMEONE - 5 COMMONWEALTH WEST RD","911 HANG UP P - Services Rendered","911 HANG UP",42.308705,-71.382072,"5 COMMONWEALTH RD, NATICK, MA, 01760"
2024/02/29 12:34:00,"192 WORCESTER ST","MOTOR VEHICLE STOP Citation/ Warning Issued","MOTOR VEHICLE STOP",42.302957,-71.334028,"192 WORCESTER ST, NATICK, MA, 01760"
2024/02/29 13:21:00,"33 GLEN ST ","MOTOR VEHICLE STOP Citation/ Warning Issued","MOTOR VEHICLE STOP",42.267106,-71.315520,"33 GLEN ST, NATICK, MA, 01760"
2024/02/29 13:31:00,"[NAT 1620] 179 UNION ST - 179 UNION ST","MOTOR VEHICLE STOP Citation/ Warning Issued","MOTOR VEHICLE STOP",42.275021,-71.319913,"179 UNION ST, NATICK, MA, 01760"
2024/02/29 15:18:00,"71 GLEN ST ","MOTOR VEHICLE STOP Citation/ Warning Issued","MOTOR VEHICLE STOP",42.263186,-71.315526,"71 GLEN ST, NATICK, MA, 01760"
2024/02/29 15:36:00,"[NAT 869] ROCHE BROS SUPERMARKET - 150 WEST CENTRAL ST","MOTOR VEHICLE STOP Citation/ Warning Issued","MOTOR VEHICLE STOP",42.282483,-71.378214,"150 W CENTRAL ST, NATICK, MA, 01760"
2024/02/29 15:38:00,"[NAT 2205] MORSE INSTITUTE LIBRARY - 14 EAST CENTRAL ST","SUSPICIOUS ACTIVITY Report to be filed","SUSPICIOUS ACTIVITY",42.284228,-71.345215,"14 E CENTRAL ST, NATICK, MA, 01760"
2024/02/29 16:24:00,"[NAT 4199] PET SUPPLIES PLUS - 219 NORTH MAIN ST","SERVE WARRANT Arrest(s) Made","SERVE WARRANT",42.303076,-71.361265,"219 N MAIN ST, NATICK, MA, 01760"
2024/02/29 16:47:00,"[NAT 742] AUSTIN LIQUOR STORE - 212 NORTH MAIN ST","F - MVA with Injury Report to be filed","MOTOR VEHICLE CRASH",42.303997,-71.361590,"212 N MAIN ST, NATICK, MA, 01760"
2024/02/29 17:09:00,"[NAT 3887] NATICK COMMUNITY SENIOR CENTER - 117 EAST CENTRAL ST","MOTOR VEHICLE CRASH Gone On Arrival","MOTOR VEHICLE CRASH",42.286022,-71.337710,"117 E CENTRAL ST, NATICK, MA, 01760"
2024/02/29 20:11:00,"5 NORTHWOOD LN","ALARM, BURGLAR P - ALARM BLDG Chk Secure","ALARM",42.331829,-71.331184,"5 NORTHWOOD LN, WAYLAND, MA, 01778"
2024/02/29 23:02:00,"[NAT 4188] EXPONENT AND SHELL - 1075 WORCESTER ST","ALARM, BURGLAR P - ALARM BLDG Chk Secure","ALARM",42.299359,-71.365965,"1075 WORCESTER ST, NATICK, MA, 01760"
2024/03/01 05:51:00,"61 RATHBUN RD","MOTOR VEHICLE TOW Vehicle Towed","MOTOR VEHICLE TOW",42.314676,-71.332173,"61 RATHBUN RD, NATICK, MA, 01760"
2024/03/01 08:32:00,"161 SOUTH MAIN ST","MOTOR VEHICLE STOP Citation/ Warning Issued","MOTOR VEHICLE STOP",42.272590,-71.354194,"161 S MAIN ST, NATICK, MA, 01760"
2024/03/01 08:38:00,"[NAT 765] THEOS PIZZA - 231 NORTH MAIN ST","F - MVA with Injury Report to be filed","MOTOR VEHICLE CRASH",42.306404,-71.361688,"231 N MAIN ST, NATICK, MA, 01760"
2024/03/01 08:50:00,"[NAT 1705] NATICK POLICE DEPARTMENT - 20 EAST CENTRAL ST","ONLINE INCIDENT REPORT Report to be filed","ONLINE INCIDENT REPORT",42.284248,-71.345123,"20 E CENTRAL ST, NATICK, MA, 01760"
2024/03/01 08:50:00,"164 WEST CENTRAL ST Apt. #4","F - Well Being Check F - No Patient","Well Being Check",42.282470,-71.379061,"164 W CENTRAL ST, NATICK, MA, 01760"
2024/03/01 08:55:00,"[NAT 2767] 1 BARNESDALE RD - 1 BARNESDALE RD","MOTOR VEHICLE CRASH P - Services Rendered","MOTOR VEHICLE CRASH",42.295216,-71.380651,"1 BARNESDALE RD, NATICK, MA, 01760"
2024/03/01 09:35:00,"[NAT 855] THRIVE PET HEALTH CARE - 121 WEST CENTRAL ST","Animals (Other) P - Services Rendered","ANIMALS",42.283651,-71.369312,"121 W CENTRAL ST, NATICK, MA, 01760"
2024/03/01 10:42:00,"[NAT 1198] COCHITUATE STATE PARK - 11 COMMONWEALTH WEST RD","SUSPICIOUS ACTIVITY P - Services Rendered","SUSPICIOUS ACTIVITY",42.308737,-71.381834,"11 COMMONWEALTH RD, NATICK, MA, 01760"
2024/03/01 10:47:00,"[NAT 1015] U- HAUL CO - 834 WORCESTER ST","MOTOR VEHICLE STOP Citation/ Warning Issued","MOTOR VEHICLE STOP",42.300197,-71.356918,"834 WORCESTER ST, NATICK, MA, 01760"
2024/03/01 11:25:00,"[NAT 4092] NEWTON DISTRIBUTING - 245 WEST CENTRAL ST","MOTOR VEHICLE STOP Citation/ Warning Issued","MOTOR VEHICLE STOP",42.281973,-71.390508,"245 W CENTRAL ST, NATICK, MA, 01760"
2024/03/01 11:36:00,"[NAT 1374] BOX 225 - 625 WORCESTER ST","MOTOR VEHICLE STOP Citation/ Warning Issued","MOTOR VEHICLE STOP",42.307026,-71.292761,"625 WORCESTER ST, WELLESLEY HILLS, MA, 02481"
2024/03/01 11:43:00,"[NAT 3879] BERNARDI AUDI - 549 WORCESTER ST","MOTOR VEHICLE STOP Citation/ Warning Issued","MOTOR VEHICLE STOP",42.309143,-71.284371,"549 WORCESTER ST, WELLESLEY HILLS, MA, 02481"
2024/03/01 12:03:00,"[NAT 1374] BOX 225 - 625 WORCESTER ST","MOTOR VEHICLE STOP Citation/ Warning Issued","MOTOR VEHICLE STOP",42.307026,-71.292761,"625 WORCESTER ST, WELLESLEY HILLS, MA, 02481"
2024/03/01 12:40:00,"[NAT 2929] EASTERN BANK - 2 SOUTH AVE","MOTOR VEHICLE CRASH P - Services Rendered","MOTOR VEHICLE CRASH",42.285311,-71.347563,"2 SOUTH AVE, NATICK, MA, 01760"
2024/03/01 12:47:00,"11 OVERLOOK RD","Animals (Other) P - Services Rendered","ANIMALS",42.299267,-71.325323,"11 OVERLOOK RD, NATICK, MA, 01760"
2024/03/01 12:48:00,"16 BENNETT ST","SUSPICIOUS ACTIVITY Report to be filed","SUSPICIOUS ACTIVITY",42.275727,-71.353421,"16 BENNETT ST, NATICK, MA, 01760"
2024/03/01 14:55:00,"[NAT 3814] JD SPORTS (FORMER FINISH LINE) - 1245 WORCESTER ST Apt. #1020","LARCENY / FORGERY/ FRAUD P - Services Rendered","LARCENY / FORGERY/ FRAUD",42.299500,-71.377749,"1245 WORCESTER ST, NATICK, MA, 01760"
2024/03/01 16:26:00,"6 POST OAK LN Apt. #3","SUSPICIOUS ACTIVITY P - Services Rendered","SUSPICIOUS ACTIVITY",42.277139,-71.386097,"6 POST OAK LN, NATICK, MA, 01760"
2024/03/01 16:54:00,"[NAT 655] LONGFELLOW SPORTS CLUB - 203 OAK ST","M/ V CRASH/ PRIVATE PROPERTY P - Services Rendered","MOTOR VEHICLE CRASH",42.314370,-71.339228,"203 OAK ST, NATICK, MA, 01760"
2024/03/01 17:06:00,"[NAT 4367] FIDO DOG PARK - 109 WEST CENTRAL ST","DISTURBANCE Report to be filed","DISTURBANCE",42.283576,-71.366282,"109 W CENTRAL ST, NATICK, MA, 01760"
2024/03/01 19:20:00,"29 CURTIS RD","SUSPICIOUS ACTIVITY Report to be filed","SUSPICIOUS ACTIVITY",42.289042,-71.388670,"29 CURTIS RD, NATICK, MA, 01760"
2024/03/01 19:59:00,"[NAT 923] WALNUT HILL SCHOOL/ HIGHLAND BLDG - 12 HIGHLAND ST","VANDALISM Report to be filed","VANDALISM",42.290923,-71.345019,"12 HIGHLAND ST, NATICK, MA, 01760"
2024/03/01 20:06:00,"[NAT 534] BELKIN LOOKOUT FARM TAP ROOM - 89 PLEASANT ST","Animals (Other) P - Services Rendered","ANIMALS",42.298352,-71.356035,"89 PLEASANT ST, NATICK, MA, 01760"
2024/03/01 20:37:00," NATICK COLLECTION - 1245 WORCESTER ST Apt. #1000","SUSPICIOUS ACTIVITY P - Services Rendered","SUSPICIOUS ACTIVITY",42.299500,-71.377749,"1245 WORCESTER ST, NATICK, MA, 01760"
2024/03/01 20:47:00,"44 BRADFORD RD","SUSPICIOUS ACTIVITY P - Services Rendered","SUSPICIOUS ACTIVITY",42.310653,-71.347549,"44 BRADFORD RD, NATICK, MA, 01760"
2024/03/01 21:31:00,"[NAT 998] FIRST CONGREGATIONAL CHURCH NATICK - 2 EAST CENTRAL ST","MOTOR VEHICLE STOP Citation/ Warning Issued","MOTOR VEHICLE STOP",42.283851,-71.347217,"2 E CENTRAL ST, NATICK, MA, 01760"
2024/03/02 00:52:00,"[NAT 1588] TRANSTECH - 16 TECH CIR","SUSPICIOUS ACTIVITY Gone On Arrival","SUSPICIOUS ACTIVITY",42.313778,-71.337926,"16 TECH CIR, NATICK, MA, 01760"
2024/03/02 07:26:00,"[NAT 4184] DAVE AND BUSTERS-2ND FLOOR - 1235 WORCESTER ST Apt. #200","ALARM, BURGLAR P - ALARM BLDG Chk Secure","ALARM",42.299493,-71.377519,"1235 WORCESTER ST, NATICK, MA, 01760"
2024/03/02 08:52:00,"[NAT 4367] FIDO DOG PARK - 109 WEST CENTRAL ST","MOTOR VEHICLE STOP Citation/ Warning Issued","MOTOR VEHICLE STOP",42.283576,-71.366282,"109 W CENTRAL ST, NATICK, MA, 01760"
2024/03/02 09:31:00,"[NAT 3929] AFC URGENT CARE - 945 WORCESTER ST","MOTOR VEHICLE STOP Citation/ Warning Issued","MOTOR VEHICLE STOP",42.299779,-71.362621,"945 WORCESTER ST, NATICK, MA, 01760"
2024/03/02 10:31:00,"[NAT 442] DPW COMPLEX - 75 WEST ST","PARKING COMPLAINT P - Services Rendered","PARKING COMPLAINT",42.273104,-71.362419,"75 WEST ST, NATICK, MA, 01760"
2024/03/02 10:35:00,"[NAT 1543] RECYCLE CENTER - 21 WEST ST","F - Brush Fire F - Extinguished","Brush FireExtinguished",42.276810,-71.359370,"21 WEST ST, NATICK, MA, 01760"
2024/03/02 10:38:00,"1245 WORCESTER ST","MOTOR VEHICLE STOP Citation/ Warning Issued","MOTOR VEHICLE STOP",42.299500,-71.377749,"1245 WORCESTER ST, NATICK, MA, 01760"
2024/03/02 11:12:00,"4 CHRYSLER RD ","HAZARD Unfounded","HAZARD",42.305260,-71.382022,"4 CHRYSLER RD, NATICK, MA, 01760"
2024/03/02 11:36:00,"10 SQUIRE CT Apt. #8","LARCENY / FORGERY/ FRAUD P - Services Rendered","LARCENY / FORGERY/ FRAUD",42.276418,-71.388568,"10 SQUIRE CT, NATICK, MA, 01760"
2024/03/02 12:06:00,"[NAT 1550] JOHN EVERETT AND SONS FUNERAL HOME - 4 PARK ST","ESCORT/ TRANSPORT P - Services Rendered","ESCORT/",42.283897,-71.346185,"4 PARK ST, NATICK, MA, 01760"
2024/03/02 13:01:00,"DRIVEWAY ON SAWIN - 96 NORTH AVE","F - Well Being Check F - Services Provided","Well Being Check",42.287066,-71.341685,"96 NORTH AVE, NATICK, MA, 01760"
2024/03/02 13:08:00,"[NAT 2653] CAMP ARROWHEAD - 1055 WORCESTER ST","MOTOR VEHICLE STOP Citation/ Warning Issued","MOTOR VEHICLE STOP",42.299422,-71.365450,"1055 WORCESTER ST, NATICK, MA, 01760"
2024/03/02 13:27:00,"[NAT 617] CENTRAL AUTO PARTS - 327 WEST CENTRAL ST","COMPLAINT P - Services Rendered","COMPLAINT",42.281736,-71.394075,"327 W CENTRAL ST, NATICK, MA, 01760"
2024/03/02 13:53:00,"[NAT 79] BERNARDI HONDA - 960 WORCESTER ST","F - Vehicle Fire F - Services Provided","Vehicle Fire",42.299258,-71.365104,"960 WORCESTER ST, NATICK, MA, 01760"
2024/03/02 14:02:00,"15 CHURCH ST Apt. #8","F - Well Being Check F - Services Provided","Well Being Check",42.282397,-71.345303,"15 CHURCH ST, NATICK, MA, 01760"
2024/03/02 14:06:00,"[NAT 3963] MUSIC-GO-ROUND - 810 WORCESTER ST","LOCKOUT (VEHICLE) P - Services Rendered","LOCKOUT",42.300252,-71.356462,"810 WORCESTER ST, NATICK, MA, 01760"
2024/03/02 14:50:00,"39 NORTH MAIN ST","MOTOR VEHICLE STOP Citation/ Warning Issued","MOTOR VEHICLE STOP",42.287530,-71.349709,"39 N MAIN ST, NATICK, MA, 01760"
2024/03/02 15:55:00,"[NAT 3147] LOUIS VUITTON - 1245 WORCESTER ST Apt. #3025","SHOPLIFTING Report to be filed","SHOPLIFTING",42.299500,-71.377749,"1245 WORCESTER ST, NATICK, MA, 01760"
2024/03/02 16:10:00,"[NAT 3086] CHAMPS - 1245 WORCESTER ST Apt. #1010","SHOPLIFTING P - Services Rendered","SHOPLIFTING",42.299500,-71.377749,"1245 WORCESTER ST, NATICK, MA, 01760"
2024/03/02 17:52:00,"19 WHITRIDGE RD","ALARM, BURGLAR P - ALARM BLDG Chk Secure","ALARM",42.258866,-71.340046,"19 WHITRIDGE RD, NATICK, MA, 01760"
2024/03/02 18:07:00,"[NAT 936] BERNARDI VOLVO - 910 WORCESTER ST","ALARM, BURGLAR P - ALARM SET OFF IN ERROR","ALARM",42.299582,-71.362449,"910 WORCESTER ST, NATICK, MA, 01760"
2024/03/02 19:29:00,"[NAT 3019] MACY'S - 1247 WORCESTER ST","SHOPLIFTING Arrest(s) Made","SHOPLIFTING",42.299501,-71.377795,"1247 WORCESTER ST, NATICK, MA, 01760"
2024/03/02 21:27:00," NATICK COLLECTION - 1245 WORCESTER ST Apt. #1000","REMOVE UNWANTED PERSON(S) Report to be filed","REMOVE UNWANTED PERSON(S)",42.299500,-71.377749,"1245 WORCESTER ST, NATICK, MA, 01760"
2024/03/02 22:36:00,"[NAT 466] 7- ELEVEN - 172 NORTH MAIN ST","ERRATIC OPERATOR Log Entry","ERRATIC OPERATOR",42.297786,-71.359299,"172 N MAIN ST, NATICK, MA, 01760"
2024/03/02 22:52:00,"[NAT 3837] BILL'S PIZZERIA - 58 EAST CENTRAL ST","FOUND/ LOST PROPERTY P - Services Rendered","FOUND/ LOST PROPERTY",42.284902,-71.341734,"58 E CENTRAL ST, NATICK, MA, 01760"
2024/03/03 02:22:00,"146 MILL ST","NOISE COMPLAINT P - Services Rendered","NOISE COMPLAINT",42.287498,-71.382884,"146 MILL ST, NATICK, MA, 01760"
2024/03/03 03:03:00,"146 MILL ST","NOISE COMPLAINT P - Services Rendered","NOISE COMPLAINT",42.287498,-71.382884,"146 MILL ST, NATICK, MA, 01760"
2024/03/03 08:06:00,"[NAT 79] BERNARDI HONDA - 960 WORCESTER ST","SUSPICIOUS ACTIVITY Report to be filed","SUSPICIOUS ACTIVITY",42.299258,-71.365104,"960 WORCESTER ST, NATICK, MA, 01760"
2024/03/03 08:14:00,"IMMERSIVE GAMEBOX - 1245 WORCESTER ST","ALARM, BURGLAR P - ALARM SET OFF IN ERROR","ALARM",42.299500,-71.377749,"1245 WORCESTER ST, NATICK, MA, 01760"
2024/03/03 08:53:00,"[NAT 963] HAMPTON INN - 319 SPEEN ST","NOISE COMPLAINT P - Services Rendered","NOISE COMPLAINT",42.301009,-71.379941,"319 SPEEN ST, NATICK, MA, 01760"
2024/03/03 09:10:00,"[NAT 1511] MONTICELLO MOTEL - 1446 WORCESTER ST Apt. #123","SUSPICIOUS ACTIVITY P - Services Rendered","SUSPICIOUS ACTIVITY",42.298763,-71.391695,"1446 WORCESTER ST, NATICK, MA, 01760"
2024/03/03 10:06:00,"[NAT 4387] LUCID MOTORS - 1245 WORCESTER ST","ALARM, BURGLAR P - ALARM SET OFF IN ERROR","ALARM",42.299500,-71.377749,"1245 WORCESTER ST, NATICK, MA, 01760"
2024/03/03 10:14:00,"842 WORCESTER ST ","MOTOR VEHICLE STOP Citation/ Warning Issued","MOTOR VEHICLE STOP",42.300178,-71.357070,"842 WORCESTER ST, NATICK, MA, 01760"
2024/03/03 10:37:00,"233 WEST CENTRAL ST","MOTOR VEHICLE STOP Citation/ Warning Issued","MOTOR VEHICLE STOP",42.281982,-71.390307,"233 W CENTRAL ST, NATICK, MA, 01760"
2024/03/03 11:01:00,"[NAT 311] NATICK WINE & SPIRITS - 7 WATSON ST","MOTOR VEHICLE STOP Citation/ Warning Issued","MOTOR VEHICLE STOP",42.282415,-71.377744,"7 WATSON ST, NATICK, MA, 01760"
2024/03/03 13:06:00,"625 WORCESTER ST","MOTOR VEHICLE STOP Citation/ Warning Issued","MOTOR VEHICLE STOP",42.307026,-71.292761,"625 WORCESTER ST, WELLESLEY HILLS, MA, 02481"
2024/03/03 13:31:00,"171 HARTFORD ST","MOTOR VEHICLE STOP Citation/ Warning Issued","MOTOR VEHICLE STOP",42.291410,-71.397313,"171 HARTFORD ST, NATICK, MA, 01760"
2024/03/03 14:36:00,"[NAT 4165] ADVANCE AUTO PARTS - 219 NORTH MAIN ST","PARKING COMPLAINT Gone On Arrival","PARKING COMPLAINT",42.303076,-71.361265,"219 N MAIN ST, NATICK, MA, 01760"
2024/03/03 15:29:00,"[NAT 1145] SUPER STOP & SHOP - 829 WORCESTER ST","M/ V CRASH/ Hit & Run Report to be filed","MOTOR VEHICLE CRASH",42.305625,-71.311027,"829 WORCESTER ST, WELLESLEY HILLS, MA, 02481"
2024/03/03 16:51:00,"155 HARTFORD ST ","MOTOR VEHICLE STOP Citation/ Warning Issued","MOTOR VEHICLE STOP",42.290774,-71.393834,"155 HARTFORD ST, NATICK, MA, 01760"
2024/03/03 17:21:00,"[NAT 3514] CARTERS BABIES & KIDS - 1300 WORCESTER ST Apt. #A","COMPLAINT P - Services Rendered","COMPLAINT",42.298923,-71.387227,"1300 WORCESTER ST, NATICK, MA, 01760"
2024/03/03 17:33:00,"[NAT 135] BRIGHAM GILL MOTORCARS INC - 817 WORCESTER ST","DISABLED M/V Gone On Arrival","DISABLED M/V",42.305644,-71.310768,"817 WORCESTER ST, WELLESLEY HILLS, MA, 02481"
2024/03/03 17:40:00,"[NAT 1881] CALIFORNIA PIZZA KITCHEN - 1245 WORCESTER ST Apt. #1092","ASSAULT P - Services Rendered","ASSAULT",42.299500,-71.377749,"1245 WORCESTER ST, NATICK, MA, 01760"
2024/03/03 18:17:00,"[NAT 1772] NATICK COMMON - 1 EAST CENTRAL ST","COMPLAINT Unable to Locate","COMPLAINT",42.284032,-71.345567,"1 E CENTRAL ST, NATICK, MA, 01760"
2024/03/03 18:19:00,"17 COACHMAN LN","Animals (Other) P - Services Rendered","ANIMALS",42.293011,-71.395671,"17 COACHMAN LN, NATICK, MA, 01760"
2024/03/03 18:58:00,"[WAY] 38 COCHITUATE RD","ASSIST OTHER AGENCY P - Services Rendered","ASSIST OTHER AGENCY",42.285653,-71.351890,"38 COCHITUATE ST, NATICK, MA, 01760"
2024/03/03 19:00:00,"[NAT 3019] MACY'S - 1247 WORCESTER ST","SHOPLIFTING Civil Matter","SHOPLIFTING",42.299501,-71.377795,"1247 WORCESTER ST, NATICK, MA, 01760"
2024/03/03 19:56:00,"[NAT 291] STONEGATE - 235 WEST CENTRAL ST Apt. #201","MOTOR VEHICLE STOP Citation/ Warning Issued","MOTOR VEHICLE STOP",42.281981,-71.390340,"235 W CENTRAL ST, NATICK, MA, 01760"
2024/03/03 20:03:00,"[NAT 291] STONEGATE - 235 WEST CENTRAL ST Apt. #201","MOTOR VEHICLE STOP Citation/ Warning Issued","MOTOR VEHICLE STOP",42.281981,-71.390340,"235 W CENTRAL ST, NATICK, MA, 01760"
2024/03/03 20:09:00,"[NAT 2047] SPEEDWAY - 194 WEST CENTRAL ST","MOTOR VEHICLE STOP Citation/ Warning Issued","MOTOR VEHICLE STOP",42.282353,-71.382449,"194 W CENTRAL ST, NATICK, MA, 01760"
2024/03/03 20:22:00," 1 BARNESDALE RD","MOTOR VEHICLE STOP Arrest(s) Made","MOTOR VEHICLE STOP",42.295216,-71.380651,"1 BARNESDALE RD, NATICK, MA, 01760"
2024/03/03 20:48:00,"96 WILSON DR","NOISE COMPLAINT Taken/Refer Other Agency","NOISE COMPLAINT",42.282518,-71.342250,"96 WILSON ST, NATICK, MA, 01760"
2024/03/03 22:47:00,"[NAT 4387] LUCID MOTORS - 1245 WORCESTER ST","ALARM, HOLD-UP P - ALARM BLDG Chk Secure","ALARM",42.299500,-71.377749,"1245 WORCESTER ST, NATICK, MA, 01760"
2024/02/05 01:04:00,"93 SOUTH AVE","PARKING COMPLAINT P - Services Rendered","PARKING COMPLAINT",42.285914,-71.341524,"93 SOUTH AVE, NATICK, MA, 01760"
2024/02/05 06:33:00,"[NAT 1482] NATICK AUTO CLINIC INC - 193 WORCESTER ST","F - MVA with Injury F - Transport-Hospital","MOTOR VEHICLE CRASH",42.303248,-71.333720,"193 WORCESTER ST, NATICK, MA, 01760"
2024/02/05 08:25:00,"[NAT 1705] NATICK POLICE DEPARTMENT - 20 EAST CENTRAL ST","ESCORT/ TRANSPORT P - Services Rendered","ESCORT/",42.284248,-71.345123,"20 E CENTRAL ST, NATICK, MA, 01760"
2024/02/05 08:28:00,"10 WHITTIER RD","SERVE WARRANT Report to be filed","SERVE WARRANT",42.305020,-71.330635,"10 WHITTIER RD, NATICK, MA, 01760"
2024/02/05 08:28:00,"16 AVON ST","Animals (Other) Gone On Arrival","ANIMALS",42.281522,-71.342961,"16 AVON ST, NATICK, MA, 01760"
2024/02/05 08:38:00,"6 AVON ST","Animals (Other) Gone On Arrival","ANIMALS",42.281478,-71.343266,"6 AVON ST, NATICK, MA, 01760"
2024/02/05 08:55:00,"287 WEST CENTRAL ST","Animals (Other) P - Services Rendered","ANIMALS",42.281790,-71.393223,"287 W CENTRAL ST, NATICK, MA, 01760"
2024/02/05 08:59:00,"150 WEST CENTRAL ST ","MOTOR VEHICLE CRASH Report to be filed","MOTOR VEHICLE CRASH",42.282483,-71.378214,"150 W CENTRAL ST, NATICK, MA, 01760"
2024/02/05 09:15:00,"3 TECH CIR ","HAZARD Gone On Arrival","HAZARD",42.313357,-71.337890,"3 TECH CIR, NATICK, MA, 01760"
2024/02/05 12:14:00,"25 UNION ST ","MOTOR VEHICLE STOP Citation/ Warning Issued","MOTOR VEHICLE STOP",42.283600,-71.337824,"25 UNION ST, NATICK, MA, 01760"
2024/02/05 12:21:00,"[NAT 671] CROSS SERVICES GROUP INC - 19 TECH CIR","SUSPICIOUS ACTIVITY Report to be filed","SUSPICIOUS ACTIVITY",42.313874,-71.337741,"19 TECH CIR, NATICK, MA, 01760"
2024/02/05 12:26:00,"109 PLEASANT ST","MOTOR VEHICLE STOP Citation/ Warning Issued","MOTOR VEHICLE STOP",42.262452,-71.307007,"109 PLEASANT ST S, NATICK, MA, 01760"
2024/02/05 12:40:00,"184 ELIOT ST ","MOTOR VEHICLE STOP Citation/ Warning Issued","MOTOR VEHICLE STOP",42.262297,-71.327001,"184 ELIOT ST, NATICK, MA, 01760"
2024/02/05 12:40:00,"[NAT 1027] BRANDON SCHOOL - 27 WINTER ST","MISSING/LOST CHILD Log Entry","MISSING/LOST CHILD",42.319975,-71.362971,"27 WINTER ST, WAYLAND, MA, 01778"
2024/02/05 12:58:00,"190 NORTH MAIN ST","MOTOR VEHICLE CRASH Report to be filed","MOTOR VEHICLE CRASH",42.298626,-71.359458,"190 N MAIN ST, NATICK, MA, 01760"
2024/02/05 13:00:00,"313 SPEEN ST ","MOTOR VEHICLE STOP SUMMONS REQUEST","MOTOR VEHICLE STOP",42.300998,-71.379934,"313 SPEEN ST, NATICK, MA, 01760"
2024/02/05 13:42:00,"287 WEST CENTRAL ST","Animals (Other) P - Services Rendered","ANIMALS",42.281790,-71.393223,"287 W CENTRAL ST, NATICK, MA, 01760"
2024/02/05 14:04:00,"18 HARVARD ST","Animals (Other) P - Services Rendered","ANIMALS",42.287813,-71.344682,"18 HARVARD ST, NATICK, MA, 01760"
2024/02/05 14:51:00,"15 SCHOOL STREET EXT","LARCENY / FORGERY/ FRAUD Report to be filed","LARCENY / FORGERY/ FRAUD",42.282086,-71.346371,"15 SCHOOL ST, NATICK, MA, 01760"
2024/02/05 15:10:00,"1 WEST CENTRAL ST ","MOTOR VEHICLE STOP Citation/ Warning Issued","MOTOR VEHICLE STOP",42.283832,-71.347361,"1 W CENTRAL ST, NATICK, MA, 01760"
2024/02/05 16:05:00,"167 HARTFORD ST","F - Well Being Check F - Services Provided","Well Being Check",42.291154,-71.396557,"167 HARTFORD ST, NATICK, MA, 01760"
2024/02/05 16:38:00,"152 CEDAR TER Apt. #A","F - Well Being Check F - Transport-Hospital","Well Being Check",42.273193,-71.355647,"152 CEDAR TER, NATICK, MA, 01760"
2024/02/05 17:18:00,"20 RUTLEDGE RD","BURGLARY (B & E) Report to be filed","BURGLAR",42.304066,-71.358180,"20 RUTLEDGE RD, NATICK, MA, 01760"
2024/02/05 17:26:00,"24 WATER ST","NEIGHBOR DISPUTE Report to be filed","NEIGHBOR DISPUTE",42.272784,-71.311415,"24 WATER ST, NATICK, MA, 01760"
2024/02/05 18:06:00,"[NAT 855] THRIVE PET HEALTH CARE - 121 WEST CENTRAL ST","Animals (Other) P - Services Rendered","ANIMALS",42.283651,-71.369312,"121 W CENTRAL ST, NATICK, MA, 01760"
2024/02/05 18:58:00,"26 RIDGE AVE","SUSPICIOUS ACTIVITY P - Services Rendered","SUSPICIOUS ACTIVITY",42.296094,-71.372613,"26 RIDGE AVE, NATICK, MA, 01760"
2024/02/05 20:05:00,"[NAT 671] CROSS SERVICES GROUP INC - 19 TECH CIR","SUSPICIOUS ACTIVITY Report to be filed","SUSPICIOUS ACTIVITY",42.313874,-71.337741,"19 TECH CIR, NATICK, MA, 01760"
2024/02/05 21:28:00,"313 SPEEN ST ","DISABLED M/V P - Services Rendered","DISABLED M/V",42.300998,-71.379934,"313 SPEEN ST, NATICK, MA, 01760"
2024/02/05 22:44:00,"13 LAMPLIGHT CIR","911 HANG UP P - Services Rendered","911 HANG UP",42.293429,-71.398893,"13 LAMPLIGHT CIR, NATICK, MA, 01760"
2024/02/06 03:18:00,"HAROLD YOUNG CO - 3 TECH CIR","ALARM, BURGLAR P - ALARM BLDG Chk Secure","ALARM",42.313357,-71.337890,"3 TECH CIR, NATICK, MA, 01760"
2024/02/06 05:05:00,"27 WEST CENTRAL ST","BURGLARY (B & E) Unfounded","BURGLAR",42.283573,-71.349515,"27 W CENTRAL ST, NATICK, MA, 01760"
2024/02/06 06:34:00,"4 FISHER ST","COMPLAINT P - Services Rendered","COMPLAINT",42.293824,-71.358230,"4 FISHER ST, NATICK, MA, 01760"
2024/02/06 09:08:00,"[NAT 3983] UNIQLO - 1245 WORCESTER ST Apt. #3084","ALARM, BURGLAR P - ALARM SET OFF IN ERROR","ALARM",42.299500,-71.377749,"1245 WORCESTER ST, NATICK, MA, 01760"
2024/02/06 10:22:00,"1245 WORCESTER ST","MOTOR VEHICLE TOW Vehicle Towed","MOTOR VEHICLE TOW",42.299500,-71.377749,"1245 WORCESTER ST, NATICK, MA, 01760"
2024/02/06 10:34:00,"[NAT 4101] BOSTON PIANO - 575 WORCESTER ST","MOTOR VEHICLE STOP Citation/ Warning Issued","MOTOR VEHICLE STOP",42.308812,-71.285197,"575 WORCESTER ST, WELLESLEY HILLS, MA, 02481"
2024/02/06 11:24:00,"1 CENTRE ST ","PARKING COMPLAINT P - Services Rendered","PARKING COMPLAINT",42.301734,-71.344706,"1 CENTRE ST, NATICK, MA, 01760"
2024/02/06 13:09:00,"16 MAINE AVE","LARCENY / FORGERY/ FRAUD Report to be filed","LARCENY / FORGERY/ FRAUD",42.302279,-71.335865,"16 MAINE AVE, NATICK, MA, 01760"
2024/02/06 13:54:00,"4 BLUEBERRY HILL RD","MOTOR VEHICLE STOP Citation/ Warning Issued","MOTOR VEHICLE STOP",42.290806,-71.393988,"4 BLUEBERRY HILL RD, NATICK, MA, 01760"
2024/02/06 16:37:00,"[NAT 2023] BRANDON HOUSE HOUSE 1 - 27 WINTER ST","DISTURBANCE Report to be filed","DISTURBANCE",42.319975,-71.362971,"27 WINTER ST, WAYLAND, MA, 01778"
2024/02/06 17:48:00,"[NAT 4011] DUNKIN DONUTS - 119 WEST CENTRAL ST Apt. #1-A","NOISE COMPLAINT P - Services Rendered","NOISE COMPLAINT",42.283715,-71.368930,"119 W CENTRAL ST, NATICK, MA, 01760"
2024/02/06 18:10:00,"18 WALDEN DR Apt. #8","SERVE SUMMONS UNABLE TO SERVE","SERVE SUMMONS",42.275851,-71.386212,"18 WALDEN DR, NATICK, MA, 01760"
2024/02/06 19:13:00,"[NAT 4350] CLINCHY RESIDENCE - 25 POND ST Apt. #2","F - Well Being Check Report to be filed","Well Being Check",42.282824,-71.348904,"25 POND ST, NATICK, MA, 01760"
