Date,Log_Address,Log_Reason,Normalized_Reason,lat,long,Normalized_Address
2024/04/01 08:24:00,"206 WORCESTER ST ","MOTOR VEHICLE CRASH Report to be filed","MOTOR VEHICLE CRASH",42.302616,-71.335377,"206 WORCESTER ST, NATICK, MA, 01760"
2024/04/01 09:41:00,"3 MALDEN ST","Animals (Other) P - Services Rendered","ANIMALS",42.282960,-71.339515,"3 MALDEN ST, NATICK, MA, 01760"
2024/04/01 09:52:00,"21 UNION ST Apt. #B","Animals (Other) P - Services Rendered","ANIMALS",42.283674,-71.338347,"21 UNION ST, NATICK, MA, 01760"
2024/04/01 09:52:00,"90 WALNUT ST","SUSPICIOUS ACTIVITY Report to be filed","SUSPICIOUS ACTIVITY",42.293861,-71.348246,"90 WALNUT ST, NATICK, MA, 01760"
2024/04/01 09:57:00,"[NAT 4037] LA FITNESS - 1 DEAN RD","MOTOR VEHICLE STOP Citation/ Warning Issued","MOTOR VEHICLE STOP",42.296920,-71.387206,"1 DEAN RD, NATICK, MA, 01760"
2024/04/01 10:08:00,"[NAT 3181] THE NORTH FACE - 1245 WORCESTER ST Apt. #4016","ALARM, BURGLAR P - ALARM BLDG Chk Secure","ALARM",42.299500,-71.377749,"1245 WORCESTER ST, NATICK, MA, 01760"
2024/04/01 10:19:00,"[NAT 1410] BOX 5241 - 34 BENNETT ST","MOTOR VEHICLE TOW Vehicle Towed","MOTOR VEHICLE TOW",42.275373,-71.354464,"34 BENNETT ST, NATICK, MA, 01760"
2024/04/01 10:31:00,"[NAT 75] NATICK- WELLESLEY VETERINARY HOSPITAL - 359 WORCESTER ST","MOTOR VEHICLE STOP Citation/ Warning Issued","MOTOR VEHICLE STOP",42.314806,-71.267133,"359 WORCESTER ST, WELLESLEY HILLS, MA, 02481"
2024/04/01 10:49:00,"[NAT 4049] ROCHE BOBOIS - 395 WORCESTER ST","MOTOR VEHICLE STOP Citation/ Warning Issued","MOTOR VEHICLE STOP",42.314564,-71.269575,"395 WORCESTER ST, WELLESLEY HILLS, MA, 02481"
2024/04/01 10:55:00,"313 SPEEN ST ","MOTOR VEHICLE STOP Citation/ Warning Issued","MOTOR VEHICLE STOP",42.300998,-71.379934,"313 SPEEN ST, NATICK, MA, 01760"
2024/04/01 11:15:00,"517 WORCESTER ST ","MOTOR VEHICLE STOP Citation/ Warning Issued","MOTOR VEHICLE STOP",42.310568,-71.280848,"517 WORCESTER ST, WELLESLEY HILLS, MA, 02481"
2024/04/01 11:26:00,"193 ELIOT ST","MOTOR VEHICLE STOP Citation/ Warning Issued","MOTOR VEHICLE STOP",42.260502,-71.329097,"193 ELIOT ST, NATICK, MA, 01760"
2024/04/01 11:35:00,"[NAT 1094] NATICK MILLS APARTMENTS - 60 NORTH MAIN ST","MOTOR VEHICLE STOP Citation/ Warning Issued","MOTOR VEHICLE STOP",42.290472,-71.352959,"60 N MAIN ST, NATICK, MA, 01760"
2024/04/01 12:02:00,"[NAT 865] CVS PHARMACY 2125 - 137 WEST CENTRAL ST","DISABLED M/V P - Services Rendered","DISABLED M/V",42.283147,-71.372361,"137 W CENTRAL ST, NATICK, MA, 01760"
2024/04/01 13:00:00,"46 WEST ST","MOTOR VEHICLE TOW Vehicle Towed","MOTOR VEHICLE TOW",42.275288,-71.360414,"46 WEST ST, NATICK, MA, 01760"
2024/04/01 13:06:00,"17 OAK ST","Animals (Other) P - Services Rendered","ANIMALS",42.324472,-71.344612,"17 OAK ST, WAYLAND, MA, 01778"
2024/04/01 13:11:00,"[NAT 4013] MITCHEL GOLD & BOB WILLIAMS - 625 WORCESTER ST Apt. #ST","MOTOR VEHICLE STOP Citation/ Warning Issued","MOTOR VEHICLE STOP",42.307026,-71.292761,"625 WORCESTER ST, WELLESLEY HILLS, MA, 02481"
2024/04/01 13:16:00,"177 NORTH MAIN ST Apt. #B","Animals (Other) P - Services Rendered","ANIMALS",42.298462,-71.359256,"177 N MAIN ST, NATICK, MA, 01760"
2024/04/01 13:46:00,"22 WASHINGTON AVE","LARCENY / FORGERY/ FRAUD Report to be filed","LARCENY / FORGERY/ FRAUD",42.285107,-71.352995,"22 WASHINGTON AVE, NATICK, MA, 01760"
2024/04/01 13:55:00,"1245 WORCESTER ST ","MOTOR VEHICLE STOP Citation/ Warning Issued","MOTOR VEHICLE STOP",42.299500,-71.377749,"1245 WORCESTER ST, NATICK, MA, 01760"
2024/04/01 14:17:00,"[NAT 2051] HOME DEPOT - 339 SPEEN ST","LARCENY / FORGERY/ FRAUD Report to be filed","LARCENY / FORGERY/ FRAUD",42.301047,-71.379963,"339 SPEEN ST, NATICK, MA, 01760"
2024/04/01 14:21:00,"915 WORCESTER ST","MOTOR VEHICLE STOP Citation/ Warning Issued","MOTOR VEHICLE STOP",42.299876,-71.361849,"915 WORCESTER ST, NATICK, MA, 01760"
2024/04/01 14:34:00,"[NAT 3728] PLANET FITNESS - 215 WEST CENTRAL ST","REMOVE UNWANTED PERSON(S) P - Services Rendered","REMOVE UNWANTED PERSON(S)",42.281997,-71.390006,"215 W CENTRAL ST, NATICK, MA, 01760"
2024/04/01 15:00:00,"117 WEST CENTRAL ST","MOTOR VEHICLE STOP Citation/ Warning Issued","MOTOR VEHICLE STOP",42.283777,-71.368548,"117 W CENTRAL ST, NATICK, MA, 01760"
2024/04/01 15:03:00,"1 LAKESHORE RD","MOTOR VEHICLE STOP SUMMONS REQUEST","MOTOR VEHICLE STOP",42.300759,-71.360935,"1 LAKE SHORE RD, NATICK, MA, 01760"
2024/04/01 15:25:00,"17 EUCLID AVE","COMPLAINT SUMMONS REQUEST","COMPLAINT",42.307106,-71.337763,"17 EUCLID AVE, NATICK, MA, 01760"
2024/04/01 16:37:00,"14 MAGNOLIA RD","MISSING PERSON P - Services Rendered","MISSING PERSON",42.309018,-71.366350,"14 MAGNOLIA RD, NATICK, MA, 01760"
2024/04/01 16:44:00,"[NAT 2051] HOME DEPOT - 339 SPEEN ST","SHOPLIFTING P - Services Rendered","SHOPLIFTING",42.301047,-71.379963,"339 SPEEN ST, NATICK, MA, 01760"
2024/04/01 17:12:00,"[NAT 727] BOX 6112 - 47 HARTFORD ST","LARCENY / FORGERY/ FRAUD Report to be filed","LARCENY / FORGERY/ FRAUD",42.295608,-71.381093,"47 HARTFORD ST, NATICK, MA, 01760"
2024/04/01 17:14:00,"[NAT 920] NATICK MALL (MALL I) - 1245 WORCESTER ST","FOUND/ LOST PROPERTY Log Entry","FOUND/ LOST PROPERTY",42.299500,-71.377749,"1245 WORCESTER ST, NATICK, MA, 01760"
2024/04/01 17:16:00,"[NAT 3019] MACY'S - 1247 WORCESTER ST","SHOPLIFTING Civil Matter","SHOPLIFTING",42.299501,-71.377795,"1247 WORCESTER ST, NATICK, MA, 01760"
2024/04/01 17:25:00,"180 HARTFORD ST","FOUND/ LOST PROPERTY P - Services Rendered","FOUND/ LOST PROPERTY",42.291988,-71.398994,"180 HARTFORD ST, NATICK, MA, 01760"
2024/04/01 18:16:00,"[NAT 869] ROCHE BROS SUPERMARKET - 150 WEST CENTRAL ST","MOTOR VEHICLE STOP Citation/ Warning Issued","MOTOR VEHICLE STOP",42.282483,-71.378214,"150 W CENTRAL ST, NATICK, MA, 01760"
2024/04/01 19:09:00,"[NAT 869] ROCHE BROS SUPERMARKET - 150 WEST CENTRAL ST","MOTOR VEHICLE STOP Citation/ Warning Issued","MOTOR VEHICLE STOP",42.282483,-71.378214,"150 W CENTRAL ST, NATICK, MA, 01760"
2024/04/01 20:59:00,"65 SUMMER ST","ASSIST OTHER AGENCY P - Services Rendered","ASSIST OTHER AGENCY",42.284075,-71.351761,"65 SUMMER ST, NATICK, MA, 01760"
2024/04/01 21:53:00,"[NAT 1011] TEMPLE ISRAEL - 145 HARTFORD ST","MOTOR VEHICLE STOP Citation/ Warning Issued","MOTOR VEHICLE STOP",42.291216,-71.403048,"145 HARTFORD ST, FRAMINGHAM, MA, 01702"
2024/04/01 22:07:00,"[NAT 1504] SHERWOOD VILLAGE EAST - 143 MILL ST","MOTOR VEHICLE STOP Citation/ Warning Issued","MOTOR VEHICLE STOP",42.287469,-71.382669,"143 MILL ST, NATICK, MA, 01760"
2024/04/01 22:33:00,"5 FISKE ST ","MOTOR VEHICLE STOP Arrest(s) Made","MOTOR VEHICLE STOP",42.277638,-71.371898,"5 FISKE ST, NATICK, MA, 01760"
2024/04/01 23:09:00,"[NAT 936] BERNARDI VOLVO - 910 WORCESTER ST","ALARM, BURGLAR P - ALARM SET OFF IN ERROR","ALARM",42.299582,-71.362449,"910 WORCESTER ST, NATICK, MA, 01760"
2024/04/01 23:13:00,"[NAT 2013] UPS STORE OF NATICK - 841 WORCESTER ST","MOTOR VEHICLE TOW Vehicle Towed","MOTOR VEHICLE TOW",42.305605,-71.311290,"841 WORCESTER ST, WELLESLEY HILLS, MA, 02481"
2024/04/02 04:24:00,"[NAT 1511] MONTICELLO MOTEL - 1446 WORCESTER ST Apt. #130","DISTURBANCE Unfounded","DISTURBANCE",42.298763,-71.391695,"1446 WORCESTER ST, NATICK, MA, 01760"
2024/04/02 05:10:00,"[NAT 1016] WILSON MIDDLE SCHOOL - 22 RUTLEDGE RD","ALARM, BURGLAR P - ALARM SET OFF IN ERROR","ALARM",42.303827,-71.358138,"22 RUTLEDGE RD, NATICK, MA, 01760"
2024/04/02 06:42:00,"[NAT 168] 15 PAMELA RD - 15 PAMELA RD","ALARM, BURGLAR P - ALARM SET OFF IN ERROR","ALARM",42.313287,-71.343475,"15 PAMELA RD, NATICK, MA, 01760"
2024/04/02 06:54:00,"225 OAK ST ","SUSPICIOUS ACTIVITY P - Services Rendered","SUSPICIOUS ACTIVITY",42.315369,-71.340069,"225 OAK ST, NATICK, MA, 01760"
2024/04/02 06:59:00,"[NAT 936] BERNARDI VOLVO - 910 WORCESTER ST","ALARM, BURGLAR P - ALARM SET OFF IN ERROR","ALARM",42.299582,-71.362449,"910 WORCESTER ST, NATICK, MA, 01760"
2024/04/02 08:17:00,"1 MAIN ST ","MOTOR VEHICLE CRASH Report to be filed","MOTOR VEHICLE CRASH",42.284498,-71.347509,"1 MAIN ST, NATICK, MA, 01760"
2024/04/02 08:46:00,"53 MILL ST ","MOTOR VEHICLE STOP Citation/ Warning Issued","MOTOR VEHICLE STOP",42.281924,-71.380243,"53 MILL ST, NATICK, MA, 01760"
2024/04/02 08:49:00,"6 MORSE ST","Animals (Other) Log Entry","ANIMALS",42.283501,-71.344717,"6 MORSE ST, NATICK, MA, 01760"
2024/04/02 09:17:00,"[NAT 3797] 90 OAK STREET - 90 OAK ST","Animals (Other) Log Entry","ANIMALS",42.305150,-71.332496,"90 OAK ST, NATICK, MA, 01760"
2024/04/02 09:46:00,"[NAT 55] 5 WETHERSFIELD RD BLDG - 5 WETHERSFIELD RD","Animals (Other) Gone On Arrival","ANIMALS",42.302483,-71.352197,"5 WETHERSFIELD RD, NATICK, MA, 01760"
2024/04/02 09:52:00,"177 NORTH MAIN ST Apt. #B","Animals (Other) Log Entry","ANIMALS",42.298462,-71.359256,"177 N MAIN ST, NATICK, MA, 01760"
2024/04/02 10:21:00,"217 WEST CENTRAL ST","MOTOR VEHICLE STOP Arrest(s) Made","MOTOR VEHICLE STOP",42.281995,-71.390040,"217 W CENTRAL ST, NATICK, MA, 01760"
2024/04/02 10:46:00,"[NAT 3817] BOSTONWEST VETERINARY EMERGENCY & SPECIALTY - 5 STRATHMORE RD","Animals (Other) Report to be filed","ANIMALS",42.296412,-71.389945,"5 STRATHMORE RD, NATICK, MA, 01760"
2024/04/02 11:01:00,"9 WARING RD","ALARM, BURGLAR P - ALARM SET OFF IN ERROR","ALARM",42.309274,-71.357614,"9 WARING RD, NATICK, MA, 01760"
2024/04/02 11:50:00,"11 VILLAGE WAY Apt. #4","M/ V CRASH/ Hit & Run Report to be filed","MOTOR VEHICLE CRASH",42.280407,-71.390228,"11 VILLAGE WAY, NATICK, MA, 01760"
2024/04/02 11:55:00,"[FRA] 600 CONCORD ST","ESCORT/ TRANSPORT P - Services Rendered","ESCORT/",42.292559,-71.409285,"600 CONCORD ST, FRAMINGHAM, MA, 01702"
2024/04/02 12:05:00,"[NAT 3879] BERNARDI AUDI - 549 WORCESTER ST","MOTOR VEHICLE STOP Citation/ Warning Issued","MOTOR VEHICLE STOP",42.309143,-71.284371,"549 WORCESTER ST, WELLESLEY HILLS, MA, 02481"
2024/04/02 12:17:00,"[NAT 855] THRIVE PET HEALTH CARE - 121 WEST CENTRAL ST","Animals (Other) P - Services Rendered","ANIMALS",42.283651,-71.369312,"121 W CENTRAL ST, NATICK, MA, 01760"
2024/04/02 12:22:00,"22 WINTER ST","SUSPICIOUS ACTIVITY Report to be filed","SUSPICIOUS ACTIVITY",42.319331,-71.338781,"22 WINTER ST, NATICK, MA, 01760"
2024/04/02 12:43:00,"[NAT 3019] MACY'S - 1247 WORCESTER ST","SHOPLIFTING SUMMONS REQUEST","SHOPLIFTING",42.299501,-71.377795,"1247 WORCESTER ST, NATICK, MA, 01760"
2024/04/02 13:29:00,"[NAT 1705] NATICK POLICE DEPARTMENT - 20 EAST CENTRAL ST","ONLINE INCIDENT REPORT Report to be filed","ONLINE INCIDENT REPORT",42.284248,-71.345123,"20 E CENTRAL ST, NATICK, MA, 01760"
2024/04/02 14:40:00,"13 SHADY OAK LN ","Animals (Other) Log Entry","ANIMALS",42.288026,-71.399540,"13 SHADY OAK LN, NATICK, MA, 01760"
2024/04/02 15:18:00,"[NAT 1547] SUNNYSIDE PLAZA - 915 WORCESTER ST","MOTOR VEHICLE STOP Citation/ Warning Issued","MOTOR VEHICLE STOP",42.299876,-71.361849,"915 WORCESTER ST, NATICK, MA, 01760"
2024/04/02 16:15:00,"[NAT 4025] TOTAL WINE AND MORE - 321 SPEEN ST","LOCKOUT (VEHICLE) P - Services Rendered","LOCKOUT",42.301013,-71.379943,"321 SPEEN ST, NATICK, MA, 01760"
2024/04/02 16:28:00,"10 VILLAGE GREEN LN Apt. #17","SERVE SUMMONS Merge: 24-5608 By: 49438","SERVE SUMMONS",42.281097,-71.391754,"10 VILLAGE GREEN LN, NATICK, MA, 01760"
2024/04/02 17:22:00,"10 VILLAGE GREEN LN Apt. #17","SERVE SUMMONS UNABLE TO SERVE","SERVE SUMMONS",42.281097,-71.391754,"10 VILLAGE GREEN LN, NATICK, MA, 01760"
2024/04/02 18:22:00,"[NAT 2005] MARY ANN MORSE NURSING CENTER - 45 UNION ST Apt. #105A","COMPLAINT Report to be filed","COMPLAINT",42.283203,-71.336260,"45 UNION ST, NATICK, MA, 01760"
2024/04/02 19:30:00,"[NAT 920] NATICK MALL (MALL I) - 1245 WORCESTER ST","FOUND/ LOST PROPERTY Log Entry","FOUND/ LOST PROPERTY",42.299500,-71.377749,"1245 WORCESTER ST, NATICK, MA, 01760"
2024/04/02 21:03:00,"[NAT 742] AUSTIN LIQUOR STORE - 212 NORTH MAIN ST","MOTOR VEHICLE CRASH P - Services Rendered","MOTOR VEHICLE CRASH",42.303997,-71.361590,"212 N MAIN ST, NATICK, MA, 01760"
2024/04/02 21:14:00,"17 VILLAGE WAY","ALARM, BURGLAR P - ALARM SET OFF IN ERROR","ALARM",42.280325,-71.390320,"17 VILLAGE WAY, NATICK, MA, 01760"
2024/04/02 21:50:00,"[NAT 235] TOWN LINE LIQUORS INC - 160 EAST CENTRAL ST","ERRATIC OPERATOR Gone On Arrival","ERRATIC OPERATOR",42.288454,-71.331925,"160 E CENTRAL ST, NATICK, MA, 01760"
2024/04/03 06:23:00,"10 VILLAGE GREEN LN Apt. #17","SERVE SUMMONS UNABLE TO SERVE","SERVE SUMMONS",42.281097,-71.391754,"10 VILLAGE GREEN LN, NATICK, MA, 01760"
2024/04/03 06:42:00,"[NAT 625] 6 RETROP RD","911 HANG UP P - Services Rendered","911 HANG UP",42.287069,-71.328674,"6 RETROP RD, NATICK, MA, 01760"
2024/04/03 08:32:00,"3 WILOGREEN RD","SUSPICIOUS ACTIVITY P - Services Rendered","SUSPICIOUS ACTIVITY",42.288462,-71.327968,"3 WILOGREEN RD, NATICK, MA, 01760"
2024/04/03 08:54:00,"[NAT 2665] SPEEDWAY (RT 9 WEST) - 207 WORCESTER ST","COMPLAINT P - Services Rendered","COMPLAINT",42.314695,-71.255293,"207 WORCESTER ST, WELLESLEY HILLS, MA, 02481"
2024/04/03 10:16:00,"313 SPEEN ST ","HAZARD P - Services Rendered","HAZARD",42.300998,-71.379934,"313 SPEEN ST, NATICK, MA, 01760"
2024/04/03 10:42:00,"45 INDIAN RIDGE RD","Animals (Other) P - Services Rendered","ANIMALS",42.249811,-71.326136,"45 INDIAN RIDGE RD, NATICK, MA, 01760"
2024/04/03 11:46:00,"[NAT 4365] SUBARU SERVICE GARAGE - 932 WORCESTER ST","MOTOR VEHICLE STOP SUMMONS REQUEST","MOTOR VEHICLE STOP",42.299440,-71.363616,"932 WORCESTER ST, NATICK, MA, 01760"
2024/04/03 13:21:00,"1245 WORCESTER ST ","MOTOR VEHICLE STOP Report to be filed","MOTOR VEHICLE STOP",42.299500,-71.377749,"1245 WORCESTER ST, NATICK, MA, 01760"
2024/04/03 13:33:00,"29 BRADFORD RD","LARCENY / FORGERY/ FRAUD Report to be filed","LARCENY / FORGERY/ FRAUD",42.310566,-71.349836,"29 BRADFORD RD, NATICK, MA, 01760"
2024/04/03 13:48:00,"[NAT 4184] DAVE AND BUSTERS-2ND FLOOR - 313 SPEEN ST 200 ","MOTOR VEHICLE CRASH Report to be filed","MOTOR VEHICLE CRASH",42.300998,-71.379934,"313 SPEEN ST, NATICK, MA, 01760"
2024/04/03 14:17:00,"143 MILL ST","MOTOR VEHICLE STOP Citation/ Warning Issued","MOTOR VEHICLE STOP",42.287469,-71.382669,"143 MILL ST, NATICK, MA, 01760"
2024/04/03 14:35:00,"4 WALDEN DR Apt. #19","LARCENY / FORGERY/ FRAUD Report to be filed","LARCENY / FORGERY/ FRAUD",42.276717,-71.387681,"4 WALDEN DR, NATICK, MA, 01760"
2024/04/03 16:48:00,"180 CEDAR TER Apt. #B","F - Well Being Check F - No Patient","Well Being Check",42.272894,-71.356494,"180 CEDAR TER, NATICK, MA, 01760"
2024/04/03 17:26:00,"[NAT 868] WALGREEN DRUG STORE - 148 WEST CENTRAL ST","MOTOR VEHICLE CRASH SUMMONS REQUEST","MOTOR VEHICLE CRASH",42.282485,-71.378093,"148 W CENTRAL ST, NATICK, MA, 01760"
2024/04/03 18:23:00,"10 COLEMAN CT","SUSPICIOUS ACTIVITY P - Services Rendered","SUSPICIOUS ACTIVITY",42.297807,-71.361282,"10 COLEMAN CT, NATICK, MA, 01760"
2024/04/03 20:39:00,"7 ROBINHOOD RD","ALARM, BURGLAR P - ALARM SET OFF IN ERROR","ALARM",42.297748,-71.376106,"7 ROBINHOOD RD, NATICK, MA, 01760"
2024/04/04 00:27:00,"[NAT 920] NATICK MALL (MALL I) - 1245 WORCESTER ST","HAZARD P - Services Rendered","HAZARD",42.299500,-71.377749,"1245 WORCESTER ST, NATICK, MA, 01760"
2024/04/04 01:24:00,"[NAT 4387] LUCID MOTORS - 1245 WORCESTER ST","ALARM, BURGLAR P - ALARM BLDG Chk Secure","ALARM",42.299500,-71.377749,"1245 WORCESTER ST, NATICK, MA, 01760"
2024/04/04 07:44:00,"232 POND ST ","HAZARD P - Services Rendered","HAZARD",42.278107,-71.375000,"232 POND ST, NATICK, MA, 01760"
2024/04/04 08:22:00,"[NAT 2553] ETHAN ALLEN - 321 SPEEN ST","ALARM, BURGLAR P - ALARM BLDG Chk Secure","ALARM",42.301013,-71.379943,"321 SPEEN ST, NATICK, MA, 01760"
2024/04/04 08:24:00,"105 OAK ST","F - Wire Down F - Services Provided","Wire Down",42.306239,-71.332642,"105 OAK ST, NATICK, MA, 01760"
2024/04/04 08:30:00,"[NAT 855] THRIVE PET HEALTH CARE - 121 WEST CENTRAL ST","Animals (Other) P - Services Rendered","ANIMALS",42.283651,-71.369312,"121 W CENTRAL ST, NATICK, MA, 01760"
2024/04/04 08:31:00,"[NAT 485] 71 GLEN ST ","F - Wire Down P - Services Rendered","Wire Down",42.263186,-71.315526,"71 GLEN ST, NATICK, MA, 01760"
2024/04/04 09:35:00,"104 WORCESTER ST","MOTOR VEHICLE CRASH Unfounded","MOTOR VEHICLE CRASH",42.303728,-71.330895,"104 WORCESTER ST, NATICK, MA, 01760"
2024/04/04 09:43:00,"[NAT 611] BOX 1241 - 9 EAST ST Apt. #1","JUVENILE PROBLEM P - Services Rendered","JUVENILE PROBLEM",42.281561,-71.346182,"9 EAST ST, NATICK, MA, 01760"
2024/04/04 10:36:00,"[NAT 4210] ANTHONYS COAL FIRED PIZZA - 219 NORTH MAIN ST Apt. #A-104","ALARM, BURGLAR P - ALARM SET OFF IN ERROR","ALARM",42.303076,-71.361265,"219 N MAIN ST, NATICK, MA, 01760"
2024/04/04 11:43:00,"[NAT 3404] AVALON NATICK APARTMENTS - 1 CHRYSLER RD Apt. #809","B& E MOTOR VEHICLE Report to be filed","B& E MOTOR VEHICLE",42.305133,-71.382036,"1 CHRYSLER RD, NATICK, MA, 01760"
2024/04/04 12:17:00,"[NAT 1705] NATICK POLICE DEPARTMENT - 20 EAST CENTRAL ST","ESCORT/ TRANSPORT P - Services Rendered","ESCORT/",42.284248,-71.345123,"20 E CENTRAL ST, NATICK, MA, 01760"
2024/04/04 12:50:00,"[NAT 1705] NATICK POLICE DEPARTMENT - 20 EAST CENTRAL ST","SERVE WARRANT Arrest(s) Made","SERVE WARRANT",42.284248,-71.345123,"20 E CENTRAL ST, NATICK, MA, 01760"
2024/04/04 12:59:00,"[NAT 3592] REDI DISPENSARY - 321 SPEEN ST","ASSIST OTHER AGENCY Unable to Locate","ASSIST OTHER AGENCY",42.301013,-71.379943,"321 SPEEN ST, NATICK, MA, 01760"
2024/04/04 13:14:00,"209 SPEEN ST","LARCENY / FORGERY/ FRAUD P - Services Rendered","LARCENY / FORGERY/ FRAUD",42.291673,-71.376330,"209 SPEEN ST, NATICK, MA, 01760"
2024/04/04 13:24:00,"11 FISHER ST Apt. #B","Animals (Other) Log Entry","ANIMALS",42.293894,-71.359290,"11 FISHER ST, NATICK, MA, 01760"
2024/04/04 13:44:00,"12 BROOK ST","Animals (Other) P - Services Rendered","ANIMALS",42.276880,-71.320511,"12 BROOK ST, NATICK, MA, 01760"
2024/04/04 14:09:00,"[FRA] 600 CONCORD ST","ESCORT/ TRANSPORT P - Services Rendered","ESCORT/",42.292559,-71.409285,"600 CONCORD ST, FRAMINGHAM, MA, 01702"
2024/04/04 15:43:00,"10 KINSMAN PL","F - Well Being Check F - Services Provided","Well Being Check",42.290782,-71.353183,"10 KINSMAN PL, NATICK, MA, 01760"
2024/04/04 18:42:00,"14 WEST HILL PARK","SUSPICIOUS ACTIVITY Unfounded","SUSPICIOUS ACTIVITY",42.289517,-71.399684,"14 HILL ST, NATICK, MA, 01760"
2024/04/04 21:45:00,"57 BACON ST","DISTURBANCE Report to be filed","DISTURBANCE",42.293987,-71.329599,"57 BACON ST, NATICK, MA, 01760"
2024/04/04 23:41:00,"223 WEST CENTRAL ST","MOTOR VEHICLE TOW Vehicle Towed","MOTOR VEHICLE TOW",42.281990,-71.390139,"223 W CENTRAL ST, NATICK, MA, 01760"
2024/04/05 00:29:00,"[NAT 963] HAMPTON INN - 319 SPEEN ST","MOTOR VEHICLE STOP Citation/ Warning Issued","MOTOR VEHICLE STOP",42.301009,-71.379941,"319 SPEEN ST, NATICK, MA, 01760"
2024/04/05 00:48:00,"[NAT 79] BERNARDI HONDA - 960 WORCESTER ST","MOTOR VEHICLE STOP Citation/ Warning Issued","MOTOR VEHICLE STOP",42.299258,-71.365104,"960 WORCESTER ST, NATICK, MA, 01760"
2024/04/05 07:33:00,"100 WEST CENTRAL ST ","F - MVA with Injury Report to be filed","MOTOR VEHICLE CRASH",42.282149,-71.359838,"100 W CENTRAL ST, NATICK, MA, 01760"
2024/04/05 08:28:00,"[FRA] 600 CONCORD ST","ESCORT/ TRANSPORT P - Services Rendered","ESCORT/",42.292559,-71.409285,"600 CONCORD ST, FRAMINGHAM, MA, 01702"
2024/04/05 09:02:00,"257 ELIOT ST","MOTOR VEHICLE STOP Citation/ Warning Issued","MOTOR VEHICLE STOP",42.258867,-71.333546,"257 ELIOT ST, NATICK, MA, 01760"
2024/04/05 09:16:00,"[NAT 2371] SHERWOOD PLAZA (WEST) - 1298 WORCESTER ST","MOTOR VEHICLE STOP SUMMONS REQUEST","MOTOR VEHICLE STOP",42.298923,-71.387223,"1298 WORCESTER ST, NATICK, MA, 01760"
2024/04/05 09:24:00,"15 VILLAGE ROCK LN Apt. #6","F - Well Being Check F - Services Provided","Well Being Check",42.278513,-71.394541,"15 VILLAGE ROCK LN, NATICK, MA, 01760"
2024/04/05 09:47:00,"21 WESTFIELD RD","MOTOR VEHICLE STOP Citation/ Warning Issued","MOTOR VEHICLE STOP",42.284200,-71.380419,"21 WESTFIELD RD, NATICK, MA, 01760"
2024/04/05 09:49:00,"288 NORTH MAIN ST Apt. #2","NEIGHBOR DISPUTE P - Services Rendered","NEIGHBOR DISPUTE",42.309727,-71.361335,"288 N MAIN ST, NATICK, MA, 01760"
2024/04/05 10:00:00,"[NAT 431] CITIZENS BANK - 34 MAIN ST","SUSPICIOUS ACTIVITY P - Services Rendered","SUSPICIOUS ACTIVITY",42.285688,-71.348005,"34 MAIN ST, NATICK, MA, 01760"
2024/04/05 10:13:00,"[NAT 1482] NATICK AUTO CLINIC INC - 193 WORCESTER ST","MOTOR VEHICLE CRASH P - Services Rendered","MOTOR VEHICLE CRASH",42.303248,-71.333720,"193 WORCESTER ST, NATICK, MA, 01760"
2024/04/05 10:31:00,"34 BURNING TREE RD","COMPLAINT Report to be filed","COMPLAINT",42.283786,-71.388249,"34 BURNING TREE RD, NATICK, MA, 01760"
2024/04/05 11:06:00,"[NAT 2999] 3 PENOBSCOT RD - 3 PENOBSCOT RD","Animals (Other) Log Entry","ANIMALS",42.283957,-71.331904,"3 PENOBSCOT RD, NATICK, MA, 01760"
2024/04/05 11:10:00,"[NAT 3843] NATICK HIGH SCHOOL - 15 WEST ST","ASSAULT Report to be filed","ASSAULT",42.276971,-71.359319,"15 WEST ST, NATICK, MA, 01760"
2024/04/05 11:33:00,"[NAT 3843] NATICK HIGH SCHOOL - 15 WEST ST","ASSAULT P - Services Rendered","ASSAULT",42.276971,-71.359319,"15 WEST ST, NATICK, MA, 01760"
2024/04/05 11:37:00,"1245 WORCESTER ST","LARCENY / FORGERY/ FRAUD Report to be filed","LARCENY / FORGERY/ FRAUD",42.299500,-71.377749,"1245 WORCESTER ST, NATICK, MA, 01760"
2024/04/05 11:43:00,"[NAT 3843] NATICK HIGH SCHOOL - 15 WEST ST","ASSAULT SUMMONS REQUEST","ASSAULT",42.276971,-71.359319,"15 WEST ST, NATICK, MA, 01760"
2024/04/05 11:46:00,"[NAT 4113] B GOOD RESTAURANT - 1265 WORCESTER ST","MOTOR VEHICLE STOP Citation/ Warning Issued","MOTOR VEHICLE STOP",42.299514,-71.378211,"1265 WORCESTER ST, NATICK, MA, 01760"
2024/04/05 13:03:00,"[NAT 403] THE CONTAINER STORE - 1265 WORCESTER ST","MOTOR VEHICLE STOP SUMMONS REQUEST","MOTOR VEHICLE STOP",42.299514,-71.378211,"1265 WORCESTER ST, NATICK, MA, 01760"
2024/04/05 13:52:00,"12 NORTH MAIN ST","MOTOR VEHICLE STOP Citation/ Warning Issued","MOTOR VEHICLE STOP",42.286190,-71.348918,"12 N MAIN ST, NATICK, MA, 01760"
2024/04/05 14:43:00,"2 WORCESTER ST ","MOTOR VEHICLE CRASH Report to be filed","MOTOR VEHICLE CRASH",42.304222,-71.326689,"2 WORCESTER ST, NATICK, MA, 01760"
2024/04/05 14:49:00,"3 JENNISON CIR","SUSPICIOUS ACTIVITY Report to be filed","SUSPICIOUS ACTIVITY",42.321321,-71.334280,"3 JENNISON CIR, NATICK, MA, 01760"
2024/04/05 14:51:00,"[NAT 872] ELIOT CENTER FOR HEALTH AND REHABILTATION - 168 WEST CENTRAL ST","MOTOR VEHICLE STOP Citation/ Warning Issued","MOTOR VEHICLE STOP",42.282466,-71.379303,"168 W CENTRAL ST, NATICK, MA, 01760"
2024/04/05 15:20:00,"1400 WORCESTER ST","M/ V CRASH/ Hit & Run P - Services Rendered","MOTOR VEHICLE CRASH",42.298767,-71.391565,"1400 WORCESTER ST, NATICK, MA, 01760"
2024/04/05 16:04:00,"24 BRADFORD RD","LARCENY / FORGERY/ FRAUD Report to be filed","LARCENY / FORGERY/ FRAUD",42.310191,-71.351606,"24 BRADFORD RD, NATICK, MA, 01760"
2024/04/05 16:27:00,"9 VILLAGE ROCK LN Apt. #8","NEIGHBOR DISPUTE P - Services Rendered","NEIGHBOR DISPUTE",42.278540,-71.394163,"9 VILLAGE ROCK LN, NATICK, MA, 01760"
2024/04/05 16:36:00,"[NAT 4025] TOTAL WINE AND MORE - 321 SPEEN ST","COMPLAINT Gone On Arrival","COMPLAINT",42.301013,-71.379943,"321 SPEEN ST, NATICK, MA, 01760"
2024/04/05 17:01:00,"[NAT 3111] CLOVERLEAF APARTMENTS - 325 SPEEN ST Apt. #902","LARCENY / FORGERY/ FRAUD Report to be filed","LARCENY / FORGERY/ FRAUD",42.301020,-71.379948,"325 SPEEN ST, NATICK, MA, 01760"
2024/04/05 17:14:00,"51 ELIOT ST ","ERRATIC OPERATOR Log Entry","ERRATIC OPERATOR",42.273675,-71.315396,"51 ELIOT ST, NATICK, MA, 01760"
2024/04/05 17:53:00,"25 HARDWICK RD ","SUSPICIOUS ACTIVITY P - Services Rendered","SUSPICIOUS ACTIVITY",42.296193,-71.393104,"25 HARDWICK RD, NATICK, MA, 01760"
2024/04/05 19:08:00,"[NAT 3019] MACY'S - 1247 WORCESTER ST","SHOPLIFTING Arrest(s) Made","SHOPLIFTING",42.299501,-71.377795,"1247 WORCESTER ST, NATICK, MA, 01760"
2024/04/05 21:58:00,"[NAT 4327] KINGS AUTO & SPA DETAILING - 200 WEST CENTRAL ST","ALARM, BURGLAR P - ALARM BLDG Chk Secure","ALARM",42.282226,-71.384856,"200 W CENTRAL ST, NATICK, MA, 01760"
2024/04/06 00:20:00,"[NAT 2688] COURTYARD BY MARRIOTT - 342 SPEEN ST","ESCORT/ TRANSPORT P - Services Rendered","ESCORT/",42.300749,-71.379948,"342 SPEEN ST, NATICK, MA, 01760"
2024/04/06 03:38:00,"50 SILVER HILL LN Apt. #10","SUSPICIOUS ACTIVITY P - Services Rendered","SUSPICIOUS ACTIVITY",42.277836,-71.384668,"50 SILVER HILL LN, NATICK, MA, 01760"
2024/04/06 05:55:00,"7 LARKSPUR WAY Apt. #1","SUDDEN DEATH Report to be filed","SUDDEN DEATH",42.278829,-71.389509,"7 LARKSPUR WAY, NATICK, MA, 01760"
2024/04/06 06:43:00,"156 WALNUT ST ","MOTOR VEHICLE CRASH Report to be filed","MOTOR VEHICLE CRASH",42.300664,-71.346035,"156 WALNUT ST, NATICK, MA, 01760"
2024/04/06 06:52:00,"9 LAKEVIEW GARDENS Apt. #205","SUSPICIOUS ACTIVITY Report to be filed","SUSPICIOUS ACTIVITY",42.277374,-71.370148,"9 LAKEVIEW AVE, NATICK, MA, 01760"
2024/04/06 07:06:00,"[NAT 2043] STARBUCKS COFFEE - 1346 WORCESTER ST","M/ V CRASH/ Hit & Run Report to be filed","MOTOR VEHICLE CRASH",42.298915,-71.387322,"1346 WORCESTER ST, NATICK, MA, 01760"
2024/04/06 07:21:00,"6 MILL ST ","PARKING COMPLAINT P - Services Rendered","PARKING COMPLAINT",42.278404,-71.376983,"6 MILL ST, NATICK, MA, 01760"
2024/04/06 09:04:00,"72 BACON ST","F - MVA with Injury Report to be filed","MOTOR VEHICLE CRASH",42.293871,-71.331496,"72 BACON ST, NATICK, MA, 01760"
2024/04/06 09:37:00,"5 POINT ST","LARCENY / FORGERY/ FRAUD Report to be filed","LARCENY / FORGERY/ FRAUD",42.278300,-71.371219,"5 POINT ST, NATICK, MA, 01760"
2024/04/06 12:43:00,"A2 ROW 3 - 1245 WORCESTER ST","ABANDONED M/V P - Services Rendered","ABANDONED M/V",42.299500,-71.377749,"1245 WORCESTER ST, NATICK, MA, 01760"
2024/04/06 12:47:00,"[NAT 1543] RECYCLE CENTER - 21 WEST ST","LOCKOUT (VEHICLE) P - Services Rendered","LOCKOUT",42.276810,-71.359370,"21 WEST ST, NATICK, MA, 01760"
2024/04/06 13:10:00,"[NAT 3592] REDI DISPENSARY - 321 SPEEN ST","ASSIST OTHER AGENCY P - Services Rendered","ASSIST OTHER AGENCY",42.301013,-71.379943,"321 SPEEN ST, NATICK, MA, 01760"
2024/04/06 13:37:00,"[NAT 854] 57 SOUTH ST - 57 SOUTH ST","ALARM, BURGLAR P - ALARM BLDG Chk Secure","ALARM",42.255833,-71.328612,"57 SOUTH ST, NATICK, MA, 01760"
2024/04/06 13:46:00,"[NAT 2711] CLOSET TO CLOSET - 90 PARK AVE","911 HANG UP P - Services Rendered","911 HANG UP",42.299681,-71.355924,"90 PARK AVE, NATICK, MA, 01760"
2024/04/06 13:59:00,"15 VILLAGE ROCK LN Apt. #10","F - Well Being Check P - Services Rendered","Well Being Check",42.278513,-71.394541,"15 VILLAGE ROCK LN, NATICK, MA, 01760"
2024/04/06 14:28:00,"[NAT 277] RELIABLE CLEANERS - 214 WEST CENTRAL ST","M/ V CRASH/ Hit & Run P - Services Rendered","MOTOR VEHICLE CRASH",42.282190,-71.385618,"214 W CENTRAL ST, NATICK, MA, 01760"
2024/04/06 15:10:00,"[NAT 4327] KINGS AUTO & SPA DETAILING - 200 WEST CENTRAL ST","ALARM, BURGLAR P - Services Rendered","ALARM",42.282226,-71.384856,"200 W CENTRAL ST, NATICK, MA, 01760"
2024/04/06 18:31:00,"[NAT 3222] CHEESECAKE FACTORY - 1245 WORCESTER ST Apt. #1098","SUSPICIOUS ACTIVITY Gone On Arrival","SUSPICIOUS ACTIVITY",42.299500,-71.377749,"1245 WORCESTER ST, NATICK, MA, 01760"
2024/04/06 21:25:00,"[NAT 3577] 59 ELIOT HILL RD - 59 ELIOT HILL RD","SUSPICIOUS ACTIVITY Unfounded","SUSPICIOUS ACTIVITY",42.259929,-71.337413,"59 ELIOT HILL RD, NATICK, MA, 01760"
2024/04/06 21:45:00,"[SHR] 17 WASHINGTON ST","ASSIST OTHER AGENCY P - Services Rendered","ASSIST OTHER AGENCY",42.285122,-71.346289,"17 WASHINGTON ST, NATICK, MA, 01760"
2024/04/06 22:15:00,"48 VILLAGE BROOK LN Apt. #20","NOISE COMPLAINT P - Services Rendered","NOISE COMPLAINT",42.277101,-71.392256,"48 VILLAGE BROOK LN, NATICK, MA, 01760"
2024/04/06 22:56:00,"[NAT 3770] URBAN OUTFITTERS - 1245 WORCESTER ST Apt. #4000","ALARM, BURGLAR P - ALARM BLDG Chk Secure","ALARM",42.299500,-71.377749,"1245 WORCESTER ST, NATICK, MA, 01760"
2024/04/07 00:27:00,"[NAT 3698] 12 DWIGHT AVE - 12 DWIGHT AVE","ANIMALS, BARKING DOG P - Services Rendered","ANIMALS",42.308708,-71.354858,"12 DWIGHT AVE, NATICK, MA, 01760"
2024/04/07 02:51:00,"[NAT 3616] AVALON NATICK - CLUBHOUSE - 3 CHRYSLER RD","MOTOR VEHICLE TOW Log Entry","MOTOR VEHICLE TOW",42.305152,-71.381969,"3 CHRYSLER RD, NATICK, MA, 01760"
2024/04/07 04:17:00,"[NAT 4001] TODOS DANCE STUDIO - 677 WORCESTER ST","NOISE COMPLAINT P - Services Rendered","NOISE COMPLAINT",42.306356,-71.295696,"677 WORCESTER ST, WELLESLEY HILLS, MA, 02481"
2024/04/07 08:40:00,"[NAT 1505] WENDY'S INTERNATIONAL - 303 WEST CENTRAL ST","MOTOR VEHICLE STOP Citation/ Warning Issued","MOTOR VEHICLE STOP",42.281774,-71.393563,"303 W CENTRAL ST, NATICK, MA, 01760"
2024/04/07 09:04:00,"[NAT 4092] NEWTON DISTRIBUTING - 245 WEST CENTRAL ST","MOTOR VEHICLE STOP Citation/ Warning Issued","MOTOR VEHICLE STOP",42.281973,-71.390508,"245 W CENTRAL ST, NATICK, MA, 01760"
2024/04/07 09:25:00,"182 MILL ST","MOTOR VEHICLE STOP Citation/ Warning Issued","MOTOR VEHICLE STOP",42.290143,-71.387401,"182 MILL ST, NATICK, MA, 01760"
2024/04/07 09:44:00,"30 WORCESTER ST","MOTOR VEHICLE STOP Citation/ Warning Issued","MOTOR VEHICLE STOP",42.304079,-71.328665,"30 WORCESTER ST, NATICK, MA, 01760"
2024/04/07 09:56:00,"[NAT 79] BERNARDI HONDA - 960 WORCESTER ST","DISABLED M/V Citation/ Warning Issued","DISABLED M/V",42.299258,-71.365104,"960 WORCESTER ST, NATICK, MA, 01760"
2024/04/07 10:03:00,"148 CEDAR TER","ABANDONED M/V P - Services Rendered","ABANDONED M/V",42.273017,-71.356430,"148 CEDAR TER, NATICK, MA, 01760"
2024/04/07 10:19:00,"[NAT 4004] VACANT - 104 WORCESTER ST","MOTOR VEHICLE STOP Citation/ Warning Issued","MOTOR VEHICLE STOP",42.303728,-71.330895,"104 WORCESTER ST, NATICK, MA, 01760"
2024/04/07 10:23:00,"[NAT 800] BOX 644 - 19 RIDGE AVE","B& E MOTOR VEHICLE Report to be filed","B& E MOTOR VEHICLE",42.294064,-71.373122,"19 RIDGE AVE, NATICK, MA, 01760"
2024/04/07 10:35:00,"84 CEDAR AVE Apt. #D","F - Well Being Check P - Services Rendered","Well Being Check",42.273956,-71.355868,"84 CEDAR AVE, NATICK, MA, 01760"
2024/04/07 11:24:00,"162 MILL ST","MOTOR VEHICLE STOP Citation/ Warning Issued","MOTOR VEHICLE STOP",42.288936,-71.384965,"162 MILL ST, NATICK, MA, 01760"
2024/04/07 12:33:00,"[NAT 3364] PANERA BREAD - 841 WORCESTER ST","MOTOR VEHICLE STOP SUMMONS REQUEST","MOTOR VEHICLE STOP",42.305605,-71.311290,"841 WORCESTER ST, WELLESLEY HILLS, MA, 02481"
2024/04/07 12:43:00,"[NAT 3836] STARBUCKS - 333 WORCESTER ST","MOTOR VEHICLE STOP Citation/ Warning Issued","MOTOR VEHICLE STOP",42.314475,-71.257305,"333 WORCESTER ST, WELLESLEY HILLS, MA, 02481"
2024/04/07 13:59:00,"148 HARTFORD ST ","MOTOR VEHICLE STOP Citation/ Warning Issued","MOTOR VEHICLE STOP",42.290672,-71.392931,"148 HARTFORD ST, NATICK, MA, 01760"
2024/04/07 14:12:00,"141 NORTH MAIN ST ","MOTOR VEHICLE STOP Citation/ Warning Issued","MOTOR VEHICLE STOP",42.294501,-71.357956,"141 N MAIN ST, NATICK, MA, 01760"
2024/04/07 14:16:00,"244 WEST CENTRAL ST ","MOTOR VEHICLE STOP Citation/ Warning Issued","MOTOR VEHICLE STOP",42.282080,-71.387087,"244 W CENTRAL ST, NATICK, MA, 01760"
2024/04/07 14:57:00,"[NAT 1505] WENDY'S INTERNATIONAL - 303 WEST CENTRAL ST","MOTOR VEHICLE STOP Citation/ Warning Issued","MOTOR VEHICLE STOP",42.281774,-71.393563,"303 W CENTRAL ST, NATICK, MA, 01760"
2024/04/07 15:10:00,"[NAT 872] ELIOT CENTER FOR HEALTH AND REHABILTATION - 168 WEST CENTRAL ST","MOTOR VEHICLE STOP Citation/ Warning Issued","MOTOR VEHICLE STOP",42.282466,-71.379303,"168 W CENTRAL ST, NATICK, MA, 01760"
2024/04/07 17:08:00,"7 MORGAN DR Apt. #103","COMPLAINT P - Services Rendered","COMPLAINT",42.266036,-71.354032,"7 MORGAN DR, NATICK, MA, 01760"
2024/04/07 17:20:00,"119 WORCESTER ST ","HAZARD P - Services Rendered","HAZARD",42.303252,-71.333703,"119 WORCESTER ST, NATICK, MA, 01760"
2024/04/07 17:35:00,"[NAT 3404] AVALON NATICK APARTMENTS - 1 CHRYSLER RD","SUSPICIOUS ACTIVITY P - Services Rendered","SUSPICIOUS ACTIVITY",42.305133,-71.382036,"1 CHRYSLER RD, NATICK, MA, 01760"
2024/04/07 19:12:00,"[NAT 435] CENTER FOR THE ARTS (TCAN) - 14 SUMMER ST","ALARM, BURGLAR P - ALARM BLDG Chk Secure","ALARM",42.284470,-71.348222,"14 SUMMER ST, NATICK, MA, 01760"
2024/04/07 20:06:00,"[NAT 1145] SUPER STOP & SHOP - 829 WORCESTER ST","LARCENY / FORGERY/ FRAUD Report to be filed","LARCENY / FORGERY/ FRAUD",42.305625,-71.311027,"829 WORCESTER ST, WELLESLEY HILLS, MA, 02481"
2024/04/07 22:31:00," 3 GIBSON RD","MOTOR VEHICLE STOP Citation/ Warning Issued","MOTOR VEHICLE STOP",42.290109,-71.395177,"3 GIBSON RD, NATICK, MA, 01760"
2024/04/07 22:54:00,"197 WEST CENTRAL ST","MOTOR VEHICLE STOP Citation/ Warning Issued","MOTOR VEHICLE STOP",42.282015,-71.389705,"197 W CENTRAL ST, NATICK, MA, 01760"
2024/04/08 04:56:00,"[NAT 68] MCDONALDS, RT 9 EASTBOUND - 290 WORCESTER ST","HAZARD P - Services Rendered","HAZARD",42.301963,-71.340499,"290 WORCESTER ST, NATICK, MA, 01760"
2024/04/08 08:30:00,"[NAT 3836] STARBUCKS - 333 WORCESTER ST","HAZARD P - Services Rendered","HAZARD",42.314475,-71.257305,"333 WORCESTER ST, WELLESLEY HILLS, MA, 02481"
2024/04/08 09:22:00,"2 VILLAGE HILL LN Apt. #9","FOUND/ LOST PROPERTY Log Entry","FOUND/ LOST PROPERTY",42.277677,-71.393793,"2 VILLAGE HILL LN, NATICK, MA, 01760"
2024/04/08 09:27:00,"113 SPEEN ST ","MOTOR VEHICLE CRASH Report to be filed","MOTOR VEHICLE CRASH",42.279339,-71.376253,"113 SPEEN ST, NATICK, MA, 01760"
2024/04/08 09:32:00,"[NAT 3590] TILES PLUS MORE - 309 WORCESTER ST","MOTOR VEHICLE STOP Citation/ Warning Issued","MOTOR VEHICLE STOP",42.314519,-71.256927,"309 WORCESTER ST, WELLESLEY HILLS, MA, 02481"
2024/04/08 09:39:00,"16 VERNON RD","LARCENY / FORGERY/ FRAUD Report to be filed","LARCENY / FORGERY/ FRAUD",42.289444,-71.387865,"16 VERNON RD, NATICK, MA, 01760"
2024/04/08 09:56:00,"[NAT 4049] ROCHE BOBOIS - 395 WORCESTER ST","MOTOR VEHICLE STOP Citation/ Warning Issued","MOTOR VEHICLE STOP",42.314564,-71.269575,"395 WORCESTER ST, WELLESLEY HILLS, MA, 02481"
2024/04/08 10:18:00,"[NAT 4092] NEWTON DISTRIBUTING - 245 WEST CENTRAL ST","MOTOR VEHICLE STOP Citation/ Warning Issued","MOTOR VEHICLE STOP",42.281973,-71.390508,"245 W CENTRAL ST, NATICK, MA, 01760"
2024/04/08 10:31:00,"[NAT 1198] COCHITUATE STATE PARK - 11 COMMONWEALTH WEST RD","SUSPICIOUS ACTIVITY P - Services Rendered","SUSPICIOUS ACTIVITY",42.308737,-71.381834,"11 COMMONWEALTH RD, NATICK, MA, 01760"
2024/04/08 11:01:00,"[NAT 4025] TOTAL WINE AND MORE - 321 SPEEN ST","REMOVE UNWANTED PERSON(S) P - Services Rendered","REMOVE UNWANTED PERSON(S)",42.301013,-71.379943,"321 SPEEN ST, NATICK, MA, 01760"
2024/04/08 11:39:00,"76 MARION ST ","DISABLED M/V Vehicle Towed","DISABLED M/V",42.291557,-71.337800,"76 MARION ST, NATICK, MA, 01760"
2024/04/08 13:42:00,"[NAT 3925] NIC AND ZOE - 323 SPEEN ST Apt. #ST","SUSPICIOUS ACTIVITY Unfounded","SUSPICIOUS ACTIVITY",42.301016,-71.379945,"323 SPEEN ST, NATICK, MA, 01760"
2024/04/08 14:09:00,"8 ROLLING LN","LARCENY / FORGERY/ FRAUD Report to be filed","LARCENY / FORGERY/ FRAUD",42.294452,-71.322640,"8 ROLLING LN, NATICK, MA, 01760"
2024/04/08 14:11:00,"517 WORCESTER ST ","MOTOR VEHICLE STOP Citation/ Warning Issued","MOTOR VEHICLE STOP",42.310568,-71.280848,"517 WORCESTER ST, WELLESLEY HILLS, MA, 02481"
2024/04/08 14:25:00,"[WEL] 800 WORCESTER ST","MOTOR VEHICLE STOP Citation/ Warning Issued","MOTOR VEHICLE STOP",42.300275,-71.356272,"800 WORCESTER ST, NATICK, MA, 01760"
2024/04/08 14:57:00,"1350 WORCESTER ST ","MOTOR VEHICLE CRASH Report to be filed","MOTOR VEHICLE CRASH",42.298915,-71.387330,"1350 WORCESTER ST, NATICK, MA, 01760"
2024/04/08 15:09:00,"[NAT 3577] 59 ELIOT HILL RD - 59 ELIOT HILL RD","DISTURBANCE Report to be filed","DISTURBANCE",42.259929,-71.337413,"59 ELIOT HILL RD, NATICK, MA, 01760"
2024/04/08 15:28:00,"SALLY BEAUTY - 1298 WORCESTER ST","ALARM, BURGLAR P - ALARM SET OFF IN ERROR","ALARM",42.298923,-71.387223,"1298 WORCESTER ST, NATICK, MA, 01760"
2024/04/08 20:40:00,"59 ELIOT HILL RD","DISTURBANCE P - Services Rendered","DISTURBANCE",42.259929,-71.337413,"59 ELIOT HILL RD, NATICK, MA, 01760"
2024/04/08 22:01:00,"17 WALDEN DR","SUSPICIOUS ACTIVITY Unfounded","SUSPICIOUS ACTIVITY",42.276787,-71.387309,"17 WALDEN DR, NATICK, MA, 01760"
2024/04/09 02:54:00,"[NAT 986] ENTERPRISE RENT A CAR - 2 WETHERSFIELD RD","ALARM, BURGLAR P - Services Rendered","ALARM",42.302191,-71.352426,"2 WETHERSFIELD RD, NATICK, MA, 01760"
2024/04/09 03:09:00,"[NAT 135] BRIGHAM GILL MOTORCARS INC - 817 WORCESTER ST","SUSPICIOUS ACTIVITY P - Services Rendered","SUSPICIOUS ACTIVITY",42.305644,-71.310768,"817 WORCESTER ST, WELLESLEY HILLS, MA, 02481"
2024/04/09 07:08:00,"[NAT 4155] 1 HOME AVE ","F - MVA with Injury F - Transport-Hospital","MOTOR VEHICLE CRASH",42.282115,-71.386525,"1 HOME AVE, NATICK, MA, 01760"
2024/04/09 08:04:00,"82 MIDDLESEX AVE","F - Well Being Check P - Services Rendered","Well Being Check",42.284488,-71.351942,"82 MIDDLESEX AVE, NATICK, MA, 01760"
2024/04/09 08:13:00,"[NAT 1147] AUTO ZONE - 120 WORCESTER ST","MOTOR VEHICLE CRASH P - Services Rendered","MOTOR VEHICLE CRASH",42.303663,-71.331179,"120 WORCESTER ST, NATICK, MA, 01760"
2024/04/09 08:15:00,"[FRA] 600 CONCORD ST","ESCORT/ TRANSPORT P - Services Rendered","ESCORT/",42.292559,-71.409285,"600 CONCORD ST, FRAMINGHAM, MA, 01702"
2024/04/09 08:16:00,"[NAT 1705] NATICK POLICE DEPARTMENT - 20 EAST CENTRAL ST","ONLINE INCIDENT REPORT Report to be filed","ONLINE INCIDENT REPORT",42.284248,-71.345123,"20 E CENTRAL ST, NATICK, MA, 01760"
2024/04/09 09:05:00,"[NAT 3879] BERNARDI AUDI - 549 WORCESTER ST","MOTOR VEHICLE STOP Citation/ Warning Issued","MOTOR VEHICLE STOP",42.309143,-71.284371,"549 WORCESTER ST, WELLESLEY HILLS, MA, 02481"
2024/04/09 10:12:00,"9 FOLEY DR","ALARM, BURGLAR P - ALARM SET OFF IN ERROR","ALARM",42.295209,-71.364959,"9 FOLEY DR, NATICK, MA, 01760"
2024/04/09 11:14:00,"24 WESTLAKE RD","HAZARD P - Services Rendered","HAZARD",42.310081,-71.354584,"24 WESTLAKE RD, NATICK, MA, 01760"
2024/04/09 11:17:00,"[NAT 4049] ROCHE BOBOIS - 395 WORCESTER ST","MOTOR VEHICLE STOP Citation/ Warning Issued","MOTOR VEHICLE STOP",42.314564,-71.269575,"395 WORCESTER ST, WELLESLEY HILLS, MA, 02481"
2024/04/09 11:21:00,"[NAT 941] VALVOLINE INSTANT OIL CHANGE - 891 WORCESTER ST","DISABLED M/V P - Services Rendered","DISABLED M/V",42.305265,-71.315556,"891 WORCESTER ST, WELLESLEY, MA, 02482"
2024/04/09 11:35:00,"[NAT 941] VALVOLINE INSTANT OIL CHANGE - 891 WORCESTER ST","DISABLED M/V P - Services Rendered","DISABLED M/V",42.305265,-71.315556,"891 WORCESTER ST, WELLESLEY, MA, 02482"
2024/04/09 11:36:00,"300 WEST CENTRAL ST","MOTOR VEHICLE STOP P - Services Rendered","MOTOR VEHICLE STOP",42.281111,-71.396746,"300 W CENTRAL ST, NATICK, MA, 01760"
2024/04/09 11:43:00,"[NAT 1001] JEHOVAH'S WITNESS ASSEMBLY HALL - 85 BACON ST","SUSPICIOUS ACTIVITY P - Services Rendered","SUSPICIOUS ACTIVITY",42.293442,-71.334151,"85 BACON ST, NATICK, MA, 01760"
2024/04/09 11:55:00,"[NAT 2440] BEN AND JERRYS - 1265 WORCESTER ST","SUSPICIOUS ACTIVITY P - Services Rendered","SUSPICIOUS ACTIVITY",42.299514,-71.378211,"1265 WORCESTER ST, NATICK, MA, 01760"
2024/04/09 12:11:00,"[NAT 1202] MAHAN FIELD - 1 WEST ST","Animals (Other) Log Entry","ANIMALS",42.277584,-71.357376,"1 WEST ST, NATICK, MA, 01760"
2024/04/09 12:15:00,"14 SUNSHINE AVE","VANDALISM Report to be filed","VANDALISM",42.310252,-71.332773,"14 SUNSHINE AVE, NATICK, MA, 01760"
2024/04/09 12:59:00,"[NAT 4164] DUNKIN DONUTS - 223 NORTH MAIN ST","MISSING/LOST CHILD P - Services Rendered","MISSING/LOST CHILD",42.303119,-71.361275,"223 N MAIN ST, NATICK, MA, 01760"
2024/04/09 13:23:00,"17 OAK ST","Animals (Other) Log Entry","ANIMALS",42.324472,-71.344612,"17 OAK ST, WAYLAND, MA, 01778"
2024/04/09 13:26:00,"[NAT 3] RAMP FROM RT9 WEST TO SPEEN ST NORTH - RAMP - RT9 WB TO SPEEN ST","MOTOR VEHICLE STOP Citation/ Warning Issued","MOTOR VEHICLE STOP",42.270720,-71.381262,"9 SPEEN ST, NATICK, MA, 01760"
2024/04/09 14:28:00,"11 MORGAN DR Apt. #106","LARCENY / FORGERY/ FRAUD Report to be filed","LARCENY / FORGERY/ FRAUD",42.264846,-71.354815,"11 MORGAN DR, NATICK, MA, 01760"
2024/04/09 15:35:00,"56 FELCH RD","Animals (Other) Gone On Arrival","ANIMALS",42.313428,-71.352971,"56 FELCH RD, NATICK, MA, 01760"
2024/04/09 16:00:00,"8 BRADFORD RD","Animals (Other) P - Services Rendered","ANIMALS",42.308454,-71.351394,"8 BRADFORD RD, NATICK, MA, 01760"
2024/04/09 16:43:00,"10 NEW HAMPSHIRE AVE","F - Well Being Check F - Services Provided","Well Being Check",42.302551,-71.335073,"10 NEW HAMPSHIRE AVE, NATICK, MA, 01760"
2024/04/09 18:09:00,"8 OXFORD ST ","HAZARD P - Services Rendered","HAZARD",42.307046,-71.331619,"8 OXFORD ST, NATICK, MA, 01760"
2024/04/09 18:57:00,"[NAT 324] DION'S PACKAGE STORE INC - 4 SOUTH AVE","SUSPICIOUS ACTIVITY P - Services Rendered","SUSPICIOUS ACTIVITY",42.285316,-71.347479,"4 SOUTH AVE, NATICK, MA, 01760"
2024/04/09 19:01:00,"[NAT 1986] SUNGLASS HUT - 1245 WORCESTER ST Apt. #2024","SHOPLIFTING Unfounded","SHOPLIFTING",42.299500,-71.377749,"1245 WORCESTER ST, NATICK, MA, 01760"
2024/04/09 19:35:00,"[NAT 3019] MACY'S - 1247 WORCESTER ST","LOCKOUT (VEHICLE) P - Services Rendered","LOCKOUT",42.299501,-71.377795,"1247 WORCESTER ST, NATICK, MA, 01760"
2024/04/09 21:24:00,"23 WOODBINE RD Apt. #2","LARCENY / FORGERY/ FRAUD Report to be filed","LARCENY / FORGERY/ FRAUD",42.277849,-71.389301,"23 WOODBINE RD, NATICK, MA, 01760"
2024/04/09 21:29:00,"[NAT 1705] NATICK POLICE DEPARTMENT - 20 EAST CENTRAL ST","SUSPICIOUS ACTIVITY P - Services Rendered","SUSPICIOUS ACTIVITY",42.284248,-71.345123,"20 E CENTRAL ST, NATICK, MA, 01760"
2024/04/09 21:55:00,"47 SPEEN ST","NOISE COMPLAINT P - Services Rendered","NOISE COMPLAINT",42.274560,-71.378371,"47 SPEEN ST, NATICK, MA, 01760"
2024/04/09 22:04:00,"[NAT 3404] AVALON NATICK APARTMENTS - 1 CHRYSLER RD Apt. #513","MISSING/LOST CHILD Report to be filed","MISSING/LOST CHILD",42.305133,-71.382036,"1 CHRYSLER RD, NATICK, MA, 01760"
2024/04/09 22:08:00,"12 EDWARDS RD","F - Well Being Check F - Services Provided","Well Being Check",42.285035,-71.375698,"12 EDWARDS RD, NATICK, MA, 01760"
2024/04/10 01:57:00,"7 VILLAGE HILL LN Apt. #4","MOTOR VEHICLE TOW Vehicle Towed","MOTOR VEHICLE TOW",42.276846,-71.394810,"7 VILLAGE HILL LN, NATICK, MA, 01760"
2024/04/10 05:03:00,"IMMERSIVE GAMEBOX - 1245 WORCESTER ST Apt. #1010","ALARM, BURGLAR P - ALARM BLDG Chk Secure","ALARM",42.299500,-71.377749,"1245 WORCESTER ST, NATICK, MA, 01760"
2024/04/10 08:28:00,"[NAT 872] ELIOT CENTER FOR HEALTH AND REHABILTATION - 168 WEST CENTRAL ST","ASSAULT Report to be filed","ASSAULT",42.282466,-71.379303,"168 W CENTRAL ST, NATICK, MA, 01760"
2024/04/10 08:32:00,"158 WALNUT ST","SERVE SUMMONS SERVED IN-HAND","SERVE SUMMONS",42.300699,-71.346030,"158 WALNUT ST, NATICK, MA, 01760"
2024/04/10 09:13:00,"[NAT 301] NATICK VILLAGE - CONDO OFFICE - 18 VILLAGE WAY","DISTURBANCE P - Services Rendered","DISTURBANCE",42.280298,-71.390150,"18 VILLAGE WAY, NATICK, MA, 01760"
2024/04/10 09:43:00,"[NAT 3] RAMP FROM RT9 WEST TO SPEEN ST NORTH - RAMP - RT9 WB TO SPEEN ST","MOTOR VEHICLE STOP Arrest(s) Made","MOTOR VEHICLE STOP",42.270720,-71.381262,"9 SPEEN ST, NATICK, MA, 01760"
2024/04/10 09:51:00,"17 OAK ST","Animals (Other) Citation/ Warning Issued","ANIMALS",42.324472,-71.344612,"17 OAK ST, WAYLAND, MA, 01778"
2024/04/10 10:19:00,"150 WEST CENTRAL ST ","DISABLED M/V P - Services Rendered","DISABLED M/V",42.282483,-71.378214,"150 W CENTRAL ST, NATICK, MA, 01760"
2024/04/10 10:21:00,"[NAT 1570] 3 ANDREW CIR - 3 ANDREW CIR","Animals (Other) Log Entry","ANIMALS",42.321906,-71.330658,"3 ANDREW CIR, NATICK, MA, 01760"
2024/04/10 10:41:00,"211 OAK ST ","F - MVA with Injury Report to be filed","MOTOR VEHICLE CRASH",42.314729,-71.339538,"211 OAK ST, NATICK, MA, 01760"
2024/04/10 11:08:00,"12 SOUTH MAIN ST","Animals (Other) Log Entry","ANIMALS",42.282605,-71.347176,"12 S MAIN ST, NATICK, MA, 01760"
2024/04/10 11:24:00,"[FRA] 600 CONCORD ST","ESCORT/ TRANSPORT P - Services Rendered","ESCORT/",42.292559,-71.409285,"600 CONCORD ST, FRAMINGHAM, MA, 01702"
2024/04/10 11:35:00,"[NAT 872] ELIOT CENTER FOR HEALTH AND REHABILTATION - 168 WEST CENTRAL ST","MOTOR VEHICLE STOP Citation/ Warning Issued","MOTOR VEHICLE STOP",42.282466,-71.379303,"168 W CENTRAL ST, NATICK, MA, 01760"
2024/04/10 11:36:00,"188 MILL ST","MOTOR VEHICLE STOP Citation/ Warning Issued","MOTOR VEHICLE STOP",42.290873,-71.387927,"188 MILL ST, NATICK, MA, 01760"
2024/04/10 12:14:00,"146 MILL ST","MOTOR VEHICLE STOP Citation/ Warning Issued","MOTOR VEHICLE STOP",42.287498,-71.382884,"146 MILL ST, NATICK, MA, 01760"
2024/04/10 12:34:00,"[NAT 3779] FIVE GUYS - 821 WORCESTER ST","SUSPICIOUS ACTIVITY Unfounded","SUSPICIOUS ACTIVITY",42.305638,-71.310854,"821 WORCESTER ST, WELLESLEY HILLS, MA, 02481"
2024/04/10 12:56:00,"[NAT 4367] FIDO DOG PARK - 109 WEST CENTRAL ST","Animals (Other) Log Entry","ANIMALS",42.283576,-71.366282,"109 W CENTRAL ST, NATICK, MA, 01760"
2024/04/10 13:32:00,"[NAT 1202] MAHAN FIELD - 1 WEST ST","Animals (Other) Log Entry","ANIMALS",42.277584,-71.357376,"1 WEST ST, NATICK, MA, 01760"
2024/04/10 14:03:00,"43 POND ST","DISTURBANCE P - Services Rendered","DISTURBANCE",42.282191,-71.350813,"43 POND ST, NATICK, MA, 01760"
2024/04/10 14:39:00,"[NAT 872] ELIOT CENTER FOR HEALTH AND REHABILTATION - 168 WEST CENTRAL ST","MOTOR VEHICLE STOP Citation/ Warning Issued","MOTOR VEHICLE STOP",42.282466,-71.379303,"168 W CENTRAL ST, NATICK, MA, 01760"
2024/04/10 14:42:00,"[NAT 941] VALVOLINE INSTANT OIL CHANGE - 891 WORCESTER ST","MOTOR VEHICLE STOP Citation/ Warning Issued","MOTOR VEHICLE STOP",42.305265,-71.315556,"891 WORCESTER ST, WELLESLEY, MA, 02482"
2024/04/10 15:10:00,"148 HARTFORD ST ","DISABLED M/V P - Services Rendered","DISABLED M/V",42.290672,-71.392931,"148 HARTFORD ST, NATICK, MA, 01760"
2024/04/10 15:46:00,"131 POND ST","MOTOR VEHICLE STOP Citation/ Warning Issued","MOTOR VEHICLE STOP",42.279966,-71.360055,"131 POND ST, NATICK, MA, 01760"
2024/04/10 16:44:00,"52 NORTH MAIN ST","FOUND/ LOST PROPERTY Log Entry","FOUND/ LOST PROPERTY",42.288544,-71.350505,"52 N MAIN ST, NATICK, MA, 01760"
2024/04/10 16:48:00,"3 FRANKLIN ST Apt. #3","COMPLAINT Report to be filed","COMPLAINT",42.286332,-71.345568,"3 FRANKLIN ST, NATICK, MA, 01760"
2024/04/10 17:17:00,"5 PINE ST","911 HANG UP P - Services Rendered","911 HANG UP",42.314252,-71.359736,"5 PINE ST, NATICK, MA, 01760"
2024/04/10 17:58:00,"[NAT 3019] MACY'S - 1247 WORCESTER ST","SHOPLIFTING Arrest(s) Made","SHOPLIFTING",42.299501,-71.377795,"1247 WORCESTER ST, NATICK, MA, 01760"
2024/04/10 18:21:00,"12 PLAIN ST Apt. #3","F - Well Being Check F - Services Provided","Well Being Check",42.281791,-71.348543,"12 PLAIN ST, NATICK, MA, 01760"
2024/04/10 18:56:00,"1 CABOT ST","F - Well Being Check P - Services Rendered","Well Being Check",42.322783,-71.329441,"1 CABOT ST, NATICK, MA, 01760"
2024/04/10 19:41:00,"[NAT 3793] DOVER RUG - 721 WORCESTER ST","MOTOR VEHICLE STOP Citation/ Warning Issued","MOTOR VEHICLE STOP",42.306036,-71.299174,"721 WORCESTER ST, WELLESLEY HILLS, MA, 02481"
2024/04/10 21:37:00,"[NAT 3675] ZITI'S OF NATICK - 218 SPEEN ST","SUSPICIOUS ACTIVITY Gone On Arrival","SUSPICIOUS ACTIVITY",42.293450,-71.376790,"218 SPEEN ST, NATICK, MA, 01760"
2024/04/11 04:26:00,"84 CEDAR AVE","NOISE COMPLAINT P - Services Rendered","NOISE COMPLAINT",42.273956,-71.355868,"84 CEDAR AVE, NATICK, MA, 01760"
2024/04/11 06:04:00,"[NAT 2872] MEDICAL ASSOCIATES OF GREATER BOSTON - 307 WEST CENTRAL ST","ALARM, BURGLAR P - ALARM SET OFF IN ERROR","ALARM",42.281770,-71.393648,"307 W CENTRAL ST, NATICK, MA, 01760"
2024/04/11 06:09:00,"[NAT 351] BAKERY ON THE COMMON - 9 SOUTH MAIN ST","VANDALISM P - Services Rendered","VANDALISM",42.283524,-71.347330,"9 S MAIN ST, NATICK, MA, 01760"
2024/04/11 07:56:00,"14 BIRCH RD","LARCENY / FORGERY/ FRAUD Report to be filed","LARCENY / FORGERY/ FRAUD",42.307957,-71.364027,"14 BIRCH RD, NATICK, MA, 01760"
2024/04/11 08:21:00,"[FRA] NATICK DISTRICT COURT - 600 CONCORD ST","ESCORT/ TRANSPORT P - Services Rendered","ESCORT/",42.292559,-71.409285,"600 CONCORD ST, FRAMINGHAM, MA, 01702"
2024/04/11 09:49:00,"2 CRESCENT ST ","Animals (Other) Gone On Arrival","ANIMALS",42.288314,-71.375236,"2 CRESCENT ST, NATICK, MA, 01760"
2024/04/11 09:54:00,"[NAT 3314] J.J. LANE PARK - 185 SPEEN ST","Animals (Other) Log Entry","ANIMALS",42.282216,-71.375839,"185 SPEEN ST, NATICK, MA, 01760"
2024/04/11 10:26:00,"23 COTTAGE ST","M/ V CRASH/ Hit & Run Report to be filed","MOTOR VEHICLE CRASH",42.278290,-71.346894,"23 COTTAGE ST, NATICK, MA, 01760"
2024/04/11 11:24:00,"[NAT 1511] MONTICELLO MOTEL - 1446 WORCESTER ST","ASSIST OTHER AGENCY Unable to Locate","ASSIST OTHER AGENCY",42.298763,-71.391695,"1446 WORCESTER ST, NATICK, MA, 01760"
2024/04/11 12:06:00,"[NAT 3778] SUNKAWAY U-TURN - 290 WORCESTER ST","DISABLED M/V Vehicle Towed","DISABLED M/V",42.301963,-71.340499,"290 WORCESTER ST, NATICK, MA, 01760"
2024/04/11 13:23:00,"251 BACON ST ","DISABLED M/V SUMMONS REQUEST","DISABLED M/V",42.297279,-71.356684,"251 BACON ST, NATICK, MA, 01760"
2024/04/11 13:30:00,"[NAT 2411] NATICK MALL (SOUTH PARKING LOT) - 1245 WORCESTER ST","MOTOR VEHICLE CRASH P - Services Rendered","MOTOR VEHICLE CRASH",42.299500,-71.377749,"1245 WORCESTER ST, NATICK, MA, 01760"
2024/04/11 13:48:00,"[NAT 4206] MASS GENERAL BRIGHAM URGENT CARE - 219 NORTH MAIN ST","F - MVA with Injury SUMMONS REQUEST","MOTOR VEHICLE CRASH",42.303076,-71.361265,"219 N MAIN ST, NATICK, MA, 01760"
2024/04/11 14:01:00,"[NAT 3616] AVALON NATICK - CLUBHOUSE - 3 CHRYSLER RD","MOTOR VEHICLE TOW Vehicle Towed","MOTOR VEHICLE TOW",42.305152,-71.381969,"3 CHRYSLER RD, NATICK, MA, 01760"
2024/04/11 15:28:00,"8 FELCH CT","SUSPICIOUS ACTIVITY Unfounded","SUSPICIOUS ACTIVITY",42.310836,-71.359502,"8 FELCH RD, NATICK, MA, 01760"
2024/04/11 16:59:00,"27 VILLAGE ROCK LN Apt. #18","F - Well Being Check F - Transport-Hospital","Well Being Check",42.278434,-71.394782,"27 VILLAGE ROCK LN, NATICK, MA, 01760"
2024/04/11 19:12:00,"[NAT 3287] NORDSTROM - 290 SPEEN ST","SHOPLIFTING Report to be filed","SHOPLIFTING",42.299269,-71.379049,"290 SPEEN ST, NATICK, MA, 01760"
2024/04/11 20:58:00,"175 OAK ST ","Animals (Other) P - Services Rendered","ANIMALS",42.311705,-71.334892,"175 OAK ST, NATICK, MA, 01760"
2024/04/12 06:54:00,"1 GRIST MILL LN ","911 HANG UP P - Services Rendered","911 HANG UP",42.259414,-71.331539,"1 GRIST MILL LN, NATICK, MA, 01760"
2024/04/12 07:09:00,"[NAT 2440] BEN AND JERRYS - 1265 WORCESTER ST","ALARM, BURGLAR P - ALARM BLDG Chk Secure","ALARM",42.299514,-71.378211,"1265 WORCESTER ST, NATICK, MA, 01760"
2024/04/12 08:31:00,"[NAT 4011] DUNKIN DONUTS - 119 WEST CENTRAL ST Apt. #1-A","REMOVE UNWANTED PERSON(S) Removed Hazard","REMOVE UNWANTED PERSON(S)",42.283715,-71.368930,"119 W CENTRAL ST, NATICK, MA, 01760"
2024/04/12 09:47:00,"[NAT 855] THRIVE PET HEALTH CARE - 121 WEST CENTRAL ST","Animals (Other) Log Entry","ANIMALS",42.283651,-71.369312,"121 W CENTRAL ST, NATICK, MA, 01760"
2024/04/12 10:11:00,"17 WALDEN DR Apt. #2","DISTURBANCE P - Services Rendered","DISTURBANCE",42.276787,-71.387309,"17 WALDEN DR, NATICK, MA, 01760"
2024/04/12 10:40:00,"3 TECH CIR ","Animals (Other) Gone On Arrival","ANIMALS",42.313357,-71.337890,"3 TECH CIR, NATICK, MA, 01760"
2024/04/12 10:47:00,"154 OAK ST ","Animals (Other) P - Services Rendered","ANIMALS",42.310616,-71.334002,"154 OAK ST, NATICK, MA, 01760"
2024/04/12 11:24:00,"[NAT 3728] PLANET FITNESS - 215 WEST CENTRAL ST","MOTOR VEHICLE STOP Citation/ Warning Issued","MOTOR VEHICLE STOP",42.281997,-71.390006,"215 W CENTRAL ST, NATICK, MA, 01760"
2024/04/12 11:36:00,"251 WEST CENTRAL ST ","MOTOR VEHICLE STOP Citation/ Warning Issued","MOTOR VEHICLE STOP",42.281827,-71.392458,"251 W CENTRAL ST, NATICK, MA, 01760"
2024/04/12 11:37:00,"[NAT 920] NATICK MALL (MALL I) - 1245 WORCESTER ST","MOTOR VEHICLE STOP Citation/ Warning Issued","MOTOR VEHICLE STOP",42.299500,-71.377749,"1245 WORCESTER ST, NATICK, MA, 01760"
2024/04/12 12:21:00,"[NAT 1063] METROWEST MEDICAL CENTER - LEONARD MORSE HOSP - 67 UNION ST","LARCENY / FORGERY/ FRAUD Arrest(s) Made","LARCENY / FORGERY/ FRAUD",42.280369,-71.332476,"67 UNION ST, NATICK, MA, 01760"
2024/04/12 12:44:00,"10 CLEARVIEW DR","ALARM, BURGLAR P - ALARM WEATH/PWR Rel","ALARM",42.274055,-71.337381,"10 CLEARVIEW DR, NATICK, MA, 01760"
2024/04/12 13:43:00,"[NAT 3162] ST PATRICK'S SCHOOL - 45 EAST CENTRAL ST","SUSPICIOUS ACTIVITY Unable to Locate","SUSPICIOUS ACTIVITY",42.284327,-71.344056,"45 E CENTRAL ST, NATICK, MA, 01760"
2024/04/12 13:45:00,"164 WEST CENTRAL ST","MOTOR VEHICLE STOP SUMMONS REQUEST","MOTOR VEHICLE STOP",42.282470,-71.379061,"164 W CENTRAL ST, NATICK, MA, 01760"
2024/04/12 13:49:00,"3 TECH CIR ","PARKING COMPLAINT P - Services Rendered","PARKING COMPLAINT",42.313357,-71.337890,"3 TECH CIR, NATICK, MA, 01760"
2024/04/12 14:34:00,"[NAT 3671] SPEEDWAY (RT 9 EAST) - 230 WORCESTER ST","LOCKOUT (VEHICLE) P - Services Rendered","LOCKOUT",42.302531,-71.335773,"230 WORCESTER ST, NATICK, MA, 01760"
2024/04/12 14:37:00,"18 PLAIN ST","F - Well Being Check F - Transport-Hospital","Well Being Check",42.281369,-71.348501,"18 PLAIN ST, NATICK, MA, 01760"
2024/04/12 15:18:00,"1 AUTUMN LN ","SUSPICIOUS ACTIVITY P - Services Rendered","SUSPICIOUS ACTIVITY",42.275932,-71.382928,"1 AUTUMN LN, NATICK, MA, 01760"
2024/04/12 16:47:00,"[NAT 1398] TOWN HALL - 13 EAST CENTRAL ST","SUSPICIOUS ACTIVITY P - Services Rendered","SUSPICIOUS ACTIVITY",42.284080,-71.345351,"13 E CENTRAL ST, NATICK, MA, 01760"
2024/04/12 16:50:00,"8 PERRY RD","REMOVE UNWANTED PERSON(S) Report to be filed","REMOVE UNWANTED PERSON(S)",42.304623,-71.361785,"8 PERRY RD, NATICK, MA, 01760"
2024/04/12 17:12:00,"[NAT 2932] LZ-5 NATICK (MACY'S LOT) - 1239 WORCESTER ST","REMOVE UNWANTED PERSON(S) P - Services Rendered","REMOVE UNWANTED PERSON(S)",42.299496,-71.377611,"1239 WORCESTER ST, NATICK, MA, 01760"
2024/04/12 17:25:00,"10 REDMEN DR","ALARM, BURGLAR P - ALARM BLDG Chk Secure","ALARM",42.269436,-71.359898,"10 REDMEN DR, NATICK, MA, 01760"
2024/04/12 17:28:00,"[NAT 872] ELIOT CENTER FOR HEALTH AND REHABILTATION - 168 WEST CENTRAL ST","SUSPICIOUS ACTIVITY Log Entry","SUSPICIOUS ACTIVITY",42.282466,-71.379303,"168 W CENTRAL ST, NATICK, MA, 01760"
2024/04/12 18:52:00,"31 WEST CENTRAL ST","DISTURBANCE P - Services Rendered","DISTURBANCE",42.283528,-71.349838,"31 W CENTRAL ST, NATICK, MA, 01760"
2024/04/12 20:26:00,"[NAT 4130] KOHR GOLF - 218 SPEEN ST","ALARM, BURGLAR P - ALARM SET OFF IN ERROR","ALARM",42.293450,-71.376790,"218 SPEEN ST, NATICK, MA, 01760"
2024/04/12 21:00:00,"42 BEACON ST","LARCENY / FORGERY/ FRAUD Report to be filed","LARCENY / FORGERY/ FRAUD",42.295175,-71.352865,"42 BEACON ST, NATICK, MA, 01760"
2024/04/12 21:16:00,"191 HARTFORD ST ","MOTOR VEHICLE STOP Citation/ Warning Issued","MOTOR VEHICLE STOP",42.292528,-71.400355,"191 HARTFORD ST, NATICK, MA, 01760"
2024/04/12 21:27:00,"87 HARTFORD ST","MOTOR VEHICLE STOP Citation/ Warning Issued","MOTOR VEHICLE STOP",42.293475,-71.385249,"87 HARTFORD ST, NATICK, MA, 01760"
2024/04/12 21:47:00,"[NAT 1092] JOHNSON SCHOOL - 99 SOUTH MAIN ST","SUSPICIOUS ACTIVITY Gone On Arrival","SUSPICIOUS ACTIVITY",42.278201,-71.349598,"99 S MAIN ST, NATICK, MA, 01760"
2024/04/12 22:05:00,"[NAT 4367] FIDO DOG PARK - 109 WEST CENTRAL ST","MOTOR VEHICLE STOP Citation/ Warning Issued","MOTOR VEHICLE STOP",42.283576,-71.366282,"109 W CENTRAL ST, NATICK, MA, 01760"
2024/04/12 22:26:00,"[NAT 3793] DOVER RUG - 721 WORCESTER ST","MOTOR VEHICLE STOP Citation/ Warning Issued","MOTOR VEHICLE STOP",42.306036,-71.299174,"721 WORCESTER ST, WELLESLEY HILLS, MA, 02481"
2024/04/13 00:30:00,"[NAT 3718] STEENKAMP RESIDENCE - 185 BACON ST","REMOVE UNWANTED PERSON(S) P - Services Rendered","REMOVE UNWANTED PERSON(S)",42.293909,-71.348056,"185 BACON ST, NATICK, MA, 01760"
2024/04/13 01:46:00,"DRIS - 16 TECH CIR","ALARM, BURGLAR P - ALARM BLDG Chk Secure","ALARM",42.313778,-71.337926,"16 TECH CIR, NATICK, MA, 01760"
2024/04/13 10:45:00,"18 TERRACE RD","SUSPICIOUS ACTIVITY P - Services Rendered","SUSPICIOUS ACTIVITY",42.294112,-71.336379,"18 TERRACE RD, NATICK, MA, 01760"
2024/04/13 11:28:00,"7 HIGH ST","DISTURBANCE P - Services Rendered","DISTURBANCE",42.281963,-71.354756,"7 HIGH ST, NATICK, MA, 01760"
2024/04/13 11:30:00,"[NAT 1705] NATICK POLICE DEPARTMENT - 20 EAST CENTRAL ST","ESCORT/ TRANSPORT P - Services Rendered","ESCORT/",42.284248,-71.345123,"20 E CENTRAL ST, NATICK, MA, 01760"
2024/04/13 12:40:00,"[NAT 963] HAMPTON INN - 319 SPEEN ST","M/ V CRASH/ Hit & Run Report to be filed","MOTOR VEHICLE CRASH",42.301009,-71.379941,"319 SPEEN ST, NATICK, MA, 01760"
2024/04/13 12:51:00,"[NAT 3111] CLOVERLEAF APARTMENTS - 325 SPEEN ST Apt. #102","MISSING/LOST CHILD Merge: 24-6219 By: 41598","MISSING/LOST CHILD",42.301020,-71.379948,"325 SPEEN ST, NATICK, MA, 01760"
2024/04/13 12:54:00,"[NAT 3111] CLOVERLEAF APARTMENTS - 325 SPEEN ST Apt. #901","MISSING/LOST CHILD Report to be filed","MISSING/LOST CHILD",42.301020,-71.379948,"325 SPEEN ST, NATICK, MA, 01760"
2024/04/13 13:15:00,"[NAT 191] NINE EAST WINES - 6 WORCESTER ST","MOTOR VEHICLE CRASH P - Services Rendered","MOTOR VEHICLE CRASH",42.304198,-71.326998,"6 WORCESTER ST, NATICK, MA, 01760"
2024/04/13 14:21:00,"66 PARK AVE ","PARKING COMPLAINT P - Services Rendered","PARKING COMPLAINT",42.297194,-71.355905,"66 PARK AVE, NATICK, MA, 01760"
2024/04/13 15:04:00,"[NAT 4184] TACO BELL - 1235 WORCESTER ST Apt. #200","LARCENY / FORGERY/ FRAUD Report to be filed","LARCENY / FORGERY/ FRAUD",42.299493,-71.377519,"1235 WORCESTER ST, NATICK, MA, 01760"
2024/04/13 16:24:00,"313 SPEEN ST ","MOTOR VEHICLE CRASH P - Services Rendered","MOTOR VEHICLE CRASH",42.300998,-71.379934,"313 SPEEN ST, NATICK, MA, 01760"
2024/04/13 16:54:00,"[NAT 1986] SUNGLASS HUT - 1245 WORCESTER ST Apt. #2024","SHOPLIFTING P - Services Rendered","SHOPLIFTING",42.299500,-71.377749,"1245 WORCESTER ST, NATICK, MA, 01760"
2024/04/13 17:20:00,"517 WORCESTER ST ","ERRATIC OPERATOR Gone On Arrival","ERRATIC OPERATOR",42.310568,-71.280848,"517 WORCESTER ST, WELLESLEY HILLS, MA, 02481"
2024/04/13 19:22:00,"[NAT 1092] JOHNSON SCHOOL - 99 SOUTH MAIN ST","COMPLAINT P - Services Rendered","COMPLAINT",42.278201,-71.349598,"99 S MAIN ST, NATICK, MA, 01760"
2024/04/13 20:21:00,"[NAT 2157] COOLIDGE FIELD - 5 CHESTER ST","SUSPICIOUS ACTIVITY Gone On Arrival","SUSPICIOUS ACTIVITY",42.280438,-71.343831,"5 CHESTER ST, NATICK, MA, 01760"
2024/04/13 20:41:00,"196 POND ST ","MOTOR VEHICLE STOP Citation/ Warning Issued","MOTOR VEHICLE STOP",42.278073,-71.370972,"196 POND ST, NATICK, MA, 01760"
2024/04/13 21:11:00,"1350 WORCESTER ST ","MOTOR VEHICLE CRASH Report to be filed","MOTOR VEHICLE CRASH",42.298915,-71.387330,"1350 WORCESTER ST, NATICK, MA, 01760"
2024/04/13 21:40:00,"1 LAMPLIGHT CIR ","MOTOR VEHICLE STOP Citation/ Warning Issued","MOTOR VEHICLE STOP",42.292050,-71.398778,"1 LAMPLIGHT CIR, NATICK, MA, 01760"
2024/04/13 22:46:00,"[NAT 1519] ST MARKS COPTIC CHURCH - 145 OAK ST","DISTURBANCE P - Services Rendered","DISTURBANCE",42.310172,-71.333726,"145 OAK ST, NATICK, MA, 01760"
2024/04/13 23:01:00,"[NAT 2047] SPEEDWAY - 194 WEST CENTRAL ST","MOTOR VEHICLE STOP Citation/ Warning Issued","MOTOR VEHICLE STOP",42.282353,-71.382449,"194 W CENTRAL ST, NATICK, MA, 01760"
2024/04/14 00:23:00,"[NAT 1027] BRANDON SCHOOL - 27 WINTER ST","MISSING PERSON P - Services Rendered","MISSING PERSON",42.319975,-71.362971,"27 WINTER ST, WAYLAND, MA, 01778"
2024/04/14 05:18:00,"13 VILLAGE WAY Apt. #14","BURGLARY (B & E) Report to be filed","BURGLAR",42.280380,-71.390259,"13 VILLAGE WAY, NATICK, MA, 01760"
2024/04/14 06:07:00,"[NAT 4367] FIDO DOG PARK - 109 WEST CENTRAL ST","MOTOR VEHICLE STOP SUMMONS REQUEST","MOTOR VEHICLE STOP",42.283576,-71.366282,"109 W CENTRAL ST, NATICK, MA, 01760"
2024/04/14 08:47:00,"66 FOREST AVE EXT","SUSPICIOUS ACTIVITY P - Services Rendered","SUSPICIOUS ACTIVITY",42.276193,-71.354710,"66 FOREST AVE, NATICK, MA, 01760"
2024/04/14 09:44:00,"232 POND ST ","HAZARD P - Services Rendered","HAZARD",42.278107,-71.375000,"232 POND ST, NATICK, MA, 01760"
2024/04/14 10:41:00,"[NAT 4461] BOOT BARN - 321 SPEEN ST","M/ V CRASH/ PRIVATE PROPERTY P - Services Rendered","MOTOR VEHICLE CRASH",42.301013,-71.379943,"321 SPEEN ST, NATICK, MA, 01760"
2024/04/14 12:18:00,"64 PINE ST","LARCENY / FORGERY/ FRAUD P - Services Rendered","LARCENY / FORGERY/ FRAUD",42.314987,-71.352839,"64 PINE ST, NATICK, MA, 01760"
2024/04/14 14:11:00,"76 PARK AVE","SUSPICIOUS ACTIVITY Report to be filed","SUSPICIOUS ACTIVITY",42.298359,-71.355929,"76 PARK AVE, NATICK, MA, 01760"
2024/04/14 14:17:00,"[NAT 3671] SPEEDWAY (RT 9 EAST) - 230 WORCESTER ST","F - MVA Rollover or Entrapment F - Transport-Hospital","MOTOR VEHICLE CRASH",42.302531,-71.335773,"230 WORCESTER ST, NATICK, MA, 01760"
2024/04/14 14:31:00,"[NAT 3019] MACY'S - 1247 WORCESTER ST","SHOPLIFTING P - Services Rendered","SHOPLIFTING",42.299501,-71.377795,"1247 WORCESTER ST, NATICK, MA, 01760"
2024/04/14 14:40:00,"136 HOWE ST","ALARM, BURGLAR P - ALARM SET OFF IN ERROR","ALARM",42.287288,-71.400008,"136 HOWE ST, NATICK, MA, 01760"
2024/04/14 15:13:00,"16 WILSON ST","NOISE COMPLAINT P - Services Rendered","NOISE COMPLAINT",42.284237,-71.342828,"16 WILSON ST, NATICK, MA, 01760"
2024/04/14 16:47:00,"[NAT 2051] HOME DEPOT - 339 SPEEN ST","M/ V CRASH/ Hit & Run Report to be filed","MOTOR VEHICLE CRASH",42.301047,-71.379963,"339 SPEEN ST, NATICK, MA, 01760"
2024/04/14 17:05:00,"172 WEST CENTRAL ST ","F - MVA with Injury Report to be filed","MOTOR VEHICLE CRASH",42.282459,-71.379719,"172 W CENTRAL ST, NATICK, MA, 01760"
2024/04/14 17:05:00,"53 MILL ST ","F - MVA with Injury Merge: 24-6274 By: 48916","MOTOR VEHICLE CRASH",42.281924,-71.380243,"53 MILL ST, NATICK, MA, 01760"
2024/04/14 17:49:00,"[NAT 3019] MACY'S - 1247 WORCESTER ST","SHOPLIFTING Report to be filed","SHOPLIFTING",42.299501,-71.377795,"1247 WORCESTER ST, NATICK, MA, 01760"
2024/04/14 17:50:00,"57 BACON ST","COMPLAINT Gone On Arrival","COMPLAINT",42.293987,-71.329599,"57 BACON ST, NATICK, MA, 01760"
2024/04/14 18:03:00,"[NAT 4387] LUCID MOTORS - 1245 WORCESTER ST","ALARM, BURGLAR P - ALARM BLDG Chk Secure","ALARM",42.299500,-71.377749,"1245 WORCESTER ST, NATICK, MA, 01760"
2024/04/14 18:20:00,"[NAT 1504] SHERWOOD VILLAGE EAST - 143 MILL ST Apt. #109","LARCENY / FORGERY/ FRAUD Report to be filed","LARCENY / FORGERY/ FRAUD",42.287469,-71.382669,"143 MILL ST, NATICK, MA, 01760"
2024/04/14 18:27:00,"[NAT 3019] MACY'S - 1247 WORCESTER ST","FOUND/ LOST PROPERTY P - Services Rendered","FOUND/ LOST PROPERTY",42.299501,-71.377795,"1247 WORCESTER ST, NATICK, MA, 01760"
2024/04/14 18:30:00,"35 CENTRE ST","F - Well Being Check Unable to Locate","Well Being Check",42.305039,-71.346677,"35 CENTRE ST, NATICK, MA, 01760"
2024/04/14 18:50:00,"[NAT 869] ROCHE BROS SUPERMARKET - 150 WEST CENTRAL ST","DISTURBANCE P - Services Rendered","DISTURBANCE",42.282483,-71.378214,"150 W CENTRAL ST, NATICK, MA, 01760"
2024/04/14 22:26:00,"32 POND ST ","COMPLAINT Gone On Arrival","COMPLAINT",42.282669,-71.348968,"32 POND ST, NATICK, MA, 01760"
2024/04/14 22:55:00,"92 WEST CENTRAL ST","DISTURBANCE P - Services Rendered","DISTURBANCE",42.282226,-71.358774,"92 W CENTRAL ST, NATICK, MA, 01760"
2024/04/15 02:28:00,"4 CHURCH ST","COMPLAINT P - Services Rendered","COMPLAINT",42.283707,-71.345480,"4 CHURCH ST, NATICK, MA, 01760"
2024/04/15 05:55:00,"[NAT 1476] MBTA WEST NATICK STATION - 251 WEST CENTRAL ST","COMPLAINT Taken/Refer Other Agency","COMPLAINT",42.281827,-71.392458,"251 W CENTRAL ST, NATICK, MA, 01760"
2024/04/15 06:38:00,"113 BACON ST ","MOTOR VEHICLE CRASH Report to be filed","MOTOR VEHICLE CRASH",42.293064,-71.337295,"113 BACON ST, NATICK, MA, 01760"
2024/04/15 07:30:00,"58 SUMMER ST ","MOTOR VEHICLE TOW Vehicle Towed","MOTOR VEHICLE TOW",42.284174,-71.350076,"58 SUMMER ST, NATICK, MA, 01760"
2024/04/15 08:39:00,"[NAT 726] NEIGHBORHOOD WRENCH - 67 EAST CENTRAL ST","PARKING COMPLAINT Log Entry","PARKING COMPLAINT",42.284837,-71.341462,"67 E CENTRAL ST, NATICK, MA, 01760"
2024/04/15 09:20:00,"28 VILLAGE BROOK LN","LOCKOUT (VEHICLE) P - Services Rendered","LOCKOUT",42.277350,-71.392477,"28 VILLAGE BROOK LN, NATICK, MA, 01760"
2024/04/15 10:38:00,"13 MARK ST","LARCENY / FORGERY/ FRAUD Report to be filed","LARCENY / FORGERY/ FRAUD",42.313864,-71.350188,"13 MARK ST, NATICK, MA, 01760"
2024/04/15 10:39:00,"35 WALNUT ST","PARKING COMPLAINT P - Services Rendered","PARKING COMPLAINT",42.287909,-71.347858,"35 WALNUT ST, NATICK, MA, 01760"
2024/04/15 11:06:00,"86 WEST CENTRAL ST","DISTURBANCE P - Services Rendered","DISTURBANCE",42.282332,-71.357877,"86 W CENTRAL ST, NATICK, MA, 01760"
2024/04/15 11:41:00,"73 MILL ST ","LOCKOUT (VEHICLE) P - Services Rendered","LOCKOUT",42.284859,-71.381432,"73 MILL ST, NATICK, MA, 01760"
2024/04/15 12:10:00,"[NAT 435] CENTER FOR THE ARTS (TCAN) - 14 SUMMER ST","FOUND/ LOST PROPERTY Log Entry","FOUND/ LOST PROPERTY",42.284470,-71.348222,"14 SUMMER ST, NATICK, MA, 01760"
2024/04/15 12:30:00,"[NAT 1705] NATICK POLICE DEPARTMENT - 20 EAST CENTRAL ST","FOUND/ LOST PROPERTY Log Entry","FOUND/ LOST PROPERTY",42.284248,-71.345123,"20 E CENTRAL ST, NATICK, MA, 01760"
2024/04/15 12:55:00,"16 CHURCH ST","M/ V CRASH/ Hit & Run Report to be filed","MOTOR VEHICLE CRASH",42.282552,-71.345184,"16 CHURCH ST, NATICK, MA, 01760"
2024/04/15 15:07:00,"[NAT 1705] NATICK POLICE DEPARTMENT - 20 EAST CENTRAL ST","FOUND/ LOST PROPERTY Log Entry","FOUND/ LOST PROPERTY",42.284248,-71.345123,"20 E CENTRAL ST, NATICK, MA, 01760"
2024/04/15 15:26:00,"[NAT 2688] COURTYARD BY MARRIOTT - 342 SPEEN ST","REMOVE UNWANTED PERSON(S) P - Services Rendered","REMOVE UNWANTED PERSON(S)",42.300749,-71.379948,"342 SPEEN ST, NATICK, MA, 01760"
2024/04/15 16:42:00,"1 WEST CENTRAL ST ","FOUND/ LOST PROPERTY Log Entry","FOUND/ LOST PROPERTY",42.283832,-71.347361,"1 W CENTRAL ST, NATICK, MA, 01760"
2024/04/15 18:41:00,"21 LAKEVIEW GARDENS Apt. #914","SUSPICIOUS ACTIVITY P - Services Rendered","SUSPICIOUS ACTIVITY",42.275519,-71.369695,"21 LAKEVIEW AVE, NATICK, MA, 01760"
2024/04/15 18:48:00,"[NAT 3019] MACY'S - 1247 WORCESTER ST","SHOPLIFTING Arrest(s) Made","SHOPLIFTING",42.299501,-71.377795,"1247 WORCESTER ST, NATICK, MA, 01760"
2024/04/15 19:19:00,"7 SHERMAN ST","F - Well Being Check P - Services Rendered","Well Being Check",42.282131,-71.343327,"7 SHERMAN ST, NATICK, MA, 01760"
2024/04/15 21:55:00,"[NAT 1145] SUPER STOP & SHOP - 829 WORCESTER ST","SUSPICIOUS ACTIVITY P - Services Rendered","SUSPICIOUS ACTIVITY",42.305625,-71.311027,"829 WORCESTER ST, WELLESLEY HILLS, MA, 02481"
2024/04/15 23:40:00,"[NAT 695] 51 EVERETT ST","ALARM, BURGLAR P - ALARM BLDG Chk Secure","ALARM",42.258767,-71.342219,"51 EVERETT ST, NATICK, MA, 01760"
2024/04/16 01:53:00,"[NAT 920] NATICK MALL (MALL I) - 1245 WORCESTER ST","MOTOR VEHICLE STOP Citation/ Warning Issued","MOTOR VEHICLE STOP",42.299500,-71.377749,"1245 WORCESTER ST, NATICK, MA, 01760"
2024/04/16 02:02:00,"[NAT 79] BERNARDI HONDA - 960 WORCESTER ST","MOTOR VEHICLE STOP P - Services Rendered","MOTOR VEHICLE STOP",42.299258,-71.365104,"960 WORCESTER ST, NATICK, MA, 01760"
2024/04/16 02:15:00,"[NAT 4210] ANTHONYS COAL FIRED PIZZA - 219 NORTH MAIN ST Apt. #A-104","SUSPICIOUS ACTIVITY P - Services Rendered","SUSPICIOUS ACTIVITY",42.303076,-71.361265,"219 N MAIN ST, NATICK, MA, 01760"
2024/04/16 05:42:00,"3 LANES END ST","ALARM, BURGLAR P - ALARM SET OFF IN ERROR","ALARM",42.270879,-71.382298,"3 LANES END, NATICK, MA, 01760"
2024/04/16 06:39:00,"106 EAST CENTRAL ST","MOTOR VEHICLE STOP Citation/ Warning Issued","MOTOR VEHICLE STOP",42.286143,-71.337735,"106 E CENTRAL ST, NATICK, MA, 01760"
2024/04/16 07:51:00,"160 COTTAGE ST","MOTOR VEHICLE CRASH P - Services Rendered","MOTOR VEHICLE CRASH",42.262281,-71.342606,"160 COTTAGE ST, NATICK, MA, 01760"
2024/04/16 08:19:00,"1 COBBLESTONE DR ","Animals (Other) Log Entry","ANIMALS",42.267438,-71.344556,"1 COBBLESTONE DR, NATICK, MA, 01760"
2024/04/16 08:42:00,"[FRA] 600 CONCORD ST","ESCORT/ TRANSPORT P - Services Rendered","ESCORT/",42.292559,-71.409285,"600 CONCORD ST, FRAMINGHAM, MA, 01702"
2024/04/16 08:49:00,"[FRA] 600 CONCORD ST","ESCORT/ TRANSPORT P - Services Rendered","ESCORT/",42.292559,-71.409285,"600 CONCORD ST, FRAMINGHAM, MA, 01702"
2024/04/16 08:51:00,"[NAT 27] RAMP FROM RT9 EAST TO NORTH MAIN ST SOUTH - RAMP - RT9 EB TO RT27 SB","MOTOR VEHICLE STOP Citation/ Warning Issued","MOTOR VEHICLE STOP",42.286082,-71.348580,"9 N MAIN ST, NATICK, MA, 01760"
2024/04/16 09:30:00,"[NAT 855] THRIVE PET HEALTH CARE - 121 WEST CENTRAL ST","Animals (Other) Log Entry","ANIMALS",42.283651,-71.369312,"121 W CENTRAL ST, NATICK, MA, 01760"
2024/04/16 10:06:00,"[NAT 602] SHERWOOD VILLAGE WEST - 145 MILL ST Apt. #206W","SUDDEN DEATH Report to be filed","SUDDEN DEATH",42.287571,-71.382764,"145 MILL ST, NATICK, MA, 01760"
2024/04/16 11:35:00,"[NAT 1202] MAHAN FIELD - 1 WEST ST","Animals (Other) Log Entry","ANIMALS",42.277584,-71.357376,"1 WEST ST, NATICK, MA, 01760"
2024/04/16 12:14:00,"11 MECHANIC ST","ASSIST OTHER AGENCY P - Services Rendered","ASSIST OTHER AGENCY",42.288498,-71.350678,"11 MECHANIC ST, NATICK, MA, 01760"
2024/04/16 12:49:00,"36 POND ST Apt. #1","LARCENY / FORGERY/ FRAUD P - Services Rendered","LARCENY / FORGERY/ FRAUD",42.282346,-71.349910,"36 POND ST, NATICK, MA, 01760"
2024/04/16 12:56:00,"[NAT 4074] PRIMEROSE SCHOOL OF NATICK - 296 NORTH MAIN ST","VANDALISM Report to be filed","VANDALISM",42.310323,-71.361129,"296 N MAIN ST, NATICK, MA, 01760"
2024/04/16 13:09:00,"[NAT 4364] 182 PINE ST","Animals (Other) Gone On Arrival","ANIMALS",42.315651,-71.341296,"182 PINE ST, NATICK, MA, 01760"
2024/04/16 13:48:00,"[NAT 4367] FIDO DOG PARK - 109 WEST CENTRAL ST","Animals (Other) Log Entry","ANIMALS",42.283576,-71.366282,"109 W CENTRAL ST, NATICK, MA, 01760"
2024/04/16 13:55:00,"[NAT 2769] DUNKIN DONUTS - 50 EAST CENTRAL ST","DISTURBANCE P - Services Rendered","DISTURBANCE",42.284719,-71.342658,"50 E CENTRAL ST, NATICK, MA, 01760"
2024/04/16 14:12:00,"[NAT 3314] J.J. LANE PARK - 185 SPEEN ST","Animals (Other) Log Entry","ANIMALS",42.282216,-71.375839,"185 SPEEN ST, NATICK, MA, 01760"
2024/04/16 14:18:00,"42 SPEEN ST","VANDALISM Report to be filed","VANDALISM",42.274243,-71.378790,"42 SPEEN ST, NATICK, MA, 01760"
2024/04/16 14:44:00,"197 WEST CENTRAL ST","MOTOR VEHICLE STOP Citation/ Warning Issued","MOTOR VEHICLE STOP",42.282015,-71.389705,"197 W CENTRAL ST, NATICK, MA, 01760"
2024/04/16 15:06:00,"226 WEST CENTRAL ST ","MOTOR VEHICLE STOP Citation/ Warning Issued","MOTOR VEHICLE STOP",42.282118,-71.386530,"226 W CENTRAL ST, NATICK, MA, 01760"
2024/04/16 15:10:00,"7 LACONIA RD","LARCENY / FORGERY/ FRAUD SUMMONS REQUEST","LARCENY / FORGERY/ FRAUD",42.301543,-71.327355,"7 LACONIA RD, NATICK, MA, 01760"
2024/04/16 15:50:00,"[NAT 1705] NATICK POLICE DEPARTMENT - 20 EAST CENTRAL ST","FOUND/ LOST PROPERTY Log Entry","FOUND/ LOST PROPERTY",42.284248,-71.345123,"20 E CENTRAL ST, NATICK, MA, 01760"
2024/04/16 15:53:00,"[NAT 3614] AVALON NATICK APARTMENTS - 5 CHRYSLER RD Apt. #805","LARCENY / FORGERY/ FRAUD Report to be filed","LARCENY / FORGERY/ FRAUD",42.305171,-71.381901,"5 CHRYSLER RD, NATICK, MA, 01760"
2024/04/16 16:37:00,"272 WEST CENTRAL ST","ALARM, BURGLAR P - ALARM BLDG Chk Secure","ALARM",42.281715,-71.392405,"272 W CENTRAL ST, NATICK, MA, 01760"
2024/04/16 16:42:00,"[NAT 470] TILLY AND SALVY'S BACON STREET FARM - 100 BACON ST","M/ V CRASH/ Hit & Run Report to be filed","MOTOR VEHICLE CRASH",42.292969,-71.335575,"100 BACON ST, NATICK, MA, 01760"
2024/04/16 16:45:00,"[NAT 1705] NATICK POLICE DEPARTMENT - 20 EAST CENTRAL ST","ASSIST OTHER AGENCY Report to be filed","ASSIST OTHER AGENCY",42.284248,-71.345123,"20 E CENTRAL ST, NATICK, MA, 01760"
2024/04/16 17:19:00,"[NAT 954] THE VERVE HOTEL - 1360 WORCESTER ST","MOTOR VEHICLE CRASH Report to be filed","MOTOR VEHICLE CRASH",42.298777,-71.391301,"1360 WORCESTER ST, NATICK, MA, 01760"
2024/04/16 18:18:00,"14 SOUTH AVE ","PARKING COMPLAINT Citation/ Warning Issued","PARKING COMPLAINT",42.285567,-71.345200,"14 SOUTH AVE, NATICK, MA, 01760"
2024/04/16 18:28:00,"57 BACON ST","ESCORT/ TRANSPORT P - Services Rendered","ESCORT/",42.293987,-71.329599,"57 BACON ST, NATICK, MA, 01760"
2024/04/16 19:11:00,"57 BACON ST","MOTOR VEHICLE STOP Citation/ Warning Issued","MOTOR VEHICLE STOP",42.293987,-71.329599,"57 BACON ST, NATICK, MA, 01760"
2024/04/16 20:32:00,"11 BAYBERRY RD","ASSIST OTHER AGENCY Taken/Refer Other Agency","ASSIST OTHER AGENCY",42.309947,-71.367245,"11 BAYBERRY RD, NATICK, MA, 01760"
2024/04/16 23:24:00,"[NAT 1476] MBTA WEST NATICK STATION - 251 WEST CENTRAL ST","ASSIST OTHER AGENCY Taken/Refer Other Agency","ASSIST OTHER AGENCY",42.281827,-71.392458,"251 W CENTRAL ST, NATICK, MA, 01760"
2024/04/16 23:43:00,"[NAT 4421] HOT DOGGY - 1298 WORCESTER ST","REMOVE UNWANTED PERSON(S) Gone On Arrival","REMOVE UNWANTED PERSON(S)",42.298923,-71.387223,"1298 WORCESTER ST, NATICK, MA, 01760"
2024/04/17 06:59:00,"[NAT 4142] SHERWOOD PLAZA (EAST) - 1288 WORCESTER ST","MOTOR VEHICLE STOP Citation/ Warning Issued","MOTOR VEHICLE STOP",42.298925,-71.387202,"1288 WORCESTER ST, NATICK, MA, 01760"
2024/04/17 08:26:00,"[FRA] NATICK DISTRICT COURT - 600 CONCORD ST","ESCORT/ TRANSPORT P - Services Rendered","ESCORT/",42.292559,-71.409285,"600 CONCORD ST, FRAMINGHAM, MA, 01702"
2024/04/17 08:35:00,"18 TERRACE RD","SUSPICIOUS ACTIVITY Unable to Locate","SUSPICIOUS ACTIVITY",42.294112,-71.336379,"18 TERRACE RD, NATICK, MA, 01760"
2024/04/17 09:00:00,"[NAT 4366] 30 FISKE ST - 30 FISKE ST","Animals (Other) P - Services Rendered","ANIMALS",42.275161,-71.372953,"30 FISKE ST, NATICK, MA, 01760"
2024/04/17 09:31:00,"[GRA] TUFTS WILDLIFE CLINIC - 50 WILLARD ST","Animals (Other) P - Services Rendered","ANIMALS",42.319584,-71.363829,"50 WILLARD ST, WAYLAND, MA, 01778"
2024/04/17 09:40:00,"GOOD FEET - 1290 WORCESTER ST","LARCENY / FORGERY/ FRAUD Report to be filed","LARCENY / FORGERY/ FRAUD",42.298924,-71.387206,"1290 WORCESTER ST, NATICK, MA, 01760"
2024/04/17 09:43:00,"[NAT 3121] WALCOTT SQUARE - 1 WEST CENTRAL ST","SUSPICIOUS ACTIVITY P - Services Rendered","SUSPICIOUS ACTIVITY",42.283832,-71.347361,"1 W CENTRAL ST, NATICK, MA, 01760"
2024/04/17 10:07:00,"[NAT 1203] CLARKS BLOCK - 2 SUMMER ST","MOTOR VEHICLE TOW Vehicle Towed","MOTOR VEHICLE TOW",42.284561,-71.347539,"2 SUMMER ST, NATICK, MA, 01760"
2024/04/17 11:39:00,"[NAT 4073] LOKER PARK - 95 WALNUT ST","FOUND/ LOST PROPERTY Log Entry","FOUND/ LOST PROPERTY",42.294262,-71.348065,"95 WALNUT ST, NATICK, MA, 01760"
2024/04/17 12:01:00,"[NAT 1550] JOHN EVERETT AND SONS FUNERAL HOME - 4 PARK ST","ESCORT/ TRANSPORT P - Services Rendered","ESCORT/",42.283897,-71.346185,"4 PARK ST, NATICK, MA, 01760"
2024/04/17 13:43:00,"11 MORSE ST Apt. #2","ESCORT/ TRANSPORT P - Services Rendered","ESCORT/",42.283310,-71.344821,"11 MORSE ST, NATICK, MA, 01760"
2024/04/17 14:10:00,"[NAT 2876] SEPHORA - 1245 WORCESTER ST Apt. #2164","LARCENY / FORGERY/ FRAUD Report to be filed","LARCENY / FORGERY/ FRAUD",42.299500,-71.377749,"1245 WORCESTER ST, NATICK, MA, 01760"
2024/04/17 14:25:00,"45 NORTH MAIN ST","MOTOR VEHICLE STOP Citation/ Warning Issued","MOTOR VEHICLE STOP",42.288109,-71.350055,"45 N MAIN ST, NATICK, MA, 01760"
2024/04/17 14:46:00,"[NAT 1661] PEGAN COVE - 32 WASHINGTON AVE","SUSPICIOUS ACTIVITY Unable to Locate","SUSPICIOUS ACTIVITY",42.285620,-71.353230,"32 WASHINGTON AVE, NATICK, MA, 01760"
2024/04/17 14:58:00,"5 COLUMBIA AVE","BURGLARY (B & E) Report to be filed","BURGLAR",42.295594,-71.373036,"5 COLUMBIA AVE, NATICK, MA, 01760"
2024/04/17 17:27:00,"[NAT 941] VALVOLINE INSTANT OIL CHANGE - 891 WORCESTER ST","MOTOR VEHICLE CRASH P - Services Rendered","MOTOR VEHICLE CRASH",42.305265,-71.315556,"891 WORCESTER ST, WELLESLEY, MA, 02482"
2024/04/17 23:04:00,"DRIS CORP - 16 TECH CIR","ALARM, BURGLAR P - ALARM BLDG Chk Secure","ALARM",42.313778,-71.337926,"16 TECH CIR, NATICK, MA, 01760"
2024/04/18 08:17:00,"300 NORTH MAIN ST","VANDALISM Report to be filed","VANDALISM",42.310583,-71.361035,"300 N MAIN ST, NATICK, MA, 01760"
2024/04/18 11:05:00,"9 POST OAK LN Apt. #17","VANDALISM Report to be filed","VANDALISM",42.276637,-71.385783,"9 POST OAK LN, NATICK, MA, 01760"
2024/04/18 11:30:00,"[NAT 4130] KOHR GOLF - 218 SPEEN ST","MOTOR VEHICLE STOP Citation/ Warning Issued","MOTOR VEHICLE STOP",42.293450,-71.376790,"218 SPEEN ST, NATICK, MA, 01760"
2024/04/18 11:51:00,"[NAT 1202] MAHAN FIELD - 1 WEST ST","Animals (Other) Log Entry","ANIMALS",42.277584,-71.357376,"1 WEST ST, NATICK, MA, 01760"
2024/04/18 11:53:00,"[NAT 1009] ST LINUS CHURCH - 119 HARTFORD ST","VANDALISM Report to be filed","VANDALISM",42.292122,-71.389021,"119 HARTFORD ST, NATICK, MA, 01760"
2024/04/18 13:03:00,"[NAT 4059] ORTHOPEDICS NEW ENGLAND - 313 SPEEN ST","Animals (Other) Log Entry","ANIMALS",42.300998,-71.379934,"313 SPEEN ST, NATICK, MA, 01760"
2024/04/18 13:08:00,"325 WEST CENTRAL ST","MOTOR VEHICLE STOP Citation/ Warning Issued","MOTOR VEHICLE STOP",42.281739,-71.394032,"325 W CENTRAL ST, NATICK, MA, 01760"
2024/04/18 13:20:00,"1 LAKESHORE RD","MOTOR VEHICLE STOP Citation/ Warning Issued","MOTOR VEHICLE STOP",42.300759,-71.360935,"1 LAKE SHORE RD, NATICK, MA, 01760"
2024/04/18 13:42:00,"[NAT 3165] APPLE STORE - 1245 WORCESTER ST Apt. #3082","LARCENY / FORGERY/ FRAUD Report to be filed","LARCENY / FORGERY/ FRAUD",42.299500,-71.377749,"1245 WORCESTER ST, NATICK, MA, 01760"
2024/04/18 14:07:00,"[NAT 2448] MURPHY FIELD - 161 NORTH MAIN ST","MOTOR VEHICLE STOP Vehicle Towed","MOTOR VEHICLE STOP",42.297147,-71.359019,"161 N MAIN ST, NATICK, MA, 01760"
2024/04/18 14:12:00,"[NAT 3879] BERNARDI AUDI - 549 WORCESTER ST","MOTOR VEHICLE STOP Citation/ Warning Issued","MOTOR VEHICLE STOP",42.309143,-71.284371,"549 WORCESTER ST, WELLESLEY HILLS, MA, 02481"
2024/04/18 15:27:00,"205 UNION ST ","MOTOR VEHICLE CRASH Report to be filed","MOTOR VEHICLE CRASH",42.273599,-71.317271,"205 UNION ST, NATICK, MA, 01760"
2024/04/18 17:49:00,"121 WALNUT ST","F - MVA with Injury F - Transport-Hospital","MOTOR VEHICLE CRASH",42.297822,-71.347862,"121 WALNUT ST, NATICK, MA, 01760"
2024/04/18 17:58:00,"7 LANGDON RD","MISSING PERSON P - Services Rendered","MISSING PERSON",42.316507,-71.343313,"7 LANGDON RD, NATICK, MA, 01760"
2024/04/18 17:59:00,"[NAT 1126] COOLIDGE HOUSE - 72 SOUTH MAIN ST","DISTURBANCE P - Services Rendered","DISTURBANCE",42.281005,-71.347189,"72 S MAIN ST, NATICK, MA, 01760"
2024/04/18 18:15:00,"21 LAKEVIEW GARDENS Apt. #914","SUSPICIOUS ACTIVITY P - Services Rendered","SUSPICIOUS ACTIVITY",42.275519,-71.369695,"21 LAKEVIEW AVE, NATICK, MA, 01760"
2024/04/18 18:45:00,"15 MORGAN DR Apt. #101","ASSIST OTHER AGENCY P - Services Rendered","ASSIST OTHER AGENCY",42.264722,-71.354516,"15 MORGAN DR, NATICK, MA, 01760"
2024/04/18 19:29:00,"[NAT 2469] 9/27 SOUTH - 821 WORCESTER ST","FOUND/ LOST PROPERTY P - Services Rendered","FOUND/ LOST PROPERTY",42.305638,-71.310854,"821 WORCESTER ST, WELLESLEY HILLS, MA, 02481"
2024/04/18 19:43:00,"[NAT 2051] HOME DEPOT - 339 SPEEN ST","SHOPLIFTING Report to be filed","SHOPLIFTING",42.301047,-71.379963,"339 SPEEN ST, NATICK, MA, 01760"
2024/04/18 22:20:00,"[NAT 4075] WEGMANS - 1239 WORCESTER ST","F - MVA with Injury P - Services Rendered","MOTOR VEHICLE CRASH",42.299496,-71.377611,"1239 WORCESTER ST, NATICK, MA, 01760"
2024/04/19 03:01:00,"[NAT 2688] COURTYARD BY MARRIOTT - 342 SPEEN ST Apt. #440","911 HANG UP P - Services Rendered","911 HANG UP",42.300749,-71.379948,"342 SPEEN ST, NATICK, MA, 01760"
2024/04/19 03:54:00,"[NAT 2688] COURTYARD BY MARRIOTT - 342 SPEEN ST Apt. #440","DISTURBANCE P - Services Rendered","DISTURBANCE",42.300749,-71.379948,"342 SPEEN ST, NATICK, MA, 01760"
2024/04/19 06:25:00,"[NAT 2223] LAUNDRY LOFT - 19 WATSON ST","COMPLAINT SUMMONS REQUEST","COMPLAINT",42.282253,-71.377759,"19 WATSON ST, NATICK, MA, 01760"
2024/04/19 07:05:00,"[NAT 635] BOX 166 - 221 EAST CENTRAL ST","MOTOR VEHICLE CRASH P - Services Rendered","MOTOR VEHICLE CRASH",42.290694,-71.327387,"221 E CENTRAL ST, NATICK, MA, 01760"
2024/04/19 07:33:00,"156 WALNUT ST ","DISABLED M/V Gone On Arrival","DISABLED M/V",42.300664,-71.346035,"156 WALNUT ST, NATICK, MA, 01760"
2024/04/19 07:57:00,"[NAT 3572] MASSACHUSETTS PAROLE BOARD - 12 MERCER RD","ALARM, BURGLAR P - Services Rendered","ALARM",42.296807,-71.387067,"12 MERCER RD, NATICK, MA, 01760"
2024/04/19 08:08:00,"[NAT 869] ROCHE BROS SUPERMARKET - 150 WEST CENTRAL ST","DISTURBANCE Report to be filed","DISTURBANCE",42.282483,-71.378214,"150 W CENTRAL ST, NATICK, MA, 01760"
2024/04/19 09:13:00,"9 VILLAGE ROCK LN Apt. #4","F - Well Being Check F - No Patient","Well Being Check",42.278540,-71.394163,"9 VILLAGE ROCK LN, NATICK, MA, 01760"
2024/04/19 09:46:00,"[NAT 2051] HOME DEPOT - 339 SPEEN ST","MOTOR VEHICLE TOW Vehicle Towed","MOTOR VEHICLE TOW",42.301047,-71.379963,"339 SPEEN ST, NATICK, MA, 01760"
2024/04/19 10:07:00,"[NAT 269] COAN INC - 196 WEST CENTRAL ST","SUSPICIOUS ACTIVITY P - Services Rendered","SUSPICIOUS ACTIVITY",42.282236,-71.384638,"196 W CENTRAL ST, NATICK, MA, 01760"
2024/04/19 10:30:00,"[NAT 1202] MAHAN FIELD - 1 WEST ST","Animals (Other) Log Entry","ANIMALS",42.277584,-71.357376,"1 WEST ST, NATICK, MA, 01760"
2024/04/19 10:59:00,"251 WEST CENTRAL ST","SUSPICIOUS ACTIVITY P - Services Rendered","SUSPICIOUS ACTIVITY",42.281827,-71.392458,"251 W CENTRAL ST, NATICK, MA, 01760"
2024/04/19 11:25:00,"306 WEST CENTRAL ST","SUSPICIOUS ACTIVITY P - Services Rendered","SUSPICIOUS ACTIVITY",42.281026,-71.397144,"306 W CENTRAL ST, NATICK, MA, 01760"
2024/04/19 13:12:00,"[NAT 4188] EXPONENT AND SHELL - 1075 WORCESTER ST","MOTOR VEHICLE STOP Citation/ Warning Issued","MOTOR VEHICLE STOP",42.299359,-71.365965,"1075 WORCESTER ST, NATICK, MA, 01760"
2024/04/19 13:15:00,"[NAT 1531] VFW - 113 WEST CENTRAL ST","SUSPICIOUS ACTIVITY P - Services Rendered","SUSPICIOUS ACTIVITY",42.283857,-71.367763,"113 W CENTRAL ST, NATICK, MA, 01760"
2024/04/19 13:18:00,"1245 WORCESTER ST","MOTOR VEHICLE STOP Citation/ Warning Issued","MOTOR VEHICLE STOP",42.299500,-71.377749,"1245 WORCESTER ST, NATICK, MA, 01760"
2024/04/19 13:34:00,"721 WORCESTER ST ","MOTOR VEHICLE STOP Citation/ Warning Issued","MOTOR VEHICLE STOP",42.306036,-71.299174,"721 WORCESTER ST, WELLESLEY HILLS, MA, 02481"
2024/04/19 14:07:00,"1245 WORCESTER ST","MOTOR VEHICLE STOP Citation/ Warning Issued","MOTOR VEHICLE STOP",42.299500,-71.377749,"1245 WORCESTER ST, NATICK, MA, 01760"
2024/04/19 14:18:00,"[NAT 68] MCDONALDS, RT 9 EASTBOUND - 290 WORCESTER ST","MOTOR VEHICLE STOP Citation/ Warning Issued","MOTOR VEHICLE STOP",42.301963,-71.340499,"290 WORCESTER ST, NATICK, MA, 01760"
2024/04/19 14:32:00,"[NAT 954] THE VERVE HOTEL - 1360 WORCESTER ST","M/ V CRASH/ Hit & Run P - Services Rendered","MOTOR VEHICLE CRASH",42.298777,-71.391301,"1360 WORCESTER ST, NATICK, MA, 01760"
2024/04/19 14:44:00,"[NAT 71] GOLF ON THE VILLAGE GREEN - 315 WORCESTER ST","DISABLED M/V Vehicle Towed","DISABLED M/V",42.314508,-71.257021,"315 WORCESTER ST, WELLESLEY HILLS, MA, 02481"
2024/04/19 16:31:00,"[NAT 4156] AVENUE AT NATICK - 194 NORTH MAIN ST ","M/ V CRASH/ Hit & Run Report to be filed","MOTOR VEHICLE CRASH",42.298788,-71.359505,"194 N MAIN ST, NATICK, MA, 01760"
2024/04/19 16:51:00," 262 SPEEN ST","MOTOR VEHICLE CRASH Report to be filed","MOTOR VEHICLE CRASH",42.297144,-71.377679,"262 SPEEN ST, NATICK, MA, 01760"
2024/04/19 17:00:00,"[NAT 2325] PIZZA PEDDLER - 127 WEST CENTRAL ST","FOUND/ LOST PROPERTY P - Services Rendered","FOUND/ LOST PROPERTY",42.283461,-71.370455,"127 W CENTRAL ST, NATICK, MA, 01760"
2024/04/19 17:26:00,"15 EUCLID AVE","SERVE SUMMONS UNABLE TO SERVE","SERVE SUMMONS",42.307082,-71.337610,"15 EUCLID AVE, NATICK, MA, 01760"
2024/04/19 17:26:00,"195 SOUTH MAIN ST","HAZARD P - Services Rendered","HAZARD",42.298882,-71.359373,"195 N MAIN ST, NATICK, MA, 01760"
2024/04/19 17:36:00,"[NAT 2876] SEPHORA - 1245 WORCESTER ST Apt. #2164","LARCENY / FORGERY/ FRAUD Report to be filed","LARCENY / FORGERY/ FRAUD",42.299500,-71.377749,"1245 WORCESTER ST, NATICK, MA, 01760"
2024/04/19 17:50:00,"226 BACON ST","ALARM, BURGLAR P - Services Rendered","ALARM",42.296868,-71.352854,"226 BACON ST, NATICK, MA, 01760"
2024/04/19 18:38:00,"[NAT 3222] CHEESECAKE FACTORY - 1245 WORCESTER ST Apt. #1098","LARCENY OF M/V Report to be filed","LARCENY OF M/V",42.299500,-71.377749,"1245 WORCESTER ST, NATICK, MA, 01760"
2024/04/19 19:00:00,"[NAT 869] ROCHE BROS SUPERMARKET - 150 WEST CENTRAL ST","MOTOR VEHICLE STOP Citation/ Warning Issued","MOTOR VEHICLE STOP",42.282483,-71.378214,"150 W CENTRAL ST, NATICK, MA, 01760"
2024/04/19 19:23:00,"19 VILLAGE HILL LN Apt. #3","LARCENY / FORGERY/ FRAUD Report to be filed","LARCENY / FORGERY/ FRAUD",42.275982,-71.394349,"19 VILLAGE HILL LN, NATICK, MA, 01760"
2024/04/19 20:23:00," 262 SPEEN ST","MOTOR VEHICLE CRASH Report to be filed","MOTOR VEHICLE CRASH",42.297144,-71.377679,"262 SPEEN ST, NATICK, MA, 01760"
2024/04/19 20:59:00,"[NAT 2051] HOME DEPOT - 339 SPEEN ST","ROAD RAGE INCIDENT Gone On Arrival","ROAD RAGE INCIDENT",42.301047,-71.379963,"339 SPEEN ST, NATICK, MA, 01760"
2024/04/19 21:20:00,"[NAT 4184] DAVE AND BUSTERS-2ND FLOOR - 1235 WORCESTER ST Apt. #200","SUSPICIOUS ACTIVITY Gone On Arrival","SUSPICIOUS ACTIVITY",42.299493,-71.377519,"1235 WORCESTER ST, NATICK, MA, 01760"
2024/04/20 00:43:00,"[NAT 1145] SUPER STOP & SHOP - 829 WORCESTER ST","MOTOR VEHICLE STOP SUMMONS REQUEST","MOTOR VEHICLE STOP",42.305625,-71.311027,"829 WORCESTER ST, WELLESLEY HILLS, MA, 02481"
2024/04/20 01:18:00,"[NAT 1505] WENDY'S INTERNATIONAL - 303 WEST CENTRAL ST","COMPLAINT Gone On Arrival","COMPLAINT",42.281774,-71.393563,"303 W CENTRAL ST, NATICK, MA, 01760"
2024/04/20 01:59:00,"189 HARTFORD ST","F - MVA with Injury Merge: 24-6588 By: 48918","MOTOR VEHICLE CRASH",42.292529,-71.400188,"189 HARTFORD ST, NATICK, MA, 01760"
2024/04/20 02:00:00,"189 HARTFORD ST","F - MVA with Injury F - No Patient","MOTOR VEHICLE CRASH",42.292529,-71.400188,"189 HARTFORD ST, NATICK, MA, 01760"
2024/04/20 03:03:00,"126 NORTH MAIN ST Apt. #2","SUSPICIOUS ACTIVITY Report to be filed","SUSPICIOUS ACTIVITY",42.293537,-71.357743,"126 N MAIN ST, NATICK, MA, 01760"
2024/04/20 06:53:00,"[NAT 2553] ETHAN ALLEN - 321 SPEEN ST","ALARM, BURGLAR P - ALARM BLDG Chk Secure","ALARM",42.301013,-71.379943,"321 SPEEN ST, NATICK, MA, 01760"
2024/04/20 07:20:00,"[NAT 2553] ETHAN ALLEN - 321 SPEEN ST","ALARM, BURGLAR P - ALARM BLDG Chk Secure","ALARM",42.301013,-71.379943,"321 SPEEN ST, NATICK, MA, 01760"
2024/04/20 07:49:00,"[NAT 2553] ETHAN ALLEN - 321 SPEEN ST","ALARM, BURGLAR P - ALARM BLDG Chk Secure","ALARM",42.301013,-71.379943,"321 SPEEN ST, NATICK, MA, 01760"
2024/04/20 10:09:00,"18 HUNTERS LN","ALARM, BURGLAR P - ALARM SET OFF IN ERROR","ALARM",42.272508,-71.351663,"18 HUNTERS LN, NATICK, MA, 01760"
2024/04/20 10:33:00,"[NAT 3287] NORDSTROM - 290 SPEEN ST","SHOPLIFTING Report to be filed","SHOPLIFTING",42.299269,-71.379049,"290 SPEEN ST, NATICK, MA, 01760"
2024/04/20 11:28:00,"[NAT 1505] WENDY'S INTERNATIONAL - 303 WEST CENTRAL ST","DISTURBANCE P - Services Rendered","DISTURBANCE",42.281774,-71.393563,"303 W CENTRAL ST, NATICK, MA, 01760"
2024/04/20 11:47:00,"16 STACEY ST ","MOTOR VEHICLE STOP Citation/ Warning Issued","MOTOR VEHICLE STOP",42.281895,-71.384353,"16 STACEY ST, NATICK, MA, 01760"
2024/04/20 13:25:00,"801 WORCESTER ST","MOTOR VEHICLE STOP P - Services Rendered","MOTOR VEHICLE STOP",42.305668,-71.310423,"801 WORCESTER ST, WELLESLEY HILLS, MA, 02481"
2024/04/20 13:51:00,"127 HARTFORD ST","MOTOR VEHICLE STOP Citation/ Warning Issued","MOTOR VEHICLE STOP",42.291775,-71.390058,"127 HARTFORD ST, NATICK, MA, 01760"
2024/04/20 14:10:00,"[NAT 963] HAMPTON INN - 319 SPEEN ST","MOTOR VEHICLE STOP SUMMONS REQUEST","MOTOR VEHICLE STOP",42.301009,-71.379941,"319 SPEEN ST, NATICK, MA, 01760"
2024/04/20 14:12:00,"[NAT 3] RAMP FROM RT9 WEST TO SPEEN ST NORTH - RAMP - RT9 WB TO SPEEN ST","MOTOR VEHICLE CRASH Report to be filed","MOTOR VEHICLE CRASH",42.270720,-71.381262,"9 SPEEN ST, NATICK, MA, 01760"
2024/04/20 14:40:00,"[NAT 1261] SUBWAY ( WEST NATICK ) - 251 WEST CENTRAL ST","REMOVE UNWANTED PERSON(S) P - Services Rendered","REMOVE UNWANTED PERSON(S)",42.281827,-71.392458,"251 W CENTRAL ST, NATICK, MA, 01760"
2024/04/20 16:13:00,"[NAT 1494] U S PETROLEUM - 146 EAST CENTRAL ST","SUSPICIOUS ACTIVITY P - Services Rendered","SUSPICIOUS ACTIVITY",42.286986,-71.335476,"146 E CENTRAL ST, NATICK, MA, 01760"
2024/04/20 16:51:00,"13 MAPLE ST ","SUSPICIOUS ACTIVITY Gone On Arrival","SUSPICIOUS ACTIVITY",42.282891,-71.352535,"13 MAPLE ST, NATICK, MA, 01760"
2024/04/20 17:25:00,"[NAT 3728] PLANET FITNESS - 215 WEST CENTRAL ST","SUSPICIOUS ACTIVITY P - Services Rendered","SUSPICIOUS ACTIVITY",42.281997,-71.390006,"215 W CENTRAL ST, NATICK, MA, 01760"
2024/04/20 17:28:00,"[NAT 4025] TOTAL WINE AND MORE - 321 SPEEN ST","M/ V CRASH/ Hit & Run Report to be filed","MOTOR VEHICLE CRASH",42.301013,-71.379943,"321 SPEEN ST, NATICK, MA, 01760"
2024/04/20 18:10:00,"[NAT 4160] ALDI - 321 SPEEN ST","F - MVA with Injury Report to be filed","MOTOR VEHICLE CRASH",42.301013,-71.379943,"321 SPEEN ST, NATICK, MA, 01760"
2024/04/20 18:36:00,"[NAT 3019] MACY'S - 1247 WORCESTER ST","SHOPLIFTING P - Services Rendered","SHOPLIFTING",42.299501,-71.377795,"1247 WORCESTER ST, NATICK, MA, 01760"
2024/04/20 20:46:00,"[NAT 3452] GRANT'S PLACE - 8 GRANT ST Apt. #7","M/ V CRASH/ Hit & Run Report to be filed","MOTOR VEHICLE CRASH",42.284625,-71.341823,"8 GRANT ST, NATICK, MA, 01760"
2024/04/20 20:58:00,"[NAT 1018] BENNETT HEMENWAY SCHOOL - 22 EAST EVERGREEN RD","SUSPICIOUS ACTIVITY Gone On Arrival","SUSPICIOUS ACTIVITY",42.307345,-71.359820,"22 E EVERGREEN RD, NATICK, MA, 01760"
2024/04/20 22:51:00,"15 PROCTOR ST","SUSPICIOUS ACTIVITY Report to be filed","SUSPICIOUS ACTIVITY",42.273288,-71.370562,"15 PROCTOR ST, NATICK, MA, 01760"
2024/04/21 00:00:00,"2 CHIEFTAIN LN","BURGLARY (B & E) Report to be filed","BURGLAR",42.274810,-71.333110,"2 CHIEFTAIN LN, NATICK, MA, 01760"
2024/04/21 00:12:00,"[NAT 4184] DAVE AND BUSTERS-2ND FLOOR - 1235 WORCESTER ST Apt. #200","ASSAULT Report to be filed","ASSAULT",42.299493,-71.377519,"1235 WORCESTER ST, NATICK, MA, 01760"
2024/04/21 00:22:00,"DRIS CORP - 16 TECH CIR","ALARM, BURGLAR P - ALARM BLDG Chk Secure","ALARM",42.313778,-71.337926,"16 TECH CIR, NATICK, MA, 01760"
2024/04/21 00:41:00,"4 WOODS CT","911 HANG UP P - Services Rendered","911 HANG UP",42.287206,-71.344194,"4 WOODS CT, NATICK, MA, 01760"
2024/04/21 02:05:00,"1245 WORCESTER ST","MOTOR VEHICLE STOP Citation/ Warning Issued","MOTOR VEHICLE STOP",42.299500,-71.377749,"1245 WORCESTER ST, NATICK, MA, 01760"
2024/04/21 02:32:00,"[NAT 4119] ACCEPT EDUCATION COLLABORATIVE - 4 TECH CIR","ALARM, BURGLAR P - ALARM BLDG Chk Secure","ALARM",42.313393,-71.338037,"4 TECH CIR, NATICK, MA, 01760"
2024/04/21 05:08:00,"[NAT 2047] SPEEDWAY - 194 WEST CENTRAL ST","ALARM, BURGLAR P - ALARM BLDG Chk Secure","ALARM",42.282353,-71.382449,"194 W CENTRAL ST, NATICK, MA, 01760"
2024/04/21 08:16:00,"[NAT 4160] ETHAN ALLEN - 321 SPEEN ST","ALARM, BURGLAR P - ALARM WEATH/PWR Rel","ALARM",42.301013,-71.379943,"321 SPEEN ST, NATICK, MA, 01760"
2024/04/21 08:17:00,"28 FLORENCE ST","ALARM, BURGLAR P - Services Rendered","ALARM",42.289430,-71.344072,"28 FLORENCE ST, NATICK, MA, 01760"
2024/04/21 08:38:00,"[NAT 3823] ASPEN TREE AND LANDSCAPE - 991 WORCESTER ST","MOTOR VEHICLE STOP Citation/ Warning Issued","MOTOR VEHICLE STOP",42.299629,-71.363804,"991 WORCESTER ST, NATICK, MA, 01760"
2024/04/21 09:00:00,"[NAT 4340] BANFIELD PET HOSPITAL - 1450 WORCESTER ST","MOTOR VEHICLE STOP Citation/ Warning Issued","MOTOR VEHICLE STOP",42.298762,-71.391706,"1450 WORCESTER ST, NATICK, MA, 01760"
2024/04/21 10:06:00,"[NAT 4448] FressCafe - 158 EAST CENTRAL ST","FOUND/ LOST PROPERTY Log Entry","FOUND/ LOST PROPERTY",42.288344,-71.332171,"158 E CENTRAL ST, NATICK, MA, 01760"
2024/04/21 10:35:00,"[NAT 2440] BEN AND JERRYS - 1265 WORCESTER ST","F - MVA w/Injury Rt.9 Report to be filed","MOTOR VEHICLE CRASH",42.299514,-71.378211,"1265 WORCESTER ST, NATICK, MA, 01760"
2024/04/21 10:49:00,"[NAT 2099] PARKING DECK A LPHA - REAR OF MACY'S - MALL - 1243 WORCESTER ST","DISTURBANCE P - Services Rendered","DISTURBANCE",42.299498,-71.377703,"1243 WORCESTER ST, NATICK, MA, 01760"
2024/04/21 11:33:00,"[NAT 954] THE VERVE HOTEL - 1360 WORCESTER ST","MOTOR VEHICLE STOP Citation/ Warning Issued","MOTOR VEHICLE STOP",42.298777,-71.391301,"1360 WORCESTER ST, NATICK, MA, 01760"
2024/04/21 12:15:00,"313 SPEEN ST ","Animals (Other) P - Services Rendered","ANIMALS",42.300998,-71.379934,"313 SPEEN ST, NATICK, MA, 01760"
2024/04/21 13:05:00,"21 PLAIN ST","NOISE COMPLAINT P - Services Rendered","NOISE COMPLAINT",42.281014,-71.348615,"21 PLAIN ST, NATICK, MA, 01760"
2024/04/21 14:16:00,"265 BACON ST ","HAZARD P - Services Rendered","HAZARD",42.297486,-71.359073,"265 BACON ST, NATICK, MA, 01760"
2024/04/21 15:02:00,"[NAT 1543] RECYCLE CENTER - 21 WEST ST","M/ V CRASH/ PRIVATE PROPERTY Report to be filed","MOTOR VEHICLE CRASH",42.276810,-71.359370,"21 WEST ST, NATICK, MA, 01760"
2024/04/21 15:13:00,"[NAT 1705] NATICK POLICE DEPARTMENT - 20 EAST CENTRAL ST","MOTOR VEHICLE STOP Citation/ Warning Issued","MOTOR VEHICLE STOP",42.284248,-71.345123,"20 E CENTRAL ST, NATICK, MA, 01760"
2024/04/21 15:32:00,"160 COTTAGE ST ","HAZARD P - Services Rendered","HAZARD",42.262281,-71.342606,"160 COTTAGE ST, NATICK, MA, 01760"
2024/04/21 15:50:00,"72 EAST CENTRAL ST ","SUSPICIOUS ACTIVITY Gone On Arrival","SUSPICIOUS ACTIVITY",42.285183,-71.340539,"72 E CENTRAL ST, NATICK, MA, 01760"
2024/04/21 16:30:00,"[NAT 1705] NATICK POLICE DEPARTMENT - 20 EAST CENTRAL ST","FOUND/ LOST PROPERTY P - Services Rendered","FOUND/ LOST PROPERTY",42.284248,-71.345123,"20 E CENTRAL ST, NATICK, MA, 01760"
2024/04/21 16:40:00,"[NAT 3019] MACY'S - 1247 WORCESTER ST","SHOPLIFTING Arrest(s) Made","SHOPLIFTING",42.299501,-71.377795,"1247 WORCESTER ST, NATICK, MA, 01760"
2024/04/21 16:43:00,"44 BRADFORD RD","SUSPICIOUS ACTIVITY Report to be filed","SUSPICIOUS ACTIVITY",42.310653,-71.347549,"44 BRADFORD RD, NATICK, MA, 01760"
2024/04/21 17:17:00,"[NAT 3085] NATICK MALL (PARKING DECK F) - 1245 WORCESTER ST","M/ V CRASH/ PRIVATE PROPERTY Report to be filed","MOTOR VEHICLE CRASH",42.299500,-71.377749,"1245 WORCESTER ST, NATICK, MA, 01760"
2024/04/21 17:36:00,"70 EAST CENTRAL ST ","ERRATIC OPERATOR Log Entry","ERRATIC OPERATOR",42.285098,-71.340763,"70 E CENTRAL ST, NATICK, MA, 01760"
2024/04/21 17:37:00,"[NAT 1145] SUPER STOP & SHOP - 829 WORCESTER ST","SHOPLIFTING Report to be filed","SHOPLIFTING",42.305625,-71.311027,"829 WORCESTER ST, WELLESLEY HILLS, MA, 02481"
2024/04/21 17:57:00,"[NAT 3019] MACY'S - 1247 WORCESTER ST","SHOPLIFTING Arrest(s) Made","SHOPLIFTING",42.299501,-71.377795,"1247 WORCESTER ST, NATICK, MA, 01760"
2024/04/21 18:33:00,"[NAT 4130] KOHR GOLF - 218 SPEEN ST","COMPLAINT P - Services Rendered","COMPLAINT",42.293450,-71.376790,"218 SPEEN ST, NATICK, MA, 01760"
2024/04/21 19:24:00,"[NAT 872] ELIOT CENTER FOR HEALTH AND REHABILTATION - 168 WEST CENTRAL ST","MISSING PERSON Report to be filed","MISSING PERSON",42.282466,-71.379303,"168 W CENTRAL ST, NATICK, MA, 01760"
2024/04/21 21:59:00,"44 BRADFORD RD","COMPLAINT P - Services Rendered","COMPLAINT",42.310653,-71.347549,"44 BRADFORD RD, NATICK, MA, 01760"
2024/04/22 00:47:00,"[NAT 1145] SUPER STOP & SHOP - 829 WORCESTER ST","MOTOR VEHICLE STOP SUMMONS REQUEST","MOTOR VEHICLE STOP",42.305625,-71.311027,"829 WORCESTER ST, WELLESLEY HILLS, MA, 02481"
2024/04/22 01:05:00,"[NAT 4421] HOT DOGGY - 1298 WORCESTER ST","REMOVE UNWANTED PERSON(S) P - Services Rendered","REMOVE UNWANTED PERSON(S)",42.298923,-71.387223,"1298 WORCESTER ST, NATICK, MA, 01760"
2024/04/22 01:10:00,"[NAT 1705] NATICK POLICE DEPARTMENT - 20 EAST CENTRAL ST","LOCKOUT (VEHICLE) P - Services Rendered","LOCKOUT",42.284248,-71.345123,"20 E CENTRAL ST, NATICK, MA, 01760"
2024/04/22 02:03:00,"[NAT 466] 7- ELEVEN - 172 NORTH MAIN ST","COMPLAINT P - Services Rendered","COMPLAINT",42.297786,-71.359299,"172 N MAIN ST, NATICK, MA, 01760"
2024/04/22 08:21:00,"[FRA] 600 CONCORD ST","ESCORT/ TRANSPORT P - Services Rendered","ESCORT/",42.292559,-71.409285,"600 CONCORD ST, FRAMINGHAM, MA, 01702"
2024/04/22 09:19:00,"10 CYPRESS RD","F - Well Being Check F - Services Provided","Well Being Check",42.309673,-71.363674,"10 CYPRESS RD, NATICK, MA, 01760"
2024/04/22 11:17:00,"[NAT 1705] NATICK POLICE DEPARTMENT - 20 EAST CENTRAL ST","ONLINE INCIDENT REPORT Report to be filed","ONLINE INCIDENT REPORT",42.284248,-71.345123,"20 E CENTRAL ST, NATICK, MA, 01760"
2024/04/22 12:57:00,"43 HARTFORD ST ","MOTOR VEHICLE CRASH Report to be filed","MOTOR VEHICLE CRASH",42.295886,-71.380538,"43 HARTFORD ST, NATICK, MA, 01760"
2024/04/22 13:18:00,"[NAT 2051] HOME DEPOT - 339 SPEEN ST","SUSPICIOUS ACTIVITY Report to be filed","SUSPICIOUS ACTIVITY",42.301047,-71.379963,"339 SPEEN ST, NATICK, MA, 01760"
2024/04/22 14:06:00,"43 POND ST","SUSPICIOUS ACTIVITY P - Services Rendered","SUSPICIOUS ACTIVITY",42.282191,-71.350813,"43 POND ST, NATICK, MA, 01760"
2024/04/22 14:16:00,"301 NORTH MAIN ST","Animals (Other) Gone On Arrival","ANIMALS",42.311104,-71.360676,"301 N MAIN ST, NATICK, MA, 01760"
2024/04/22 14:25:00,"43 HARTFORD ST ","ASSIST OTHER AGENCY P - Services Rendered","ASSIST OTHER AGENCY",42.295886,-71.380538,"43 HARTFORD ST, NATICK, MA, 01760"
2024/04/22 14:29:00,"[NAT 279] MAVIS TIRE AND BRAKES - 217 WEST CENTRAL ST Apt. #A","LARCENY / FORGERY/ FRAUD P - Services Rendered","LARCENY / FORGERY/ FRAUD",42.281995,-71.390040,"217 W CENTRAL ST, NATICK, MA, 01760"
2024/04/22 14:31:00,"[NAT 3019] MACY'S - 1247 WORCESTER ST","SHOPLIFTING SUMMONS REQUEST","SHOPLIFTING",42.299501,-71.377795,"1247 WORCESTER ST, NATICK, MA, 01760"
2024/04/22 14:44:00,"[NAT 3843] NATICK HIGH SCHOOL - 15 WEST ST","SUSPICIOUS ACTIVITY SUMMONS REQUEST","SUSPICIOUS ACTIVITY",42.276971,-71.359319,"15 WEST ST, NATICK, MA, 01760"
2024/04/22 15:48:00,"98 OAK ST","COMPLAINT Log Entry","COMPLAINT",42.305674,-71.332640,"98 OAK ST, NATICK, MA, 01760"
2024/04/22 15:51:00,"PARKING DECK C - 1245 WORCESTER ST","LOCKOUT (VEHICLE) Gone On Arrival","LOCKOUT",42.299500,-71.377749,"1245 WORCESTER ST, NATICK, MA, 01760"
2024/04/22 16:08:00,"55 FISHER ST","F - Well Being Check F - Services Provided","Well Being Check",42.293679,-71.366168,"55 FISHER ST, NATICK, MA, 01760"
2024/04/22 16:36:00,"56 EAST CENTRAL ST ","MOTOR VEHICLE STOP Citation/ Warning Issued","MOTOR VEHICLE STOP",42.284869,-71.341900,"56 E CENTRAL ST, NATICK, MA, 01760"
2024/04/22 16:42:00,"[NAT 963] HAMPTON INN - 319 SPEEN ST","SERVE SUMMONS UNABLE TO SERVE","SERVE SUMMONS",42.301009,-71.379941,"319 SPEEN ST, NATICK, MA, 01760"
2024/04/22 17:11:00,"[NAT 191] NINE EAST WINES - 6 WORCESTER ST","MOTOR VEHICLE CRASH Gone On Arrival","MOTOR VEHICLE CRASH",42.304198,-71.326998,"6 WORCESTER ST, NATICK, MA, 01760"
2024/04/22 18:08:00,"[NAT 4130] KOHR GOLF - 218 SPEEN ST","LOCKOUT (VEHICLE) P - Services Rendered","LOCKOUT",42.293450,-71.376790,"218 SPEEN ST, NATICK, MA, 01760"
2024/04/22 18:39:00,"144 WORCESTER ST ","MOTOR VEHICLE STOP Citation/ Warning Issued","MOTOR VEHICLE STOP",42.303171,-71.333234,"144 WORCESTER ST, NATICK, MA, 01760"
2024/04/22 20:00:00,"[NAT 2101] NATICK MALL (PARKING DECK C) - 1249 WORCESTER ST","DISTURBANCE Report to be filed","DISTURBANCE",42.299503,-71.377842,"1249 WORCESTER ST, NATICK, MA, 01760"
2024/04/22 21:35:00,"[NAT 417] 1 NEIL CIR - 1 NEIL CIR","F - Well Being Check F - Services Provided","Well Being Check",42.296197,-71.358810,"1 NEIL CIR, NATICK, MA, 01760"
2024/04/22 22:42:00,"47 SPEEN ST","MOTOR VEHICLE STOP Citation/ Warning Issued","MOTOR VEHICLE STOP",42.274560,-71.378371,"47 SPEEN ST, NATICK, MA, 01760"
2024/04/22 23:50:00,"15 VILLAGE ROCK LN Apt. #10","F - Well Being Check F - No Patient","Well Being Check",42.278513,-71.394541,"15 VILLAGE ROCK LN, NATICK, MA, 01760"
2024/04/23 01:35:00,"26 INDIAN RIDGE RD","SUSPICIOUS ACTIVITY P - Services Rendered","SUSPICIOUS ACTIVITY",42.250159,-71.326513,"26 INDIAN RIDGE RD, NATICK, MA, 01760"
2024/04/23 06:01:00,"220 WEST CENTRAL ST","MOTOR VEHICLE CRASH SUMMONS REQUEST","MOTOR VEHICLE CRASH",42.282173,-71.385836,"220 W CENTRAL ST, NATICK, MA, 01760"
