Date,Log_Address,Log_Reason,Normalized_Reason,lat,long,Normalized_Address
2024/01/01 02:54:00,"[WEL] WELLESLEY - 3 FROST CIR","ALARM, BURGLAR P - ALARM BLDG Chk Secure","ALARM",42.322319,-71.335604,"3 FROST ST, NATICK, MA, 01760"
2024/01/01 07:15:00,"[NAT 3843] NATICK HIGH SCHOOL (NEW) - 15 WEST ST","ALARM, BURGLAR P - ALARM BLDG Chk Secure","ALARM",42.276971,-71.359319,"15 WEST ST, NATICK, MA, 01760"
2024/01/01 13:21:00,"171 HARTFORD ST","MOTOR VEHICLE STOP SUMMONS REQUEST","MOTOR VEHICLE STOP",42.291410,-71.397313,"171 HARTFORD ST, NATICK, MA, 01760"
2024/01/01 13:58:00," 1 BROOKDALE RD","MOTOR VEHICLE STOP SUMMONS REQUEST","MOTOR VEHICLE STOP",42.291353,-71.397517,"1 BROOKDALE RD, NATICK, MA, 01760"
2024/01/01 14:28:00,"[NAT 2099] PARKING DECK A LPHA - REAR OF MACY'S - MALL - 1243 WORCESTER ST","F - MVA with Injury F - No Patient","MOTOR VEHICLE CRASH",42.299498,-71.377703,"1243 WORCESTER ST, NATICK, MA, 01760"
2024/01/01 18:49:00,"517 WORCESTER ST ","MOTOR VEHICLE STOP Citation/ Warning Issued","MOTOR VEHICLE STOP",42.310568,-71.280848,"517 WORCESTER ST, WELLESLEY HILLS, MA, 02481"
2024/01/01 20:08:00,"[NAT 742] AUSTIN LIQUOR STORE - 212 NORTH MAIN ST","COMPLAINT Log Entry","COMPLAINT",42.303997,-71.361590,"212 N MAIN ST, NATICK, MA, 01760"
2024/01/01 22:05:00,"[NAT 742] AUSTIN LIQUOR STORE - 212 NORTH MAIN ST","COMPLAINT P - Services Rendered","COMPLAINT",42.303997,-71.361590,"212 N MAIN ST, NATICK, MA, 01760"
2024/01/01 23:31:00,"1245 WORCESTER ST ","MOTOR VEHICLE STOP Citation/ Warning Issued","MOTOR VEHICLE STOP",42.299500,-71.377749,"1245 WORCESTER ST, NATICK, MA, 01760"
2024/01/02 00:38:00,"[NAT 2921] 10 GRACE CIR - 10 GRACE CIR","ALARM, BURGLAR P - Services Rendered","ALARM",42.276004,-71.349804,"10 GRACE CIR, NATICK, MA, 01760"
2024/01/02 07:43:00,"8 ERIE DR","ALARM, BURGLAR P - ALARM SET OFF IN ERROR","ALARM",42.313429,-71.339398,"8 ERIE DR, NATICK, MA, 01760"
2024/01/02 08:29:00,"[NAT 79] BERNARDI HONDA - 960 WORCESTER ST","MOTOR VEHICLE STOP Citation/ Warning Issued","MOTOR VEHICLE STOP",42.299258,-71.365104,"960 WORCESTER ST, NATICK, MA, 01760"
2024/01/02 09:14:00,"[NAT 3879] BERNARDI AUDI - 549 WORCESTER ST","MOTOR VEHICLE STOP SUMMONS REQUEST","MOTOR VEHICLE STOP",42.309143,-71.284371,"549 WORCESTER ST, WELLESLEY HILLS, MA, 02481"
2024/01/02 09:22:00,"[NAT 431] CITIZENS BANK - 34 MAIN ST","ALARM, HOLD-UP P - ALARM SET OFF IN ERROR","ALARM",42.285688,-71.348005,"34 MAIN ST, NATICK, MA, 01760"
2024/01/02 09:29:00,"121 WALNUT ST","Animals (Other) P - Services Rendered","ANIMALS",42.297822,-71.347862,"121 WALNUT ST, NATICK, MA, 01760"
2024/01/02 09:34:00,"190 NORTH MAIN ST","MOTOR VEHICLE STOP Citation/ Warning Issued","MOTOR VEHICLE STOP",42.298626,-71.359458,"190 N MAIN ST, NATICK, MA, 01760"
2024/01/02 10:03:00,"111 OAK ST ","MOTOR VEHICLE STOP Citation/ Warning Issued","MOTOR VEHICLE STOP",42.306760,-71.332787,"111 OAK ST, NATICK, MA, 01760"
2024/01/02 10:13:00,"[NAT 4367] FIDO DOG PARK - 109 WEST CENTRAL ST","Animals (Other) P - Services Rendered","ANIMALS",42.283576,-71.366282,"109 W CENTRAL ST, NATICK, MA, 01760"
2024/01/02 10:25:00,"[NAT 3181] THE NORTH FACE - 1245 WORCESTER ST Apt. #4016","ALARM, BURGLAR P - ALARM SET OFF IN ERROR","ALARM",42.299500,-71.377749,"1245 WORCESTER ST, NATICK, MA, 01760"
2024/01/02 10:33:00,"[NAT 855] THRIVE PET HEALTH CARE - 121 WEST CENTRAL ST","Animals (Other) P - Services Rendered","ANIMALS",42.283651,-71.369312,"121 W CENTRAL ST, NATICK, MA, 01760"
2024/01/02 11:20:00,"325 NORTH MAIN ST","MOTOR VEHICLE STOP Citation/ Warning Issued","MOTOR VEHICLE STOP",42.313549,-71.360260,"325 N MAIN ST, NATICK, MA, 01760"
2024/01/02 11:53:00,"[NAT 75] NATICK- WELLESLEY VETERINARY HOSPITAL - 359 WORCESTER ST","Animals (Other) Gone On Arrival","ANIMALS",42.314806,-71.267133,"359 WORCESTER ST, WELLESLEY HILLS, MA, 02481"
2024/01/02 12:10:00," 1 MALL RD","MOTOR VEHICLE STOP Citation/ Warning Issued","MOTOR VEHICLE STOP",42.278235,-71.376336,"1 MILL ST, NATICK, MA, 01760"
2024/01/02 12:28:00,"[NAT 55] 5 WETHERSFIELD RD BLDG - 5 WETHERSFIELD RD","Animals (Other) P - Services Rendered","ANIMALS",42.302483,-71.352197,"5 WETHERSFIELD RD, NATICK, MA, 01760"
2024/01/02 13:37:00,"[NAT 986] ENTERPRISE RENT A CAR - 2 WETHERSFIELD RD","Animals (Other) Gone On Arrival","ANIMALS",42.302191,-71.352426,"2 WETHERSFIELD RD, NATICK, MA, 01760"
2024/01/02 13:53:00,"[NAT 3238] P F CHANG'S CHINA BISTRO - 1245 WORCESTER ST Apt. #4008","MOTOR VEHICLE STOP SUMMONS REQUEST","MOTOR VEHICLE STOP",42.299500,-71.377749,"1245 WORCESTER ST, NATICK, MA, 01760"
2024/01/02 13:57:00,"[NAT 3929] AFC URGENT CARE - 945 WORCESTER ST","MOTOR VEHICLE STOP Citation/ Warning Issued","MOTOR VEHICLE STOP",42.299779,-71.362621,"945 WORCESTER ST, NATICK, MA, 01760"
2024/01/02 14:01:00,"1245 WORCESTER ST ","MOTOR VEHICLE STOP Citation/ Warning Issued","MOTOR VEHICLE STOP",42.299500,-71.377749,"1245 WORCESTER ST, NATICK, MA, 01760"
2024/01/02 14:01:00,"[NAT 943] DALLAMORA REALTY - 987 WORCESTER ST","MOTOR VEHICLE STOP Citation/ Warning Issued","MOTOR VEHICLE STOP",42.299642,-71.363702,"987 WORCESTER ST, NATICK, MA, 01760"
2024/01/02 14:20:00,"203 SPEEN ST","MOTOR VEHICLE STOP Citation/ Warning Issued","MOTOR VEHICLE STOP",42.290863,-71.376123,"203 SPEEN ST, NATICK, MA, 01760"
2024/01/02 14:28:00,"[NAT 2051] HOME DEPOT - 339 SPEEN ST","MOTOR VEHICLE STOP Citation/ Warning Issued","MOTOR VEHICLE STOP",42.301047,-71.379963,"339 SPEEN ST, NATICK, MA, 01760"
2024/01/02 15:59:00,"205 SPEEN ST ","F - MVA with Injury F - No Patient","MOTOR VEHICLE CRASH",42.291260,-71.376223,"205 SPEEN ST, NATICK, MA, 01760"
2024/01/02 16:00:00," 1 HERITAGE LN","ESCORT/ TRANSPORT P - Services Rendered","ESCORT/",42.291101,-71.359671,"1 HERITAGE LN, NATICK, MA, 01760"
2024/01/02 16:02:00,"[NAT 1705] NATICK POLICE DEPARTMENT - 20 EAST CENTRAL ST","SERVE WARRANT Arrest(s) Made","SERVE WARRANT",42.284248,-71.345123,"20 E CENTRAL ST, NATICK, MA, 01760"
2024/01/02 16:06:00,"44 CURVE ST","F - Well Being Check F - Services Provided","Well Being Check",42.276618,-71.356431,"44 CURVE ST, NATICK, MA, 01760"
2024/01/02 17:51:00,"[NAT 1994] VICTORIA'S SECRETS - 1245 WORCESTER ST Apt. #1070","SERVE SUMMONS UNABLE TO SERVE","SERVE SUMMONS",42.299500,-71.377749,"1245 WORCESTER ST, NATICK, MA, 01760"
2024/01/02 18:17:00,"11 REYNOLDS AVE","FOUND/ LOST PROPERTY P - Services Rendered","FOUND/ LOST PROPERTY",42.280641,-71.355058,"11 REYNOLDS AVE, NATICK, MA, 01760"
2024/01/02 18:34:00,"162 HARTFORD ST","M/ V CRASH/ Hit & Run Report to be filed","MOTOR VEHICLE CRASH",42.290821,-71.395367,"162 HARTFORD ST, NATICK, MA, 01760"
2024/01/02 19:07:00,"197 WEST CENTRAL ST","MOTOR VEHICLE STOP Citation/ Warning Issued","MOTOR VEHICLE STOP",42.282015,-71.389705,"197 W CENTRAL ST, NATICK, MA, 01760"
2024/01/02 20:26:00,"[NAT 74] WENDY'S - 355 WORCESTER ST","MOTOR VEHICLE STOP Citation/ Warning Issued","MOTOR VEHICLE STOP",42.314808,-71.267098,"355 WORCESTER ST, WELLESLEY HILLS, MA, 02481"
2024/01/02 21:50:00,"49 WASHINGTON ST","SERVE SUMMONS UNABLE TO SERVE","SERVE SUMMONS",42.287212,-71.346812,"49 WASHINGTON ST, NATICK, MA, 01760"
2024/01/03 00:04:00,"[NAT 3984] BRANDON SCHOOL HOUSE 2 - 27 WINTER ST","MISSING/LOST CHILD P - Services Rendered","MISSING/LOST CHILD",42.319975,-71.362971,"27 WINTER ST, WAYLAND, MA, 01778"
2024/01/03 01:10:00,"328 WEST CENTRAL ST ","ASSIST OTHER AGENCY P - Services Rendered","ASSIST OTHER AGENCY",42.280882,-71.397870,"328 W CENTRAL ST, NATICK, MA, 01760"
2024/01/03 06:43:00,"[NAT 2662] 44 EAST CENTRAL ST ","F - MVA with Injury F - Transport-Hospital","MOTOR VEHICLE CRASH",42.284610,-71.343196,"44 E CENTRAL ST, NATICK, MA, 01760"
2024/01/03 07:06:00,"[NAT 995] ELIOT CHURCH - 49 ELIOT ST","MOTOR VEHICLE CRASH Report to be filed","MOTOR VEHICLE CRASH",42.273949,-71.315012,"49 ELIOT ST, NATICK, MA, 01760"
2024/01/03 07:16:00,"49 WASHINGTON ST","SERVE SUMMONS SERVED IN-HAND","SERVE SUMMONS",42.287212,-71.346812,"49 WASHINGTON ST, NATICK, MA, 01760"
2024/01/03 07:32:00,"[NAT 181] 117 NORTH AVE - 117 NORTH AVE","ALARM, BURGLAR P - ALARM SET OFF IN ERROR","ALARM",42.287353,-71.339624,"117 NORTH AVE, NATICK, MA, 01760"
2024/01/03 07:53:00,"46 COTTAGE ST","Animals (Other) P - Services Rendered","ANIMALS",42.276146,-71.346175,"46 COTTAGE ST, NATICK, MA, 01760"
2024/01/03 08:45:00,"[NAT 3314] J.J. LANE PARK - 185 SPEEN ST","MOTOR VEHICLE STOP P - Services Rendered","MOTOR VEHICLE STOP",42.282216,-71.375839,"185 SPEEN ST, NATICK, MA, 01760"
2024/01/03 09:09:00,"194 NORTH MAIN ST ","MOTOR VEHICLE STOP Citation/ Warning Issued","MOTOR VEHICLE STOP",42.298788,-71.359505,"194 N MAIN ST, NATICK, MA, 01760"
2024/01/03 09:37:00,"[NAT 728] BOX 6113 - 81 HARTFORD ST","MOTOR VEHICLE STOP Arrest(s) Made","MOTOR VEHICLE STOP",42.293633,-71.384642,"81 HARTFORD ST, NATICK, MA, 01760"
2024/01/03 09:38:00,"7 SHATTUCK ST ","MOTOR VEHICLE STOP Citation/ Warning Issued","MOTOR VEHICLE STOP",42.289265,-71.347154,"7 SHATTUCK ST, NATICK, MA, 01760"
2024/01/03 09:50:00,"[NAT 3697] HADLOCK LAW OFFICE P.C. - 679 WORCESTER ST","Animals (Other) P - Services Rendered","ANIMALS",42.306325,-71.295843,"679 WORCESTER ST, WELLESLEY HILLS, MA, 02481"
2024/01/03 09:52:00,"[NAT 4325] MUFFIN HOUSE CAFE - 325 NORTH MAIN ST","HAZARD Gone On Arrival","HAZARD",42.313549,-71.360260,"325 N MAIN ST, NATICK, MA, 01760"
2024/01/03 11:06:00,"575 WORCESTER ST","MOTOR VEHICLE STOP Citation/ Warning Issued","MOTOR VEHICLE STOP",42.308812,-71.285197,"575 WORCESTER ST, WELLESLEY HILLS, MA, 02481"
2024/01/03 11:07:00,"1245 WORCESTER ST","MOTOR VEHICLE STOP Citation/ Warning Issued","MOTOR VEHICLE STOP",42.299500,-71.377749,"1245 WORCESTER ST, NATICK, MA, 01760"
2024/01/03 11:12:00,"51 ELIOT ST ","F - MVA with Injury Report to be filed","MOTOR VEHICLE CRASH",42.273675,-71.315396,"51 ELIOT ST, NATICK, MA, 01760"
2024/01/03 11:27:00,"[FRA] 600 CONCORD ST","ESCORT/ TRANSPORT P - Services Rendered","ESCORT/",42.292559,-71.409285,"600 CONCORD ST, FRAMINGHAM, MA, 01702"
2024/01/03 11:46:00,"41 BROOKDALE RD","LARCENY / FORGERY/ FRAUD Report to be filed","LARCENY / FORGERY/ FRAUD",42.286473,-71.395151,"41 BROOKDALE RD, NATICK, MA, 01760"
2024/01/03 11:50:00,"[NAT 3830] 264 NORTH MAIN ST","LARCENY / FORGERY/ FRAUD Report to be filed","LARCENY / FORGERY/ FRAUD",42.307221,-71.361863,"264 N MAIN ST, NATICK, MA, 01760"
2024/01/03 12:34:00,"[NAT 865] CVS PHARMACY 2125 - 137 WEST CENTRAL ST","HAZARD Removed Hazard","HAZARD",42.283147,-71.372361,"137 W CENTRAL ST, NATICK, MA, 01760"
2024/01/03 12:37:00,"17 WALDEN DR Apt. #2","VANDALISM Report to be filed","VANDALISM",42.276787,-71.387309,"17 WALDEN DR, NATICK, MA, 01760"
2024/01/03 12:55:00,"[NAT 1011] TEMPLE ISRAEL - 145 HARTFORD ST","LOCKOUT (VEHICLE) P - Services Rendered","LOCKOUT",42.291216,-71.403048,"145 HARTFORD ST, FRAMINGHAM, MA, 01702"
2024/01/03 12:59:00,"29 BURNING TREE RD","Animals (Other) P - Services Rendered","ANIMALS",42.283882,-71.388663,"29 BURNING TREE RD, NATICK, MA, 01760"
2024/01/03 13:19:00,"[NAT 75] NATICK- WELLESLEY VETERINARY HOSPITAL - 359 WORCESTER ST","Animals (Other) P - Services Rendered","ANIMALS",42.314806,-71.267133,"359 WORCESTER ST, WELLESLEY HILLS, MA, 02481"
2024/01/03 13:38:00,"167 SOUTH MAIN ST ","MOTOR VEHICLE CRASH Report to be filed","MOTOR VEHICLE CRASH",42.272026,-71.354650,"167 S MAIN ST, NATICK, MA, 01760"
2024/01/03 13:42:00,"159 SOUTH MAIN ST","Animals (Other) P - Services Rendered","ANIMALS",42.272778,-71.354046,"159 S MAIN ST, NATICK, MA, 01760"
2024/01/03 14:20:00,"99 NORTH MAIN ST","Animals (Other) Gone On Arrival","ANIMALS",42.290853,-71.355512,"99 N MAIN ST, NATICK, MA, 01760"
2024/01/03 14:25:00,"12 WINNEMAY ST","PARKING COMPLAINT P - Services Rendered","PARKING COMPLAINT",42.288731,-71.349178,"12 WINNEMAY ST, NATICK, MA, 01760"
2024/01/03 15:22:00,"2 DURANT RD","Animals (Other) P - Services Rendered","ANIMALS",42.275129,-71.360601,"2 DURANT RD, NATICK, MA, 01760"
2024/01/03 17:30:00,"12 WINNEMAY ST","PARKING COMPLAINT P - Services Rendered","PARKING COMPLAINT",42.288731,-71.349178,"12 WINNEMAY ST, NATICK, MA, 01760"
2024/01/03 22:28:00,"2 WELLS ST","SUSPICIOUS ACTIVITY P - Services Rendered","SUSPICIOUS ACTIVITY",42.304531,-71.333842,"2 WELLS ST, NATICK, MA, 01760"
2024/01/04 01:41:00,"[NAT 957] LENSCRAFTERS - 1364 WORCESTER ST","ASSIST OTHER AGENCY P - Services Rendered","ASSIST OTHER AGENCY",42.298770,-71.391463,"1364 WORCESTER ST, NATICK, MA, 01760"
2024/01/04 08:17:00,"3 HERITAGE LN","F - Investigation F - Services Provided","Investigation",42.291120,-71.359667,"3 HERITAGE LN, NATICK, MA, 01760"
2024/01/04 10:00:00,"1 SUPERIOR DR ","MOTOR VEHICLE STOP Citation/ Warning Issued","MOTOR VEHICLE STOP",42.301616,-71.377867,"1 SUPERIOR DR, NATICK, MA, 01760"
2024/01/04 10:04:00,"[NAT 2976] 548 WORCESTER ST - 548 WORCESTER ST","MOTOR VEHICLE STOP Citation/ Warning Issued","MOTOR VEHICLE STOP",42.301315,-71.346613,"548 WORCESTER ST, NATICK, MA, 01760"
2024/01/04 10:06:00,"691 WORCESTER ST ","MOTOR VEHICLE STOP Citation/ Warning Issued","MOTOR VEHICLE STOP",42.306156,-71.296741,"691 WORCESTER ST, WELLESLEY HILLS, MA, 02481"
2024/01/04 10:08:00,"263 SPEEN ST","MOTOR VEHICLE STOP Citation/ Warning Issued","MOTOR VEHICLE STOP",42.296862,-71.377250,"263 SPEEN ST, NATICK, MA, 01760"
2024/01/04 10:20:00,"BEN HEM - 18 EAST EVERGREEN RD","911 HANG UP P - Services Rendered","911 HANG UP",42.307380,-71.360196,"18 E EVERGREEN RD, NATICK, MA, 01760"
2024/01/04 10:25:00,"52 CEDAR AVE","M/ V CRASH/ Hit & Run Report to be filed","MOTOR VEHICLE CRASH",42.276258,-71.356567,"52 CEDAR AVE, NATICK, MA, 01760"
2024/01/04 11:10:00,"[NAT 3843] NATICK HIGH SCHOOL (NEW) - 15 WEST ST","SUSPICIOUS ACTIVITY Report to be filed","SUSPICIOUS ACTIVITY",42.276971,-71.359319,"15 WEST ST, NATICK, MA, 01760"
2024/01/04 11:21:00,"51 POND ST","ASSIST OTHER AGENCY P - Services Rendered","ASSIST OTHER AGENCY",42.282039,-71.351297,"51 POND ST, NATICK, MA, 01760"
2024/01/04 11:32:00,"60 BENNETT ST","SERVE SUMMONS UNABLE TO SERVE","SERVE SUMMONS",42.275641,-71.355393,"60 BENNETT ST, NATICK, MA, 01760"
2024/01/04 11:43:00,"[NAT 4049] ROCHE BOBOIS - 395 WORCESTER ST","MOTOR VEHICLE STOP Citation/ Warning Issued","MOTOR VEHICLE STOP",42.314564,-71.269575,"395 WORCESTER ST, WELLESLEY HILLS, MA, 02481"
2024/01/04 11:52:00,"[NAT 1705] NATICK POLICE DEPARTMENT - 20 EAST CENTRAL ST","ONLINE INCIDENT REPORT Report to be filed","ONLINE INCIDENT REPORT",42.284248,-71.345123,"20 E CENTRAL ST, NATICK, MA, 01760"
2024/01/04 11:52:00,"[NAT 4001] TODOS DANCE STUDIO - 677 WORCESTER ST","MOTOR VEHICLE STOP Citation/ Warning Issued","MOTOR VEHICLE STOP",42.306356,-71.295696,"677 WORCESTER ST, WELLESLEY HILLS, MA, 02481"
2024/01/04 12:01:00,"43 HARWOOD RD","SUSPICIOUS ACTIVITY Log Entry","SUSPICIOUS ACTIVITY",42.307374,-71.339667,"43 HARWOOD RD, NATICK, MA, 01760"
2024/01/04 12:05:00,"[NAT 2929] EASTERN BANK - 2 SOUTH AVE","LARCENY / FORGERY/ FRAUD Report to be filed","LARCENY / FORGERY/ FRAUD",42.285311,-71.347563,"2 SOUTH AVE, NATICK, MA, 01760"
2024/01/04 12:24:00,"40 PARK AVE ","MOTOR VEHICLE STOP Citation/ Warning Issued","MOTOR VEHICLE STOP",42.295118,-71.355403,"40 PARK AVE, NATICK, MA, 01760"
2024/01/04 12:35:00,"262 SPEEN ST ","DISABLED M/V P - Services Rendered","DISABLED M/V",42.297144,-71.377679,"262 SPEEN ST, NATICK, MA, 01760"
2024/01/04 13:16:00,"[WEL] 978 WORCESTER ST Apt. #408","F - Mutual Aid F-Cancelled","Mutual Aid",42.299141,-71.366062,"978 WORCESTER ST, NATICK, MA, 01760"
2024/01/04 13:35:00,"[NAT 3378] 40 SPEEN ST - 40 SPEEN ST","F - Well Being Check P - Services Rendered","Well Being Check",42.274053,-71.378927,"40 SPEEN ST, NATICK, MA, 01760"
2024/01/04 13:51:00,"[NAT 4343] COSTARELLI RESIDENCE - 16 PORTER RD","MOTOR VEHICLE STOP SUMMONS REQUEST","MOTOR VEHICLE STOP",42.293280,-71.391725,"16 PORTER RD, NATICK, MA, 01760"
2024/01/04 13:59:00,"[NAT 75] NATICK- WELLESLEY VETERINARY HOSPITAL - 359 WORCESTER ST","MOTOR VEHICLE STOP Citation/ Warning Issued","MOTOR VEHICLE STOP",42.314806,-71.267133,"359 WORCESTER ST, WELLESLEY HILLS, MA, 02481"
2024/01/04 14:27:00,"[NAT 47] 6 UNION ST OFFICE BLDG - 6 UNION ST","MOTOR VEHICLE STOP Citation/ Warning Issued","MOTOR VEHICLE STOP",42.284639,-71.339960,"6 UNION ST, NATICK, MA, 01760"
2024/01/04 15:03:00,"[NAT 920] FOOD COURT - 1245 WORCESTER ST","SUSPICIOUS ACTIVITY P - Services Rendered","SUSPICIOUS ACTIVITY",42.299500,-71.377749,"1245 WORCESTER ST, NATICK, MA, 01760"
2024/01/04 15:12:00,"[NAT 3843] NATICK HIGH SCHOOL (NEW) - 15 WEST ST","SUSPICIOUS ACTIVITY Report to be filed","SUSPICIOUS ACTIVITY",42.276971,-71.359319,"15 WEST ST, NATICK, MA, 01760"
2024/01/04 16:22:00,"[NAT 135] BRIGHAM GILL MOTORCARS INC - 817 WORCESTER ST","RECOVERED STOLEN MV P - Services Rendered","RECOVERED STOLEN MV",42.305644,-71.310768,"817 WORCESTER ST, WELLESLEY HILLS, MA, 02481"
2024/01/04 16:41:00,"[NAT 3111] CLOVERLEAF APARTMENTS - 325 SPEEN ST Apt. #314","F - Well Being Check P - Services Rendered","Well Being Check",42.301020,-71.379948,"325 SPEEN ST, NATICK, MA, 01760"
2024/01/04 16:53:00,"[NAT 3165] APPLE STORE - 1245 WORCESTER ST Apt. #3082","SHOPLIFTING Report to be filed","SHOPLIFTING",42.299500,-71.377749,"1245 WORCESTER ST, NATICK, MA, 01760"
2024/01/04 16:55:00,"[NAT 24] RAMP FROM RT9 WEST TO NORTH MAIN ST NORTH - RAMP - RT9 WB TO RT27 NB","MOTOR VEHICLE STOP Report to be filed","MOTOR VEHICLE STOP",42.286082,-71.348580,"9 N MAIN ST, NATICK, MA, 01760"
2024/01/04 16:58:00,"11 CLEARVIEW DR","SUSPICIOUS ACTIVITY Report to be filed","SUSPICIOUS ACTIVITY",42.273942,-71.337409,"11 CLEARVIEW DR, NATICK, MA, 01760"
2024/01/04 23:06:00,"[NAT 1063] METROWEST MEDICAL CENTER - LEONARD MORSE HOSP - 67 UNION ST","ASSAULT Report to be filed","ASSAULT",42.280369,-71.332476,"67 UNION ST, NATICK, MA, 01760"
2024/01/05 08:52:00,"23 WEST ST ","M/ V CRASH/ Hit & Run Report to be filed","MOTOR VEHICLE CRASH",42.276756,-71.359396,"23 WEST ST, NATICK, MA, 01760"
2024/01/05 09:03:00,"33 EVERGREEN RD","PARKING COMPLAINT Unfounded","PARKING COMPLAINT",42.308342,-71.365909,"33 EVERGREEN RD, NATICK, MA, 01760"
2024/01/05 10:00:00,"21 OAK ST","Animals (Other) P - Services Rendered","ANIMALS",42.276439,-71.357445,"21 OAKLAND ST EXD, NATICK, MA, 01760"
2024/01/05 10:17:00,"42 WORCESTER ST","Animals (Other) P - Services Rendered","ANIMALS",42.304053,-71.329029,"42 WORCESTER ST, NATICK, MA, 01760"
2024/01/05 10:30:00,"[NAT 1128] NATIONAL GUARD READINESS CENTER - 149 SPEEN ST","ALARM, BURGLAR P - ALARM SET OFF IN ERROR","ALARM",42.280774,-71.376059,"149 SPEEN ST, NATICK, MA, 01760"
2024/01/05 10:35:00,"25 GROVE ST","Animals (Other) Report to be filed","ANIMALS",42.290837,-71.350306,"25 GROVE ST, NATICK, MA, 01760"
2024/01/05 10:51:00,"20 LAKEVIEW GARDENS Apt. #816","ESCORT/ TRANSPORT P - Services Rendered","ESCORT/",42.275652,-71.369569,"20 LAKEVIEW AVE, NATICK, MA, 01760"
2024/01/05 11:06:00,"12 WILLOW ST","LARCENY / FORGERY/ FRAUD P - Services Rendered","LARCENY / FORGERY/ FRAUD",42.287629,-71.348862,"12 WILLOW ST, NATICK, MA, 01760"
2024/01/05 11:16:00,"[NAT 68] MCDONALDS, RT 9 EASTBOUND - 290 WORCESTER ST","MOTOR VEHICLE STOP Citation/ Warning Issued","MOTOR VEHICLE STOP",42.301963,-71.340499,"290 WORCESTER ST, NATICK, MA, 01760"
2024/01/05 11:22:00,"[NAT 2051] HOME DEPOT - 339 SPEEN ST","SUSPICIOUS ACTIVITY Taken/Refer Other Agency","SUSPICIOUS ACTIVITY",42.301047,-71.379963,"339 SPEEN ST, NATICK, MA, 01760"
2024/01/05 11:28:00,"[NAT 3879] BERNARDI AUDI - 549 WORCESTER ST","MOTOR VEHICLE STOP Citation/ Warning Issued","MOTOR VEHICLE STOP",42.309143,-71.284371,"549 WORCESTER ST, WELLESLEY HILLS, MA, 02481"
2024/01/05 11:38:00,"[NAT 3219] L'OCCITANE - 1245 WORCESTER ST Apt. #3004","911 HANG UP P - Services Rendered","911 HANG UP",42.299500,-71.377749,"1245 WORCESTER ST, NATICK, MA, 01760"
2024/01/05 11:40:00,"1245 WORCESTER ST","MOTOR VEHICLE STOP SUMMONS REQUEST","MOTOR VEHICLE STOP",42.299500,-71.377749,"1245 WORCESTER ST, NATICK, MA, 01760"
2024/01/05 11:54:00,"[NAT 3514] CARTERS BABIES & KIDS - 1300 WORCESTER ST Apt. #A","M/ V CRASH/ Hit & Run Report to be filed","MOTOR VEHICLE CRASH",42.298923,-71.387227,"1300 WORCESTER ST, NATICK, MA, 01760"
2024/01/05 11:56:00,"[NAT 3111] CLOVERLEAF APARTMENTS - 325 SPEEN ST Apt. #1002","ANIMALS, BARKING DOG P - Services Rendered","ANIMALS",42.301020,-71.379948,"325 SPEEN ST, NATICK, MA, 01760"
2024/01/05 12:12:00,"1270 WORCESTER ST","MOTOR VEHICLE STOP Citation/ Warning Issued","MOTOR VEHICLE STOP",42.298927,-71.387165,"1270 WORCESTER ST, NATICK, MA, 01760"
2024/01/05 12:50:00,"[NAT 3780] 1245 WORCESTER ST Apt. #2084","FOUND/ LOST PROPERTY Log Entry","FOUND/ LOST PROPERTY",42.299500,-71.377749,"1245 WORCESTER ST, NATICK, MA, 01760"
2024/01/05 12:54:00,"[NAT 3111] CLOVERLEAF APARTMENTS - 325 SPEEN ST Apt. #314","Animals (Other) P - Services Rendered","ANIMALS",42.301020,-71.379948,"325 SPEEN ST, NATICK, MA, 01760"
2024/01/05 13:31:00,"25 WEST CENTRAL ST","Animals (Other) P - Services Rendered","ANIMALS",42.283594,-71.349349,"25 W CENTRAL ST, NATICK, MA, 01760"
2024/01/05 13:38:00,"21 PARK AVE","LARCENY / FORGERY/ FRAUD Report to be filed","LARCENY / FORGERY/ FRAUD",42.292889,-71.354726,"21 PARK AVE, NATICK, MA, 01760"
2024/01/05 13:39:00,"[NAT 1986] SUNGLASS HUT - 1245 WORCESTER ST Apt. #2024","LARCENY / FORGERY/ FRAUD Report to be filed","LARCENY / FORGERY/ FRAUD",42.299500,-71.377749,"1245 WORCESTER ST, NATICK, MA, 01760"
2024/01/05 14:24:00,"190 NORTH MAIN ST","HAZARD Removed Hazard","HAZARD",42.298626,-71.359458,"190 N MAIN ST, NATICK, MA, 01760"
2024/01/05 14:49:00,"[NAT 3747] ZAFTIGS WEST - 1298 WORCESTER ST Apt. #G","SUSPICIOUS ACTIVITY Log Entry","SUSPICIOUS ACTIVITY",42.298923,-71.387223,"1298 WORCESTER ST, NATICK, MA, 01760"
2024/01/05 15:02:00,"315 NORTH MAIN ST","BYLAW VIOLATION Report to be filed","BYLAW VIOLATION",42.312576,-71.360270,"315 N MAIN ST, NATICK, MA, 01760"
2024/01/05 15:35:00,"[NAT 3843] NATICK HIGH SCHOOL (NEW) - 15 WEST ST","FOUND/ LOST PROPERTY P - Services Rendered","FOUND/ LOST PROPERTY",42.276971,-71.359319,"15 WEST ST, NATICK, MA, 01760"
2024/01/05 18:19:00,"226 SOUTH MAIN ST ","ERRATIC OPERATOR P - Services Rendered","ERRATIC OPERATOR",42.264835,-71.361133,"226 S MAIN ST, NATICK, MA, 01760"
2024/01/05 18:27:00,"[NAT 3019] MACY'S - 1247 WORCESTER ST","SHOPLIFTING SUMMONS REQUEST","SHOPLIFTING",42.299501,-71.377795,"1247 WORCESTER ST, NATICK, MA, 01760"
2024/01/05 18:40:00,"[NAT 2047] SPEEDWAY - 194 WEST CENTRAL ST","MOTOR VEHICLE CRASH Report to be filed","MOTOR VEHICLE CRASH",42.282353,-71.382449,"194 W CENTRAL ST, NATICK, MA, 01760"
2024/01/05 19:15:00,"106 SPEEN ST","ALARM, BURGLAR P - ALARM SET OFF IN ERROR","ALARM",42.283873,-71.375448,"106 SPEEN ST, NATICK, MA, 01760"
2024/01/05 19:27:00,"[NAT 655] LONGFELLOW SPORTS CLUB - 203 OAK ST","LARCENY / FORGERY/ FRAUD Report to be filed","LARCENY / FORGERY/ FRAUD",42.314370,-71.339228,"203 OAK ST, NATICK, MA, 01760"
2024/01/05 19:36:00,"[NAT 3837] BILL'S PIZZERIA - 58 EAST CENTRAL ST","Animals (Other) P - Services Rendered","ANIMALS",42.284902,-71.341734,"58 E CENTRAL ST, NATICK, MA, 01760"
2024/01/05 19:47:00,"[NAT 3019] MACY'S - 1247 WORCESTER ST","SHOPLIFTING Civil Matter","SHOPLIFTING",42.299501,-71.377795,"1247 WORCESTER ST, NATICK, MA, 01760"
2024/01/05 20:44:00,"7 VILLAGE WAY Apt. #3","SUSPICIOUS ACTIVITY Report to be filed","SUSPICIOUS ACTIVITY",42.280462,-71.390167,"7 VILLAGE WAY, NATICK, MA, 01760"
2024/01/05 21:03:00,"[NAT 3814] JD SPORTS (FORMER FINISH LINE) - 1245 WORCESTER ST Apt. #1020","SHOPLIFTING P - Services Rendered","SHOPLIFTING",42.299500,-71.377749,"1245 WORCESTER ST, NATICK, MA, 01760"
2024/01/05 21:18:00,"[NAT 2101] NATICK MALL (PARKING DECK C) - 1249 WORCESTER ST","MOTOR VEHICLE STOP Citation/ Warning Issued","MOTOR VEHICLE STOP",42.299503,-71.377842,"1249 WORCESTER ST, NATICK, MA, 01760"
2024/01/06 08:48:00,"[NAT 4342] ARHAUS FURNITURE - 323 SPEEN ST","ALARM, BURGLAR P - ALARM SET OFF IN ERROR","ALARM",42.301016,-71.379945,"323 SPEEN ST, NATICK, MA, 01760"
2024/01/06 09:13:00,"178 S MAIN ST ","Animals (Other) P - Services Rendered","ANIMALS",42.271767,-71.354674,"178 S MAIN ST, NATICK, MA, 01760"
2024/01/06 09:40:00,"1245 WORCESTER ST","MOTOR VEHICLE STOP Citation/ Warning Issued","MOTOR VEHICLE STOP",42.299500,-71.377749,"1245 WORCESTER ST, NATICK, MA, 01760"
2024/01/06 10:07:00,"[NAT 3879] BERNARDI AUDI - 549 WORCESTER ST","MOTOR VEHICLE STOP Citation/ Warning Issued","MOTOR VEHICLE STOP",42.309143,-71.284371,"549 WORCESTER ST, WELLESLEY HILLS, MA, 02481"
2024/01/06 10:24:00,"[NAT 68] MCDONALDS, RT 9 EASTBOUND - 290 WORCESTER ST","MOTOR VEHICLE STOP Citation/ Warning Issued","MOTOR VEHICLE STOP",42.301963,-71.340499,"290 WORCESTER ST, NATICK, MA, 01760"
2024/01/06 10:29:00,"125 NORTH MAIN ST","MOTOR VEHICLE STOP Citation/ Warning Issued","MOTOR VEHICLE STOP",42.293155,-71.357431,"125 N MAIN ST, NATICK, MA, 01760"
2024/01/06 10:57:00,"[NAT 3728] PLANET FITNESS - 215 WEST CENTRAL ST","MOTOR VEHICLE STOP Citation/ Warning Issued","MOTOR VEHICLE STOP",42.281997,-71.390006,"215 W CENTRAL ST, NATICK, MA, 01760"
2024/01/06 12:05:00,"535 WORCESTER ST","MOTOR VEHICLE STOP Citation/ Warning Issued","MOTOR VEHICLE STOP",42.309747,-71.282890,"535 WORCESTER ST, WELLESLEY HILLS, MA, 02481"
2024/01/06 12:36:00,"[NAT 3019] MACY'S - 1247 WORCESTER ST","SHOPLIFTING P - Services Rendered","SHOPLIFTING",42.299501,-71.377795,"1247 WORCESTER ST, NATICK, MA, 01760"
2024/01/06 13:33:00,"[NAT 963] HAMPTON INN - 319 SPEEN ST","MOTOR VEHICLE CRASH Report to be filed","MOTOR VEHICLE CRASH",42.301009,-71.379941,"319 SPEEN ST, NATICK, MA, 01760"
2024/01/06 14:08:00,"1245 WORCESTER ST","MOTOR VEHICLE STOP Citation/ Warning Issued","MOTOR VEHICLE STOP",42.299500,-71.377749,"1245 WORCESTER ST, NATICK, MA, 01760"
2024/01/06 14:11:00,"18 TAMARACK RD","F - Well Being Check Report to be filed","Well Being Check",42.283459,-71.393855,"18 TAMARACK RD, NATICK, MA, 01760"
2024/01/06 14:51:00,"[NAT 865] CVS PHARMACY 2125 - 137 WEST CENTRAL ST","PARKING COMPLAINT Gone On Arrival","PARKING COMPLAINT",42.283147,-71.372361,"137 W CENTRAL ST, NATICK, MA, 01760"
2024/01/06 16:33:00,"[NAT 1532] 28 WEST CENTRAL ST - 28 WEST CENTRAL ST Apt. #2","COMPLAINT P - Services Rendered","COMPLAINT",42.283347,-71.350251,"28 W CENTRAL ST, NATICK, MA, 01760"
2024/01/06 16:59:00,"242 SPEEN ST ","MOTOR VEHICLE STOP Citation/ Warning Issued","MOTOR VEHICLE STOP",42.294937,-71.376894,"242 SPEEN ST, NATICK, MA, 01760"
2024/01/06 17:05:00,"[NAT 1547] SUNNYSIDE PLAZA - 915 WORCESTER ST","MOTOR VEHICLE STOP SUMMONS REQUEST","MOTOR VEHICLE STOP",42.299876,-71.361849,"915 WORCESTER ST, NATICK, MA, 01760"
2024/01/06 17:12:00,"5 PINE ST ","HAZARD Gone On Arrival","HAZARD",42.314252,-71.359736,"5 PINE ST, NATICK, MA, 01760"
2024/01/06 17:48:00,"[NAT 79] BERNARDI HONDA - 960 WORCESTER ST","MOTOR VEHICLE STOP Citation/ Warning Issued","MOTOR VEHICLE STOP",42.299258,-71.365104,"960 WORCESTER ST, NATICK, MA, 01760"
2024/01/06 17:59:00,"[NAT 3287] NORDSTROM - 290 SPEEN ST","LARCENY / FORGERY/ FRAUD Report to be filed","LARCENY / FORGERY/ FRAUD",42.299269,-71.379049,"290 SPEEN ST, NATICK, MA, 01760"
2024/01/06 20:07:00,"[NAT 68] MCDONALDS, RT 9 EASTBOUND - 290 WORCESTER ST","MOTOR VEHICLE STOP Citation/ Warning Issued","MOTOR VEHICLE STOP",42.301963,-71.340499,"290 WORCESTER ST, NATICK, MA, 01760"
2024/01/06 20:28:00,"1245 WORCESTER ST","MOTOR VEHICLE STOP Citation/ Warning Issued","MOTOR VEHICLE STOP",42.299500,-71.377749,"1245 WORCESTER ST, NATICK, MA, 01760"
2024/01/06 20:36:00,"66 WELLESLEY ROAD EXT","PARKING COMPLAINT P - Services Rendered","PARKING COMPLAINT",42.307176,-71.332126,"66 WELLESLEY RD EXD, NATICK, MA, 01760"
2024/01/06 21:07:00,"5 PINE ST ","DISABLED M/V P - Services Rendered","DISABLED M/V",42.314252,-71.359736,"5 PINE ST, NATICK, MA, 01760"
2024/01/06 21:47:00,"[NAT 435] CENTER FOR THE ARTS (TCAN) - 14 SUMMER ST","DISTURBANCE Report to be filed","DISTURBANCE",42.284470,-71.348222,"14 SUMMER ST, NATICK, MA, 01760"
2024/01/06 22:56:00,"17 WALDEN DR Apt. #2","DISTURBANCE SUMMONS REQUEST","DISTURBANCE",42.276787,-71.387309,"17 WALDEN DR, NATICK, MA, 01760"
2024/01/06 23:21:00,"17 WALDEN DR Apt. #2","DISTURBANCE Gone On Arrival","DISTURBANCE",42.276787,-71.387309,"17 WALDEN DR, NATICK, MA, 01760"
2024/01/07 01:07:00,"101 NORTH MAIN ST","DISABLED M/V P - Services Rendered","DISABLED M/V",42.291087,-71.355793,"101 N MAIN ST, NATICK, MA, 01760"
2024/01/07 01:18:00,"[NAT 1203] CLARKS BLOCK - 2 SUMMER ST","PARKING COMPLAINT P - Services Rendered","PARKING COMPLAINT",42.284561,-71.347539,"2 SUMMER ST, NATICK, MA, 01760"
2024/01/07 05:13:00,"2 SUMMER ST","PARKING COMPLAINT Vehicle Towed","PARKING COMPLAINT",42.284561,-71.347539,"2 SUMMER ST, NATICK, MA, 01760"
2024/01/07 05:36:00,"17 WALCOTT ST","PARKING COMPLAINT P - Services Rendered","PARKING COMPLAINT",42.278094,-71.348300,"17 WALCOTT ST, NATICK, MA, 01760"
2024/01/07 07:27:00,"49 HARTFORD ST","F - Wire Down P - Services Rendered","Wire Down",42.295443,-71.381366,"49 HARTFORD ST, NATICK, MA, 01760"
2024/01/07 08:15:00,"RAMP - SPEEN ST TO RT9 EB","MOTOR VEHICLE CRASH Report to be filed","MOTOR VEHICLE CRASH",42.281561,-71.346182,"9 EAST ST, NATICK, MA, 01760"
2024/01/07 08:41:00,"[NAT 3287] NORDSTROM - 290 SPEEN ST","ALARM, BURGLAR P - ALARM BLDG Chk Secure","ALARM",42.299269,-71.379049,"290 SPEEN ST, NATICK, MA, 01760"
2024/01/07 08:59:00,"[NAT 3925] NIC AND ZOE - 323 SPEEN ST Apt. #ST","MOTOR VEHICLE CRASH P - Services Rendered","MOTOR VEHICLE CRASH",42.301016,-71.379945,"323 SPEEN ST, NATICK, MA, 01760"
2024/01/07 09:03:00,"5 FRANKLIN ST","SUSPICIOUS ACTIVITY P - Services Rendered","SUSPICIOUS ACTIVITY",42.286357,-71.345575,"5 FRANKLIN ST, NATICK, MA, 01760"
2024/01/07 09:23:00,"13 CHARLES ST ","HAZARD P - Services Rendered","HAZARD",42.290967,-71.351869,"13 CHARLES ST, NATICK, MA, 01760"
2024/01/07 10:02:00,"209 EAST CENTRAL ST","F - Wire Down F - Services Provided","Wire Down",42.290221,-71.328261,"209 E CENTRAL ST, NATICK, MA, 01760"
2024/01/07 10:33:00,"23 WESTFIELD RD","PARKING COMPLAINT P - Services Rendered","PARKING COMPLAINT",42.284197,-71.380295,"23 WESTFIELD RD, NATICK, MA, 01760"
2024/01/07 11:40:00,"[NAT 3314] J.J. LANE PARK - 185 SPEEN ST","MOTOR VEHICLE CRASH Report to be filed","MOTOR VEHICLE CRASH",42.282216,-71.375839,"185 SPEEN ST, NATICK, MA, 01760"
2024/01/07 12:31:00,"113 SPEEN ST ","MOTOR VEHICLE CRASH Report to be filed","MOTOR VEHICLE CRASH",42.279339,-71.376253,"113 SPEEN ST, NATICK, MA, 01760"
2024/01/07 12:41:00,"32 CLUBHOUSE LN","HAZARD P - Services Rendered","HAZARD",42.328620,-71.334955,"32 CLUBHOUSE LN, WAYLAND, MA, 01778"
2024/01/07 14:09:00,"29 COACHMAN LN","HAZARD P - Services Rendered","HAZARD",42.294123,-71.396371,"29 COACHMAN LN, NATICK, MA, 01760"
2024/01/07 15:41:00," 130 NORTH MAIN ST","MOTOR VEHICLE CRASH Report to be filed","MOTOR VEHICLE CRASH",42.293854,-71.357866,"130 N MAIN ST, NATICK, MA, 01760"
2024/01/07 17:12:00,"11 WINTER ST","MOTOR VEHICLE CRASH Report to be filed","MOTOR VEHICLE CRASH",42.318762,-71.340707,"11 WINTER ST, NATICK, MA, 01760"
2024/01/07 18:19:00,"9 BEVERLY RD","F - Wire Down F - Services Provided","Wire Down",42.306074,-71.333711,"9 BEVERLY RD, NATICK, MA, 01760"
2024/01/07 19:21:00,"6 VILLAGE HILL LN","M/ V CRASH/ PRIVATE PROPERTY Report to be filed","MOTOR VEHICLE CRASH",42.277322,-71.394570,"6 VILLAGE HILL LN, NATICK, MA, 01760"
2024/01/08 00:25:00,"[NAT 301] NATICK VILLAGE - CONDO OFFICE - 18 VILLAGE WAY","ALARM, BURGLAR P - ALARM BLDG Chk Secure","ALARM",42.280298,-71.390150,"18 VILLAGE WAY, NATICK, MA, 01760"
2024/01/08 05:44:00,"[NAT 1511] MONTICELLO MOTEL - 1446 WORCESTER ST Apt. #124","REMOVE UNWANTED PERSON(S) Unfounded","REMOVE UNWANTED PERSON(S)",42.298763,-71.391695,"1446 WORCESTER ST, NATICK, MA, 01760"
2024/01/08 05:55:00,"25 HUNTERS LN","ALARM, BURGLAR P - ALARM SET OFF IN ERROR","ALARM",42.272465,-71.351518,"25 HUNTERS LN, NATICK, MA, 01760"
2024/01/08 06:11:00,"CHANG DENTAL GROUP - 220 NORTH MAIN ST","SUSPICIOUS ACTIVITY P - Services Rendered","SUSPICIOUS ACTIVITY",42.304181,-71.361611,"220 N MAIN ST, NATICK, MA, 01760"
2024/01/08 06:29:00,"175 OAK ST ","HAZARD P - Services Rendered","HAZARD",42.311705,-71.334892,"175 OAK ST, NATICK, MA, 01760"
2024/01/08 08:26:00,"[NAT 671] CROSS SERVICES GROUP INC - 19 TECH CIR","LOCKOUT (VEHICLE) P - Services Rendered","LOCKOUT",42.313874,-71.337741,"19 TECH CIR, NATICK, MA, 01760"
2024/01/08 11:07:00,"15 WALDEN DR Apt. #14","SERVE SUMMONS UNABLE TO SERVE","SERVE SUMMONS",42.276767,-71.387344,"15 WALDEN DR, NATICK, MA, 01760"
2024/01/08 11:34:00,"1245 WORCESTER ST","MOTOR VEHICLE STOP Citation/ Warning Issued","MOTOR VEHICLE STOP",42.299500,-71.377749,"1245 WORCESTER ST, NATICK, MA, 01760"
2024/01/08 11:40:00,"1245 WORCESTER ST","MOTOR VEHICLE STOP Citation/ Warning Issued","MOTOR VEHICLE STOP",42.299500,-71.377749,"1245 WORCESTER ST, NATICK, MA, 01760"
2024/01/08 12:09:00,"8 OAK ST","MOTOR VEHICLE STOP Citation/ Warning Issued","MOTOR VEHICLE STOP",42.295187,-71.328983,"8 OAK ST, NATICK, MA, 01760"
2024/01/08 12:23:00,"226 OAK ST","MOTOR VEHICLE STOP Citation/ Warning Issued","MOTOR VEHICLE STOP",42.316502,-71.340981,"226 OAK ST, NATICK, MA, 01760"
2024/01/08 12:33:00,"33 EAST EVERGREEN RD","Animals (Other) P - Services Rendered","ANIMALS",42.306727,-71.356197,"33 E EVERGREEN RD, NATICK, MA, 01760"
2024/01/08 12:36:00,"[NAT 3929] AFC URGENT CARE - 945 WORCESTER ST","MOTOR VEHICLE STOP Citation/ Warning Issued","MOTOR VEHICLE STOP",42.299779,-71.362621,"945 WORCESTER ST, NATICK, MA, 01760"
2024/01/08 12:41:00,"[NAT 2653] CAMP ARROWHEAD - 1055 WORCESTER ST","MOTOR VEHICLE STOP Citation/ Warning Issued","MOTOR VEHICLE STOP",42.299422,-71.365450,"1055 WORCESTER ST, NATICK, MA, 01760"
2024/01/08 12:48:00,"[NAT 2371] SHERWOOD PLAZA (WEST) - 1298 WORCESTER ST","MOTOR VEHICLE STOP Citation/ Warning Issued","MOTOR VEHICLE STOP",42.298923,-71.387223,"1298 WORCESTER ST, NATICK, MA, 01760"
2024/01/08 12:49:00,"[NAT 79] BERNARDI HONDA - 960 WORCESTER ST","MOTOR VEHICLE STOP SUMMONS REQUEST","MOTOR VEHICLE STOP",42.299258,-71.365104,"960 WORCESTER ST, NATICK, MA, 01760"
2024/01/08 13:12:00,"38 BENNETT ST","F - Well Being Check F - Services Provided","Well Being Check",42.275350,-71.354706,"38 BENNETT ST, NATICK, MA, 01760"
2024/01/08 13:58:00,"155 HARTFORD ST ","MOTOR VEHICLE STOP SUMMONS REQUEST","MOTOR VEHICLE STOP",42.290774,-71.393834,"155 HARTFORD ST, NATICK, MA, 01760"
2024/01/08 14:23:00,"329 SPEEN ST ","MOTOR VEHICLE STOP Citation/ Warning Issued","MOTOR VEHICLE STOP",42.301028,-71.379952,"329 SPEEN ST, NATICK, MA, 01760"
2024/01/08 14:40:00,"8 LAKEVIEW GARDENS","MOTOR VEHICLE TOW Vehicle Towed","MOTOR VEHICLE TOW",42.275749,-71.369592,"8 LAKEVIEW AVE, NATICK, MA, 01760"
2024/01/08 15:01:00,"517 WORCESTER ST ","DISABLED M/V P - Services Rendered","DISABLED M/V",42.310568,-71.280848,"517 WORCESTER ST, WELLESLEY HILLS, MA, 02481"
2024/01/08 15:26:00,"1 WEST CENTRAL ST ","MOTOR VEHICLE CRASH Report to be filed","MOTOR VEHICLE CRASH",42.283832,-71.347361,"1 W CENTRAL ST, NATICK, MA, 01760"
2024/01/08 16:13:00,"[DRA] 59 MILL ST","ASSIST OTHER AGENCY P - Services Rendered","ASSIST OTHER AGENCY",42.282329,-71.380422,"59 MILL ST, NATICK, MA, 01760"
2024/01/08 16:44:00,"25 WEST CENTRAL ST","NEIGHBOR DISPUTE Report to be filed","NEIGHBOR DISPUTE",42.283594,-71.349349,"25 W CENTRAL ST, NATICK, MA, 01760"
2024/01/08 16:55:00,"46 WESTLAKE RD","F - Carbon Monoxide Invest. F - Services Provided","Carbon Monoxide Invest.",42.309886,-71.358292,"46 WESTLAKE RD, NATICK, MA, 01760"
2024/01/08 16:59:00,"[NAT 1811] A D COLA LIGHTING - 86 WORCESTER ST","LARCENY / FORGERY/ FRAUD Report to be filed","LARCENY / FORGERY/ FRAUD",42.303863,-71.330327,"86 WORCESTER ST, NATICK, MA, 01760"
2024/01/08 17:46:00,"44 BRADFORD RD","F - Well Being Check F - Services Provided","Well Being Check",42.310653,-71.347549,"44 BRADFORD RD, NATICK, MA, 01760"
2024/01/08 19:01:00,"[NAT 3019] MACY'S - 1247 WORCESTER ST","SHOPLIFTING Arrest(s) Made","SHOPLIFTING",42.299501,-71.377795,"1247 WORCESTER ST, NATICK, MA, 01760"
2024/01/08 19:31:00,"[NAT 2051] HOME DEPOT - 339 SPEEN ST","LARCENY / FORGERY/ FRAUD SUMMONS REQUEST","LARCENY / FORGERY/ FRAUD",42.301047,-71.379963,"339 SPEEN ST, NATICK, MA, 01760"
2024/01/08 22:28:00,"[NAT 1063] METROWEST MEDICAL CENTER - LEONARD MORSE HOSP - 67 UNION ST","COMPLAINT Log Entry","COMPLAINT",42.280369,-71.332476,"67 UNION ST, NATICK, MA, 01760"
2024/01/08 22:46:00,"48 SILVER HILL LN Apt. #16","NOISE COMPLAINT Unfounded","NOISE COMPLAINT",42.277903,-71.384684,"48 SILVER HILL LN, NATICK, MA, 01760"
2024/01/08 23:36:00,"[NAT 3879] BERNARDI AUDI - 549 WORCESTER ST","SUSPICIOUS ACTIVITY Unfounded","SUSPICIOUS ACTIVITY",42.309143,-71.284371,"549 WORCESTER ST, WELLESLEY HILLS, MA, 02481"
2024/01/09 06:07:00,"[NAT 1063] METROWEST MEDICAL CENTER - LEONARD MORSE HOSP - 67 UNION ST","DISTURBANCE P - Services Rendered","DISTURBANCE",42.280369,-71.332476,"67 UNION ST, NATICK, MA, 01760"
2024/01/09 07:27:00,"[NAT 4184] DAVE AND BUSTERS-2ND FLOOR - 1235 WORCESTER ST Apt. #200","ALARM, BURGLAR P - ALARM BLDG Chk Secure","ALARM",42.299493,-71.377519,"1235 WORCESTER ST, NATICK, MA, 01760"
2024/01/09 08:09:00,"2 WORCESTER ST ","DISABLED M/V Unfounded","DISABLED M/V",42.304222,-71.326689,"2 WORCESTER ST, NATICK, MA, 01760"
2024/01/09 08:22:00,"[FRA] NATICK DISTRICT COURT - 600 CONCORD ST","ESCORT/ TRANSPORT P - Services Rendered","ESCORT/",42.292559,-71.409285,"600 CONCORD ST, FRAMINGHAM, MA, 01702"
2024/01/09 08:30:00,"[NAT 466] 7- ELEVEN - 172 NORTH MAIN ST","MOTOR VEHICLE CRASH Report to be filed","MOTOR VEHICLE CRASH",42.297786,-71.359299,"172 N MAIN ST, NATICK, MA, 01760"
2024/01/09 08:57:00,"[NAT 3728] PLANET FITNESS - 215 WEST CENTRAL ST","MOTOR VEHICLE STOP Citation/ Warning Issued","MOTOR VEHICLE STOP",42.281997,-71.390006,"215 W CENTRAL ST, NATICK, MA, 01760"
2024/01/09 09:09:00,"[NAT 4160] ALDI - 321 SPEEN ST","MOTOR VEHICLE CRASH Report to be filed","MOTOR VEHICLE CRASH",42.301013,-71.379943,"321 SPEEN ST, NATICK, MA, 01760"
2024/01/09 09:11:00,"[NAT 220] SCRUB A DUB AUTO WASH OF NATICK - 172 WORCESTER ST","MOTOR VEHICLE STOP Citation/ Warning Issued","MOTOR VEHICLE STOP",42.303126,-71.333385,"172 WORCESTER ST, NATICK, MA, 01760"
2024/01/09 09:29:00,"120 HARTFORD ST ","MOTOR VEHICLE STOP Citation/ Warning Issued","MOTOR VEHICLE STOP",42.291854,-71.389420,"120 HARTFORD ST, NATICK, MA, 01760"
2024/01/09 09:37:00,"88 CEDAR AVE Apt. #B","SERVE WARRANT UNABLE TO SERVE","SERVE WARRANT",42.276828,-71.315838,"88 CEDAR ST, NATICK, MA, 01760"
2024/01/09 10:01:00,"17 PROCTOR ST","SERVE WARRANT UNABLE TO SERVE","SERVE WARRANT",42.273270,-71.370573,"17 PROCTOR ST, NATICK, MA, 01760"
2024/01/09 10:24:00,"164 MILL ST","MOTOR VEHICLE STOP SUMMONS REQUEST","MOTOR VEHICLE STOP",42.289061,-71.385185,"164 MILL ST, NATICK, MA, 01760"
2024/01/09 11:59:00,"88 CEDAR AVE Apt. #B","SERVE WARRANT UNABLE TO SERVE","SERVE WARRANT",42.276828,-71.315838,"88 CEDAR ST, NATICK, MA, 01760"
2024/01/09 12:16:00,"52 NORTH AVE Apt. #1","SERVE WARRANT UNABLE TO SERVE","SERVE WARRANT",42.286388,-71.345165,"52 NORTH AVE, NATICK, MA, 01760"
2024/01/09 12:27:00,"[NAT 4025] TOTAL WINE AND MORE - 321 SPEEN ST","SUSPICIOUS ACTIVITY Unfounded","SUSPICIOUS ACTIVITY",42.301013,-71.379943,"321 SPEEN ST, NATICK, MA, 01760"
2024/01/09 12:31:00,"5 LAKEVIEW GARDENS Apt. #307","SERVE WARRANT UNABLE TO SERVE","SERVE WARRANT",42.277552,-71.370192,"5 LAKEVIEW AVE, NATICK, MA, 01760"
2024/01/09 12:32:00,"[NAT 1547] SUNNYSIDE PLAZA - 915 WORCESTER ST","MOTOR VEHICLE STOP SUMMONS REQUEST","MOTOR VEHICLE STOP",42.299876,-71.361849,"915 WORCESTER ST, NATICK, MA, 01760"
2024/01/09 12:38:00,"52 NORTH AVE","SERVE WARRANT Arrest(s) Made","SERVE WARRANT",42.286388,-71.345165,"52 NORTH AVE, NATICK, MA, 01760"
2024/01/09 12:58:00,"[NAT 610] ATTY RICHARD A GLASER - 279 WEST CENTRAL ST","MOTOR VEHICLE STOP P - Services Rendered","MOTOR VEHICLE STOP",42.281799,-71.393053,"279 W CENTRAL ST, NATICK, MA, 01760"
2024/01/09 13:18:00,"[NAT 1100] WEST NATICK FIRE STATION - 268 SPEEN ST","MOTOR VEHICLE STOP Citation/ Warning Issued","MOTOR VEHICLE STOP",42.297170,-71.377703,"268 SPEEN ST, NATICK, MA, 01760"
2024/01/09 13:48:00," 3 GIBSON RD","MOTOR VEHICLE STOP SUMMONS REQUEST","MOTOR VEHICLE STOP",42.290109,-71.395177,"3 GIBSON RD, NATICK, MA, 01760"
2024/01/09 14:02:00,"[FRA] 600 CONCORD ST","ESCORT/ TRANSPORT P - Services Rendered","ESCORT/",42.292559,-71.409285,"600 CONCORD ST, FRAMINGHAM, MA, 01702"
2024/01/09 14:14:00,"[NAT 66] STAPLES OFFICE SUPPLIES - 881 WORCESTER ST","SOLICITOR(S) P - Services Rendered","SOLICITOR(S)",42.305408,-71.313606,"881 WORCESTER ST, WELLESLEY, MA, 02482"
2024/01/09 14:29:00,"190 NORTH MAIN ST","MOTOR VEHICLE STOP SUMMONS REQUEST","MOTOR VEHICLE STOP",42.298626,-71.359458,"190 N MAIN ST, NATICK, MA, 01760"
2024/01/09 15:01:00,"[NAT 3491] 139 EVERETT ST - 139 EVERETT ST","ALARM, BURGLAR P - ALARM SET OFF IN ERROR","ALARM",42.259746,-71.354457,"139 EVERETT ST, NATICK, MA, 01760"
2024/01/09 15:18:00,"[NAT 1705] NATICK POLICE DEPARTMENT - 20 EAST CENTRAL ST","FOUND/ LOST PROPERTY P - Services Rendered","FOUND/ LOST PROPERTY",42.284248,-71.345123,"20 E CENTRAL ST, NATICK, MA, 01760"
2024/01/09 15:32:00,"[NAT 3728] PLANET FITNESS - 215 WEST CENTRAL ST","SUSPICIOUS ACTIVITY Report to be filed","SUSPICIOUS ACTIVITY",42.281997,-71.390006,"215 W CENTRAL ST, NATICK, MA, 01760"
2024/01/09 17:09:00,"11 GROVE RD","F - Well Being Check Report to be filed","Well Being Check",42.302727,-71.327272,"11 GROVE RD, NATICK, MA, 01760"
2024/01/09 17:13:00,"[NAT 2662] NATICK FIRE DEPARTMENT - 22 EAST CENTRAL ST","MOTOR VEHICLE CRASH Report to be filed","MOTOR VEHICLE CRASH",42.284254,-71.345093,"22 E CENTRAL ST, NATICK, MA, 01760"
2024/01/09 17:25:00,"17 WALDEN DR Apt. #2","DISTURBANCE Report to be filed","DISTURBANCE",42.276787,-71.387309,"17 WALDEN DR, NATICK, MA, 01760"
2024/01/09 17:33:00,"[NAT 3019] MACY'S - 1247 WORCESTER ST","SHOPLIFTING SUMMONS REQUEST","SHOPLIFTING",42.299501,-71.377795,"1247 WORCESTER ST, NATICK, MA, 01760"
2024/01/09 18:04:00,"116 POND ST","911 HANG UP P - Services Rendered","911 HANG UP",42.279971,-71.359544,"116 POND ST, NATICK, MA, 01760"
2024/01/09 18:13:00,"24 PHILLIPS POND RD","SUSPICIOUS ACTIVITY Report to be filed","SUSPICIOUS ACTIVITY",42.258734,-71.317350,"24 PHILLIPS POND RD, NATICK, MA, 01760"
2024/01/09 19:07:00,"[NAT 4037] LA FITNESS - 1 DEAN RD","LARCENY / FORGERY/ FRAUD P - Services Rendered","LARCENY / FORGERY/ FRAUD",42.296920,-71.387206,"1 DEAN RD, NATICK, MA, 01760"
2024/01/09 19:19:00,"7 MORGAN DR Apt. #301","F - Well Being Check F - No Patient","Well Being Check",42.266036,-71.354032,"7 MORGAN DR, NATICK, MA, 01760"
2024/01/10 00:28:00,"3 LINCOLN CIR","NOISE COMPLAINT P - Services Rendered","NOISE COMPLAINT",42.279766,-71.340968,"3 LINCOLN CIR, NATICK, MA, 01760"
2024/01/10 04:10:00,"242 SPEEN ST","SUSPICIOUS ACTIVITY Unfounded","SUSPICIOUS ACTIVITY",42.294937,-71.376894,"242 SPEEN ST, NATICK, MA, 01760"
2024/01/10 07:35:00,"10 MORSE ST Apt. #B","ALARM, BURGLAR P - ALARM BLDG Chk Secure","ALARM",42.283052,-71.344593,"10 MORSE ST, NATICK, MA, 01760"
2024/01/10 07:58:00,"42 SILVER HILL LN Apt. #3","F - Well Being Check P - Services Rendered","Well Being Check",42.278138,-71.384784,"42 SILVER HILL LN, NATICK, MA, 01760"
2024/01/10 09:18:00,"[NAT 3] RAMP FROM RT9 WEST TO SPEEN ST NORTH - RAMP - RT9 WB TO SPEEN ST","MOTOR VEHICLE STOP Citation/ Warning Issued","MOTOR VEHICLE STOP",42.270720,-71.381262,"9 SPEEN ST, NATICK, MA, 01760"
2024/01/10 09:22:00,"1245 WORCESTER ST","MOTOR VEHICLE STOP Citation/ Warning Issued","MOTOR VEHICLE STOP",42.299500,-71.377749,"1245 WORCESTER ST, NATICK, MA, 01760"
2024/01/10 09:35:00,"[NAT 3111] CLOVERLEAF APARTMENTS - 325 SPEEN ST Apt. #314","Animals (Other) P - Services Rendered","ANIMALS",42.301020,-71.379948,"325 SPEEN ST, NATICK, MA, 01760"
2024/01/10 10:07:00,"192 WORCESTER ST","MOTOR VEHICLE STOP Citation/ Warning Issued","MOTOR VEHICLE STOP",42.302957,-71.334028,"192 WORCESTER ST, NATICK, MA, 01760"
2024/01/10 10:34:00,"[NAT 68] MCDONALDS, RT 9 EASTBOUND - 290 WORCESTER ST","MOTOR VEHICLE STOP Citation/ Warning Issued","MOTOR VEHICLE STOP",42.301963,-71.340499,"290 WORCESTER ST, NATICK, MA, 01760"
2024/01/10 10:43:00,"[NAT 869] ROCHE BROS SUPERMARKET - 150 WEST CENTRAL ST","MOTOR VEHICLE STOP Citation/ Warning Issued","MOTOR VEHICLE STOP",42.282483,-71.378214,"150 W CENTRAL ST, NATICK, MA, 01760"
2024/01/10 10:44:00,"[NAT 4049] ROCHE BOBOIS - 395 WORCESTER ST","MOTOR VEHICLE STOP Citation/ Warning Issued","MOTOR VEHICLE STOP",42.314564,-71.269575,"395 WORCESTER ST, WELLESLEY HILLS, MA, 02481"
2024/01/10 10:49:00,"44 NORTH MAIN ST","SERVE SUMMONS UNABLE TO SERVE","SERVE SUMMONS",42.288033,-71.350178,"44 N MAIN ST, NATICK, MA, 01760"
2024/01/10 11:00:00,"517 WORCESTER ST ","MOTOR VEHICLE STOP Citation/ Warning Issued","MOTOR VEHICLE STOP",42.310568,-71.280848,"517 WORCESTER ST, WELLESLEY HILLS, MA, 02481"
2024/01/10 11:07:00,"[NAT 68] MCDONALDS, RT 9 EASTBOUND - 290 WORCESTER ST","MOTOR VEHICLE STOP Citation/ Warning Issued","MOTOR VEHICLE STOP",42.301963,-71.340499,"290 WORCESTER ST, NATICK, MA, 01760"
2024/01/10 11:32:00,"167 HARTFORD ST","MOTOR VEHICLE STOP SUMMONS REQUEST","MOTOR VEHICLE STOP",42.291154,-71.396557,"167 HARTFORD ST, NATICK, MA, 01760"
2024/01/10 11:39:00,"168 CEDAR TER Apt. #A","F - Well Being Check F - Services Provided","Well Being Check",42.273839,-71.356938,"168 CEDAR TER, NATICK, MA, 01760"
2024/01/10 11:48:00,"[NAT 3883] SKYBOKX - 319 SPEEN ST","MOTOR VEHICLE STOP Citation/ Warning Issued","MOTOR VEHICLE STOP",42.301009,-71.379941,"319 SPEEN ST, NATICK, MA, 01760"
2024/01/10 11:57:00,"[NAT 75] NATICK- WELLESLEY VETERINARY HOSPITAL - 359 WORCESTER ST","Animals (Other) Report to be filed","ANIMALS",42.314806,-71.267133,"359 WORCESTER ST, WELLESLEY HILLS, MA, 02481"
2024/01/10 12:03:00,"180 MILL ST","MOTOR VEHICLE STOP SUMMONS REQUEST","MOTOR VEHICLE STOP",42.289942,-71.387132,"180 MILL ST, NATICK, MA, 01760"
2024/01/10 12:30:00,"[NAT 3879] BERNARDI AUDI - 549 WORCESTER ST","MOTOR VEHICLE STOP Citation/ Warning Issued","MOTOR VEHICLE STOP",42.309143,-71.284371,"549 WORCESTER ST, WELLESLEY HILLS, MA, 02481"
2024/01/10 12:38:00,"[NAT 2388] CARR JOHN ASSOCIATES - 971 WORCESTER ST","MOTOR VEHICLE STOP Citation/ Warning Issued","MOTOR VEHICLE STOP",42.299695,-71.363290,"971 WORCESTER ST, NATICK, MA, 01760"
2024/01/10 12:57:00,"180 HARTFORD ST","MOTOR VEHICLE STOP SUMMONS REQUEST","MOTOR VEHICLE STOP",42.291988,-71.398994,"180 HARTFORD ST, NATICK, MA, 01760"
2024/01/10 13:03:00,"[NAT 1541] METROWEST SUBARU LLC - 948 WORCESTER ST","MOTOR VEHICLE STOP SUMMONS REQUEST","MOTOR VEHICLE STOP",42.299337,-71.364467,"948 WORCESTER ST, NATICK, MA, 01760"
2024/01/10 13:20:00,"[NAT 3590] TILES PLUS MORE - 309 WORCESTER ST","MOTOR VEHICLE STOP Arrest(s) Made","MOTOR VEHICLE STOP",42.314519,-71.256927,"309 WORCESTER ST, WELLESLEY HILLS, MA, 02481"
2024/01/10 13:39:00,"[NAT 79] BERNARDI HONDA - 960 WORCESTER ST","MOTOR VEHICLE STOP Citation/ Warning Issued","MOTOR VEHICLE STOP",42.299258,-71.365104,"960 WORCESTER ST, NATICK, MA, 01760"
2024/01/10 13:45:00,"142 SPEEN ST","MOTOR VEHICLE STOP Citation/ Warning Issued","MOTOR VEHICLE STOP",42.284979,-71.375377,"142 SPEEN ST, NATICK, MA, 01760"
2024/01/10 13:46:00,"71 OAK ST ","MOTOR VEHICLE STOP SUMMONS REQUEST","MOTOR VEHICLE STOP",42.302537,-71.332055,"71 OAK ST, NATICK, MA, 01760"
2024/01/10 13:48:00,"[NAT 855] THRIVE PET HEALTH CARE - 121 WEST CENTRAL ST","Animals (Other) P - Services Rendered","ANIMALS",42.283651,-71.369312,"121 W CENTRAL ST, NATICK, MA, 01760"
2024/01/10 14:11:00,"[NAT 79] BERNARDI HONDA - 960 WORCESTER ST","MOTOR VEHICLE STOP Citation/ Warning Issued","MOTOR VEHICLE STOP",42.299258,-71.365104,"960 WORCESTER ST, NATICK, MA, 01760"
2024/01/10 14:19:00,"[NAT 2893] DICK'S SPORTING GOODS - 1336 WORCESTER ST","ASSIST OTHER AGENCY P - Services Rendered","ASSIST OTHER AGENCY",42.298917,-71.387301,"1336 WORCESTER ST, NATICK, MA, 01760"
2024/01/10 14:24:00,"[NAT 1531] VFW - 113 WEST CENTRAL ST","MOTOR VEHICLE STOP Citation/ Warning Issued","MOTOR VEHICLE STOP",42.283857,-71.367763,"113 W CENTRAL ST, NATICK, MA, 01760"
2024/01/10 14:36:00,"[FRA] 600 CONCORD ST","ESCORT/ TRANSPORT P - Services Rendered","ESCORT/",42.292559,-71.409285,"600 CONCORD ST, FRAMINGHAM, MA, 01702"
2024/01/10 14:55:00,"177 HARTFORD ST","MOTOR VEHICLE STOP SUMMONS REQUEST","MOTOR VEHICLE STOP",42.291667,-71.397955,"177 HARTFORD ST, NATICK, MA, 01760"
2024/01/10 15:07:00,"313 SPEEN ST ","MOTOR VEHICLE STOP SUMMONS REQUEST","MOTOR VEHICLE STOP",42.300998,-71.379934,"313 SPEEN ST, NATICK, MA, 01760"
2024/01/10 15:24:00,"103 NORTH MAIN ST","MOTOR VEHICLE STOP Citation/ Warning Issued","MOTOR VEHICLE STOP",42.291320,-71.356073,"103 N MAIN ST, NATICK, MA, 01760"
2024/01/10 15:35:00,"44 NORTH MAIN ST","SERVE SUMMONS UNABLE TO SERVE","SERVE SUMMONS",42.288033,-71.350178,"44 N MAIN ST, NATICK, MA, 01760"
2024/01/10 15:55:00,"[NAT 895] 15 RUSSELL CIR - 15 RUSSELL CIR","SOLICITOR(S) Gone On Arrival","SOLICITOR(S)",42.311452,-71.348815,"15 RUSSELL CIR, NATICK, MA, 01760"
2024/01/10 17:35:00,"97 WALNUT ST ","MOTOR VEHICLE STOP Citation/ Warning Issued","MOTOR VEHICLE STOP",42.294406,-71.348061,"97 WALNUT ST, NATICK, MA, 01760"
2024/01/10 17:50:00,"[NAT 1145] SUPER STOP & SHOP - 829 WORCESTER ST","Animals (Other) P - Services Rendered","ANIMALS",42.305625,-71.311027,"829 WORCESTER ST, WELLESLEY HILLS, MA, 02481"
2024/01/10 18:19:00,"21 VILLAGE ROCK LN Apt. #3","ESCORT/ TRANSPORT Report to be filed","ESCORT/",42.278482,-71.394655,"21 VILLAGE ROCK LN, NATICK, MA, 01760"
2024/01/10 18:23:00,"[NAT 869] ROCHE BROS SUPERMARKET - 150 WEST CENTRAL ST","MOTOR VEHICLE STOP Citation/ Warning Issued","MOTOR VEHICLE STOP",42.282483,-71.378214,"150 W CENTRAL ST, NATICK, MA, 01760"
2024/01/10 19:09:00,"[NAT 4037] LA FITNESS - 1 DEAN RD","LARCENY / FORGERY/ FRAUD Report to be filed","LARCENY / FORGERY/ FRAUD",42.296920,-71.387206,"1 DEAN RD, NATICK, MA, 01760"
2024/01/11 09:19:00,"30 PLEASANT ST","F - Gas Leak F - Services Provided","Gas Leak",42.298432,-71.356723,"30 PLEASANT ST, NATICK, MA, 01760"
2024/01/11 09:22:00,"51 POND ST","SERVE SUMMONS UNABLE TO SERVE","SERVE SUMMONS",42.282039,-71.351297,"51 POND ST, NATICK, MA, 01760"
2024/01/11 09:22:00,"256 SPEEN ST ","MOTOR VEHICLE STOP SUMMONS REQUEST","MOTOR VEHICLE STOP",42.296402,-71.376979,"256 SPEEN ST, NATICK, MA, 01760"
2024/01/11 09:28:00,"[NAT 2150] GLENWOOD CEMETARY - 1 GLENWOOD ST","SUSPICIOUS ACTIVITY P - Services Rendered","SUSPICIOUS ACTIVITY",42.265518,-71.315596,"1 GLENWOOD ST, NATICK, MA, 01760"
2024/01/11 09:55:00,"[NAT 2044] NATICK HISTORICAL SOCIETY - 58 ELIOT ST","ALARM, BURGLAR P - ALARM SET OFF IN ERROR","ALARM",42.271678,-71.316459,"58 ELIOT ST, NATICK, MA, 01760"
2024/01/11 10:42:00,"[NAT 941] VALVOLINE INSTANT OIL CHANGE - 891 WORCESTER ST","Animals (Other) P - Services Rendered","ANIMALS",42.305265,-71.315556,"891 WORCESTER ST, WELLESLEY, MA, 02482"
2024/01/11 10:57:00,"75 WORCESTER ST","MOTOR VEHICLE STOP Citation/ Warning Issued","MOTOR VEHICLE STOP",42.304175,-71.329829,"75 WORCESTER ST, NATICK, MA, 01760"
2024/01/11 11:00:00,"[NAT 3281] 9 PHEASANT HOLLOW RD - 9 PHEASANT HOLLOW RD","ANIMALS, BARKING DOG P - Services Rendered","ANIMALS",42.276126,-71.382780,"9 PHEASANT HOLLOW RD, NATICK, MA, 01760"
2024/01/11 11:39:00,"44 NORTH MAIN ST","SERVE SUMMONS UNABLE TO SERVE","SERVE SUMMONS",42.288033,-71.350178,"44 N MAIN ST, NATICK, MA, 01760"
2024/01/11 11:39:00,"[NAT 1494] U S PETROLEUM - 146 EAST CENTRAL ST","VANDALISM Report to be filed","VANDALISM",42.286986,-71.335476,"146 E CENTRAL ST, NATICK, MA, 01760"
2024/01/11 11:52:00,"517 WORCESTER ST ","MOTOR VEHICLE STOP Citation/ Warning Issued","MOTOR VEHICLE STOP",42.310568,-71.280848,"517 WORCESTER ST, WELLESLEY HILLS, MA, 02481"
2024/01/11 11:55:00,"[NAT 4025] TOTAL WINE AND MORE - 321 SPEEN ST","MOTOR VEHICLE STOP Citation/ Warning Issued","MOTOR VEHICLE STOP",42.301013,-71.379943,"321 SPEEN ST, NATICK, MA, 01760"
2024/01/11 12:08:00,"1 CENTRE ST","MOTOR VEHICLE STOP Citation/ Warning Issued","MOTOR VEHICLE STOP",42.301734,-71.344706,"1 CENTRE ST, NATICK, MA, 01760"
2024/01/11 12:10:00,"21 WESTFIELD RD","SERVE SUMMONS UNABLE TO SERVE","SERVE SUMMONS",42.284200,-71.380419,"21 WESTFIELD RD, NATICK, MA, 01760"
2024/01/11 12:28:00,"[NAT 1547] SUNNYSIDE PLAZA - 915 WORCESTER ST","MOTOR VEHICLE STOP P - Services Rendered","MOTOR VEHICLE STOP",42.299876,-71.361849,"915 WORCESTER ST, NATICK, MA, 01760"
2024/01/11 12:59:00,"[NAT 513] U S POST OFFICE - 15 COMMON ST","M/ V CRASH/ Hit & Run Report to be filed","MOTOR VEHICLE CRASH",42.282901,-71.345774,"15 COMMON ST, NATICK, MA, 01760"
2024/01/11 13:36:00,"625 WORCESTER ST","MOTOR VEHICLE STOP SUMMONS REQUEST","MOTOR VEHICLE STOP",42.307026,-71.292761,"625 WORCESTER ST, WELLESLEY HILLS, MA, 02481"
2024/01/11 13:53:00,"[NAT 4356] THE PAPER STORE - 1346 WORCESTER ST","LARCENY / FORGERY/ FRAUD Report to be filed","LARCENY / FORGERY/ FRAUD",42.298915,-71.387322,"1346 WORCESTER ST, NATICK, MA, 01760"
2024/01/11 13:54:00,"[NAT 4001] TODOS DANCE STUDIO - 677 WORCESTER ST","MOTOR VEHICLE STOP Citation/ Warning Issued","MOTOR VEHICLE STOP",42.306356,-71.295696,"677 WORCESTER ST, WELLESLEY HILLS, MA, 02481"
2024/01/11 14:06:00,"[NAT 3019] MACY'S - 1247 WORCESTER ST","SHOPLIFTING Arrest(s) Made","SHOPLIFTING",42.299501,-71.377795,"1247 WORCESTER ST, NATICK, MA, 01760"
2024/01/11 15:37:00,"[NAT 4356] THE PAPER STORE - 1346 WORCESTER ST","SHOPLIFTING Report to be filed","SHOPLIFTING",42.298915,-71.387322,"1346 WORCESTER ST, NATICK, MA, 01760"
2024/01/11 16:19:00,"[NAT 425] DEBSAN WALLPAPER - 25 MAIN ST","MOTOR VEHICLE CRASH Report to be filed","MOTOR VEHICLE CRASH",42.284546,-71.347527,"25 MAIN ST, NATICK, MA, 01760"
2024/01/11 16:38:00,"262 NORTH MAIN ST ","MOTOR VEHICLE CRASH Report to be filed","MOTOR VEHICLE CRASH",42.307057,-71.361859,"262 N MAIN ST, NATICK, MA, 01760"
2024/01/11 18:15:00,"24 WATER ST","ASSAULT Report to be filed","ASSAULT",42.272784,-71.311415,"24 WATER ST, NATICK, MA, 01760"
2024/01/11 20:34:00,"[NAT 2023] BRANDON HOUSE HOUSE 1 - 27 WINTER ST","MISSING/LOST CHILD Log Entry","MISSING/LOST CHILD",42.319975,-71.362971,"27 WINTER ST, WAYLAND, MA, 01778"
2024/01/11 20:58:00,"44 NORTH MAIN ST Apt. #3","SERVE SUMMONS UNABLE TO SERVE","SERVE SUMMONS",42.288033,-71.350178,"44 N MAIN ST, NATICK, MA, 01760"
2024/01/11 21:04:00,"1245 WORCESTER ST","MOTOR VEHICLE STOP Citation/ Warning Issued","MOTOR VEHICLE STOP",42.299500,-71.377749,"1245 WORCESTER ST, NATICK, MA, 01760"
2024/01/12 06:48:00,"44 NORTH MAIN ST","SERVE SUMMONS UNABLE TO SERVE","SERVE SUMMONS",42.288033,-71.350178,"44 N MAIN ST, NATICK, MA, 01760"
2024/01/12 08:14:00,"14 BIRCH RD","NOISE COMPLAINT Unable to Locate","NOISE COMPLAINT",42.307957,-71.364027,"14 BIRCH RD, NATICK, MA, 01760"
2024/01/12 08:42:00,"[FRA] NATICK DISTRICT COURT - 600 CONCORD ST","ESCORT/ TRANSPORT P - Services Rendered","ESCORT/",42.292559,-71.409285,"600 CONCORD ST, FRAMINGHAM, MA, 01702"
2024/01/12 09:04:00,"790 WORCESTER ST ","MOTOR VEHICLE STOP Citation/ Warning Issued","MOTOR VEHICLE STOP",42.300298,-71.356083,"790 WORCESTER ST, NATICK, MA, 01760"
2024/01/12 10:07:00,"44 NORTH MAIN ST Apt. #3","SERVE SUMMONS Unable to Locate","SERVE SUMMONS",42.288033,-71.350178,"44 N MAIN ST, NATICK, MA, 01760"
2024/01/12 10:25:00,"21 WESTFIELD RD","SERVE SUMMONS SERVED IN-HAND","SERVE SUMMONS",42.284200,-71.380419,"21 WESTFIELD RD, NATICK, MA, 01760"
2024/01/12 10:33:00,"6 SPEEN ST ","ANIMALS, DECEASED P - Services Rendered","ANIMALS",42.270932,-71.381197,"6 SPEEN ST, NATICK, MA, 01760"
2024/01/12 11:09:00,"1245 WORCESTER ST","SERVE WARRANT Arrest(s) Made","SERVE WARRANT",42.299500,-71.377749,"1245 WORCESTER ST, NATICK, MA, 01760"
2024/01/12 11:46:00,"1245 WORCESTER ST","FOUND/ LOST PROPERTY Log Entry","FOUND/ LOST PROPERTY",42.299500,-71.377749,"1245 WORCESTER ST, NATICK, MA, 01760"
2024/01/12 12:37:00,"[NAT 1147] AUTO ZONE - 120 WORCESTER ST","MOTOR VEHICLE STOP Citation/ Warning Issued","MOTOR VEHICLE STOP",42.303663,-71.331179,"120 WORCESTER ST, NATICK, MA, 01760"
2024/01/12 13:04:00,"99 HARTFORD ST","MOTOR VEHICLE STOP Citation/ Warning Issued","MOTOR VEHICLE STOP",42.292946,-71.386832,"99 HARTFORD ST, NATICK, MA, 01760"
2024/01/12 13:14:00," 262 SPEEN ST","Animals (Other) Unable to Locate","ANIMALS",42.297144,-71.377679,"262 SPEEN ST, NATICK, MA, 01760"
2024/01/12 13:27:00,"[NAT 1027] BRANDON SCHOOL - 27 WINTER ST","MISSING/LOST CHILD P - Services Rendered","MISSING/LOST CHILD",42.319975,-71.362971,"27 WINTER ST, WAYLAND, MA, 01778"
2024/01/12 13:47:00,"45 BEACON ST","ASSIST OTHER AGENCY P - Services Rendered","ASSIST OTHER AGENCY",42.295688,-71.353418,"45 BEACON ST, NATICK, MA, 01760"
2024/01/12 13:52:00,"[FRA] 600 CONCORD ST","ESCORT/ TRANSPORT P - Services Rendered","ESCORT/",42.292559,-71.409285,"600 CONCORD ST, FRAMINGHAM, MA, 01702"
2024/01/12 14:06:00,"49 WASHINGTON ST ","DISTURBANCE P - Services Rendered","DISTURBANCE",42.287212,-71.346812,"49 WASHINGTON ST, NATICK, MA, 01760"
2024/01/12 14:11:00,"[NAT 765] THEOS PIZZA - 231 NORTH MAIN ST","DISABLED M/V P - Services Rendered","DISABLED M/V",42.306404,-71.361688,"231 N MAIN ST, NATICK, MA, 01760"
2024/01/12 14:48:00,"[NAT 771] HERB CHAMBERS MERCEDES / BMW - 253 NORTH MAIN ST","DISABLED M/V P - Services Rendered","DISABLED M/V",42.307387,-71.361712,"253 N MAIN ST, NATICK, MA, 01760"
2024/01/12 15:01:00,"[NAT 3039] LOLA'S ITALIAN - 9 MAIN ST","DISABLED M/V Vehicle Towed","DISABLED M/V",42.284514,-71.347515,"9 MAIN ST, NATICK, MA, 01760"
2024/01/12 15:04:00,"15 TAMARACK RD","M/ V CRASH/ Hit & Run Report to be filed","MOTOR VEHICLE CRASH",42.283617,-71.393670,"15 TAMARACK RD, NATICK, MA, 01760"
2024/01/12 16:36:00,"[NAT 692] CONNELL AND CURLEY INSURANCE - 19 WEST CENTRAL ST","COMPLAINT Report to be filed","COMPLAINT",42.283657,-71.348851,"19 W CENTRAL ST, NATICK, MA, 01760"
2024/01/12 17:10:00,"240 NORTH MAIN ST ","DISABLED M/V P - Services Rendered","DISABLED M/V",42.304637,-71.361660,"240 N MAIN ST, NATICK, MA, 01760"
2024/01/12 18:07:00,"69 POND ST ","SUSPICIOUS ACTIVITY P - Services Rendered","SUSPICIOUS ACTIVITY",42.283821,-71.409426,"69 POND ST, FRAMINGHAM, MA, 01702"
2024/01/12 19:07:00,"2 SOUTH AVE ","MOTOR VEHICLE STOP Citation/ Warning Issued","MOTOR VEHICLE STOP",42.285311,-71.347563,"2 SOUTH AVE, NATICK, MA, 01760"
2024/01/12 21:10:00,"56 WASHINGTON AVE ","MOTOR VEHICLE STOP Citation/ Warning Issued","MOTOR VEHICLE STOP",42.287941,-71.354194,"56 WASHINGTON AVE, NATICK, MA, 01760"
2024/01/12 21:44:00,"[NAT 79] BERNARDI HONDA - 960 WORCESTER ST","MOTOR VEHICLE STOP Citation/ Warning Issued","MOTOR VEHICLE STOP",42.299258,-71.365104,"960 WORCESTER ST, NATICK, MA, 01760"
2024/01/13 01:22:00,"8 MARION ST Apt. #1","ALARM, BURGLAR P - ALARM BLDG Chk Secure","ALARM",42.285684,-71.339788,"8 MARION ST, NATICK, MA, 01760"
2024/01/13 06:06:00,"[NAT 79] BERNARDI HONDA - 960 WORCESTER ST","ALARM, BURGLAR P - ALARM SET OFF IN ERROR","ALARM",42.299258,-71.365104,"960 WORCESTER ST, NATICK, MA, 01760"
2024/01/13 08:07:00,"4 VILLAGE GREEN LN Apt. #11","SUDDEN DEATH Report to be filed","SUDDEN DEATH",42.281155,-71.391651,"4 VILLAGE GREEN LN, NATICK, MA, 01760"
2024/01/13 09:32:00,"[NAT 4125] BROOKLYN NY PIZZA - 251 WEST CENTRAL ST Apt. #12","BURGLARY (B & E) Report to be filed","BURGLAR",42.281827,-71.392458,"251 W CENTRAL ST, NATICK, MA, 01760"
2024/01/13 12:44:00,"[NAT 3671] SPEEDWAY (RT 9 EAST) - 230 WORCESTER ST","MOTOR VEHICLE STOP Citation/ Warning Issued","MOTOR VEHICLE STOP",42.302531,-71.335773,"230 WORCESTER ST, NATICK, MA, 01760"
2024/01/13 13:59:00,"[NAT 1505] WENDY'S INTERNATIONAL - 303 WEST CENTRAL ST","MOTOR VEHICLE STOP Citation/ Warning Issued","MOTOR VEHICLE STOP",42.281774,-71.393563,"303 W CENTRAL ST, NATICK, MA, 01760"
2024/01/13 14:29:00,"517 WORCESTER ST ","MOTOR VEHICLE STOP Citation/ Warning Issued","MOTOR VEHICLE STOP",42.310568,-71.280848,"517 WORCESTER ST, WELLESLEY HILLS, MA, 02481"
2024/01/13 15:43:00,"27 WEST CENTRAL ST","MOTOR VEHICLE STOP Citation/ Warning Issued","MOTOR VEHICLE STOP",42.283573,-71.349515,"27 W CENTRAL ST, NATICK, MA, 01760"
2024/01/13 17:05:00,"2 WESTFIELD RD ","MOTOR VEHICLE STOP Citation/ Warning Issued","MOTOR VEHICLE STOP",42.284508,-71.381291,"2 WESTFIELD RD, NATICK, MA, 01760"
2024/01/13 17:33:00,"190 NORTH MAIN ST","DISABLED M/V Gone On Arrival","DISABLED M/V",42.298626,-71.359458,"190 N MAIN ST, NATICK, MA, 01760"
2024/01/13 18:08:00,"[NAT 3019] MACY'S - 1247 WORCESTER ST","SHOPLIFTING Civil Matter","SHOPLIFTING",42.299501,-71.377795,"1247 WORCESTER ST, NATICK, MA, 01760"
2024/01/13 20:19:00,"[NAT 610] 279 WEST CENTRAL ST","MOTOR VEHICLE STOP Citation/ Warning Issued","MOTOR VEHICLE STOP",42.281799,-71.393053,"279 W CENTRAL ST, NATICK, MA, 01760"
2024/01/13 20:42:00,"[NAT 1015] U- HAUL CO - 834 WORCESTER ST","MOTOR VEHICLE STOP Citation/ Warning Issued","MOTOR VEHICLE STOP",42.300197,-71.356918,"834 WORCESTER ST, NATICK, MA, 01760"
2024/01/13 21:31:00,"[NAT 79] BERNARDI HONDA - 960 WORCESTER ST","DISABLED M/V Vehicle Towed","DISABLED M/V",42.299258,-71.365104,"960 WORCESTER ST, NATICK, MA, 01760"
2024/01/13 21:39:00,"8 COCHITUATE ST Apt. #2","F - Well Being Check F - Transport-Hospital","Well Being Check",42.286206,-71.349729,"8 COCHITUATE ST, NATICK, MA, 01760"
2024/01/13 22:37:00,"[NAT 142] 24 COMMON ST Apt. #3","COMPLAINT P - Services Rendered","COMPLAINT",42.283067,-71.345305,"24 COMMON ST, NATICK, MA, 01760"
2024/01/13 23:16:00,"[NAT 1504] SHERWOOD VILLAGE EAST - 143 MILL ST","MOTOR VEHICLE STOP Citation/ Warning Issued","MOTOR VEHICLE STOP",42.287469,-71.382669,"143 MILL ST, NATICK, MA, 01760"
2024/01/14 01:42:00,"8 MARION ST","ALARM, BURGLAR P - ALARM SET OFF IN ERROR","ALARM",42.285684,-71.339788,"8 MARION ST, NATICK, MA, 01760"
2024/01/14 03:41:00,"[NAT 4387] LUCID MOTORS - 1245 WORCESTER ST Apt. #3210","ALARM, BURGLAR P - ALARM SET OFF IN ERROR","ALARM",42.299500,-71.377749,"1245 WORCESTER ST, NATICK, MA, 01760"
2024/01/14 07:44:00,"[NAT 957] LENSCRAFTERS - 1364 WORCESTER ST","BURGLARY (B & E) Report to be filed","BURGLAR",42.298770,-71.391463,"1364 WORCESTER ST, NATICK, MA, 01760"
2024/01/14 08:46:00,"[NAT 1128] NATIONAL GUARD READINESS CENTER - 149 SPEEN ST","MOTOR VEHICLE STOP SUMMONS REQUEST","MOTOR VEHICLE STOP",42.280774,-71.376059,"149 SPEEN ST, NATICK, MA, 01760"
2024/01/14 10:47:00,"14 PARKMAN ST","SERVE WARRANT UNABLE TO SERVE","SERVE WARRANT",42.293059,-71.348664,"14 PARKMAN ST, NATICK, MA, 01760"
2024/01/14 11:09:00,"206 WORCESTER ST","MOTOR VEHICLE STOP Citation/ Warning Issued","MOTOR VEHICLE STOP",42.302616,-71.335377,"206 WORCESTER ST, NATICK, MA, 01760"
2024/01/14 11:24:00,"[NAT 2726] PARTY CITY - 321 WORCESTER ST","MOTOR VEHICLE STOP Citation/ Warning Issued","MOTOR VEHICLE STOP",42.314497,-71.257116,"321 WORCESTER ST, WELLESLEY HILLS, MA, 02481"
2024/01/14 11:25:00,"[NAT 269] COAN INC - 196 WEST CENTRAL ST","MOTOR VEHICLE STOP Citation/ Warning Issued","MOTOR VEHICLE STOP",42.282236,-71.384638,"196 W CENTRAL ST, NATICK, MA, 01760"
2024/01/14 11:46:00,"[NAT 75] NATICK- WELLESLEY VETERINARY HOSPITAL - 359 WORCESTER ST","MOTOR VEHICLE STOP SUMMONS REQUEST","MOTOR VEHICLE STOP",42.314806,-71.267133,"359 WORCESTER ST, WELLESLEY HILLS, MA, 02481"
2024/01/14 12:18:00,"98 HARTFORD ST","MOTOR VEHICLE STOP Vehicle Towed","MOTOR VEHICLE STOP",42.292163,-71.388557,"98 HARTFORD ST, NATICK, MA, 01760"
2024/01/14 12:20:00,"[NAT 2819] MINADO RESTAURANT - 1290 WORCESTER ST","LARCENY / FORGERY/ FRAUD Report to be filed","LARCENY / FORGERY/ FRAUD",42.298924,-71.387206,"1290 WORCESTER ST, NATICK, MA, 01760"
2024/01/14 12:32:00,"[NAT 1145] SUPER STOP & SHOP - 829 WORCESTER ST","MOTOR VEHICLE STOP Citation/ Warning Issued","MOTOR VEHICLE STOP",42.305625,-71.311027,"829 WORCESTER ST, WELLESLEY HILLS, MA, 02481"
2024/01/14 12:53:00,"[NAT 2411] NATICK MALL (SOUTH PARKING LOT) - 1245 WORCESTER ST","SUSPICIOUS ACTIVITY Gone On Arrival","SUSPICIOUS ACTIVITY",42.299500,-71.377749,"1245 WORCESTER ST, NATICK, MA, 01760"
2024/01/14 12:54:00,"[NAT 79] BERNARDI HONDA - 960 WORCESTER ST","MOTOR VEHICLE STOP Citation/ Warning Issued","MOTOR VEHICLE STOP",42.299258,-71.365104,"960 WORCESTER ST, NATICK, MA, 01760"
2024/01/14 13:38:00,"145 MILL ST","MOTOR VEHICLE STOP Unfounded","MOTOR VEHICLE STOP",42.287571,-71.382764,"145 MILL ST, NATICK, MA, 01760"
2024/01/14 14:13:00,"[NAT 4049] ROCHE BOBOIS - 395 WORCESTER ST","MOTOR VEHICLE STOP Citation/ Warning Issued","MOTOR VEHICLE STOP",42.314564,-71.269575,"395 WORCESTER ST, WELLESLEY HILLS, MA, 02481"
2024/01/14 14:42:00,"[NAT 3879] BERNARDI AUDI - 549 WORCESTER ST","MOTOR VEHICLE STOP Citation/ Warning Issued","MOTOR VEHICLE STOP",42.309143,-71.284371,"549 WORCESTER ST, WELLESLEY HILLS, MA, 02481"
2024/01/14 14:56:00,"977 WORCESTER ST","MOTOR VEHICLE STOP Citation/ Warning Issued","MOTOR VEHICLE STOP",42.299675,-71.363445,"977 WORCESTER ST, NATICK, MA, 01760"
2024/01/14 15:11:00,"[NAT 3314] J.J. LANE PARK - 185 SPEEN ST","MOTOR VEHICLE STOP SUMMONS REQUEST","MOTOR VEHICLE STOP",42.282216,-71.375839,"185 SPEEN ST, NATICK, MA, 01760"
2024/01/14 15:13:00,"[NAT 1892] CRATE AND BARREL HOME - 1245 WORCESTER ST Apt. #1086","LARCENY / FORGERY/ FRAUD P - Services Rendered","LARCENY / FORGERY/ FRAUD",42.299500,-71.377749,"1245 WORCESTER ST, NATICK, MA, 01760"
2024/01/14 15:33:00,"17 WALDEN DR Apt. #2","F - Well Being Check F - Services Provided","Well Being Check",42.276787,-71.387309,"17 WALDEN DR, NATICK, MA, 01760"
2024/01/14 17:57:00,"[NAT 920] NATICK MALL (MALL I) - 1245 WORCESTER ST","LARCENY / FORGERY/ FRAUD Report to be filed","LARCENY / FORGERY/ FRAUD",42.299500,-71.377749,"1245 WORCESTER ST, NATICK, MA, 01760"
2024/01/14 17:57:00,"[NAT 1551] NATICK VFW POST 1724 - 113 WEST CENTRAL ST","MOTOR VEHICLE CRASH Report to be filed","MOTOR VEHICLE CRASH",42.283857,-71.367763,"113 W CENTRAL ST, NATICK, MA, 01760"
2024/01/14 17:57:00,"[NAT 1531] VFW - 113 WEST CENTRAL ST","MOTOR VEHICLE CRASH Merge: 24-899 By: 49085","MOTOR VEHICLE CRASH",42.283857,-71.367763,"113 W CENTRAL ST, NATICK, MA, 01760"
2024/01/14 18:05:00,"[NAT 1476] MBTA WEST NATICK STATION - 251 WEST CENTRAL ST","MOTOR VEHICLE CRASH SUMMONS REQUEST","MOTOR VEHICLE CRASH",42.281827,-71.392458,"251 W CENTRAL ST, NATICK, MA, 01760"
2024/01/14 18:20:00,"[NAT 314] 281 WEST CENTRAL ST","MOTOR VEHICLE CRASH Report to be filed","MOTOR VEHICLE CRASH",42.281797,-71.393095,"281 W CENTRAL ST, NATICK, MA, 01760"
2024/01/14 18:38:00,"124 HARTFORD ST ","F - MVA with Injury Report to be filed","MOTOR VEHICLE CRASH",42.291619,-71.390154,"124 HARTFORD ST, NATICK, MA, 01760"
2024/01/14 18:49:00,"177 UNION ST","F - MVA with Injury Report to be filed","MOTOR VEHICLE CRASH",42.275137,-71.320077,"177 UNION ST, NATICK, MA, 01760"
2024/01/14 19:18:00,"27 BRADFORD RD","DISTURBANCE SUMMONS REQUEST","DISTURBANCE",42.310603,-71.349983,"27 BRADFORD RD, NATICK, MA, 01760"
2024/01/14 19:28:00,"190 MILL ST","DISABLED M/V P - Services Rendered","DISABLED M/V",42.291120,-71.388084,"190 MILL ST, NATICK, MA, 01760"
2024/01/14 20:05:00,"18 PLEASANT ST","F - MVA with Injury F - Transport-Hospital","MOTOR VEHICLE CRASH",42.298414,-71.356993,"18 PLEASANT ST, NATICK, MA, 01760"
2024/01/14 21:24:00,"[NAT 3287] NORDSTROM - 290 SPEEN ST","ALARM, BURGLAR P - ALARM BLDG Chk Secure","ALARM",42.299269,-71.379049,"290 SPEEN ST, NATICK, MA, 01760"
2024/01/14 21:35:00,"59 PINE ST","F - LOCKOUT ( BLDG) F - Services Provided","LOCKOUT",42.314895,-71.353058,"59 PINE ST, NATICK, MA, 01760"
2024/01/15 02:31:00,"[NAT 182] 3 RICHARD RD - 3 RICHARD RD","ALARM, BURGLAR P - ALARM BLDG Chk Secure","ALARM",42.307621,-71.349633,"3 RICHARDS RD, NATICK, MA, 01760"
2024/01/15 05:37:00,"[NAT 403] THE CONTAINER STORE - 1265 WORCESTER ST","ALARM, BURGLAR P - ALARM BLDG Chk Secure","ALARM",42.299514,-71.378211,"1265 WORCESTER ST, NATICK, MA, 01760"
2024/01/15 07:14:00,"101 NORTH MAIN ST","MOTOR VEHICLE STOP Citation/ Warning Issued","MOTOR VEHICLE STOP",42.291087,-71.355793,"101 N MAIN ST, NATICK, MA, 01760"
2024/01/15 08:03:00,"313 SPEEN ST","DISABLED M/V P - Services Rendered","DISABLED M/V",42.300998,-71.379934,"313 SPEEN ST, NATICK, MA, 01760"
2024/01/15 08:59:00,"517 WORCESTER ST ","MOTOR VEHICLE STOP Citation/ Warning Issued","MOTOR VEHICLE STOP",42.310568,-71.280848,"517 WORCESTER ST, WELLESLEY HILLS, MA, 02481"
2024/01/15 09:20:00,"[NAT 4049] ROCHE BOBOIS - 395 WORCESTER ST","MOTOR VEHICLE STOP Citation/ Warning Issued","MOTOR VEHICLE STOP",42.314564,-71.269575,"395 WORCESTER ST, WELLESLEY HILLS, MA, 02481"
2024/01/15 09:22:00,"517 WORCESTER ST ","MOTOR VEHICLE STOP Citation/ Warning Issued","MOTOR VEHICLE STOP",42.310568,-71.280848,"517 WORCESTER ST, WELLESLEY HILLS, MA, 02481"
2024/01/15 09:33:00,"[NAT 1505] WENDY'S INTERNATIONAL - 303 WEST CENTRAL ST","MOTOR VEHICLE STOP SUMMONS REQUEST","MOTOR VEHICLE STOP",42.281774,-71.393563,"303 W CENTRAL ST, NATICK, MA, 01760"
2024/01/15 09:40:00,"1 NOKOMIS WAY","ALARM, BURGLAR P - ALARM BLDG Chk Secure","ALARM",42.276694,-71.330653,"1 NOKOMIS WAY, NATICK, MA, 01760"
2024/01/15 10:20:00,"[NAT 2726] PARTY CITY - 321 WORCESTER ST","MOTOR VEHICLE STOP Citation/ Warning Issued","MOTOR VEHICLE STOP",42.314497,-71.257116,"321 WORCESTER ST, WELLESLEY HILLS, MA, 02481"
2024/01/15 10:43:00,"2 FRANCIS AVE","MOTOR VEHICLE STOP Citation/ Warning Issued","MOTOR VEHICLE STOP",42.292670,-71.376532,"2 FRANCIS AVE, NATICK, MA, 01760"
2024/01/15 10:50:00,"[NAT 2009] A.J. ROSE CARPET & FLOORING - 599 WORCESTER ST","MOTOR VEHICLE STOP SUMMONS REQUEST","MOTOR VEHICLE STOP",42.308407,-71.286228,"599 WORCESTER ST, WELLESLEY HILLS, MA, 02481"
2024/01/15 11:07:00,"1245 WORCESTER ST","MOTOR VEHICLE STOP Citation/ Warning Issued","MOTOR VEHICLE STOP",42.299500,-71.377749,"1245 WORCESTER ST, NATICK, MA, 01760"
2024/01/15 11:16:00,"[NAT 4142] SHERWOOD PLAZA (EAST) - 1288 WORCESTER ST","DISABLED M/V P - Services Rendered","DISABLED M/V",42.298925,-71.387202,"1288 WORCESTER ST, NATICK, MA, 01760"
2024/01/15 11:37:00,"891 WORCESTER ST","MOTOR VEHICLE STOP Citation/ Warning Issued","MOTOR VEHICLE STOP",42.305265,-71.315556,"891 WORCESTER ST, WELLESLEY, MA, 02482"
2024/01/15 12:02:00,"[NAT 3728] PLANET FITNESS - 215 WEST CENTRAL ST","MOTOR VEHICLE STOP Citation/ Warning Issued","MOTOR VEHICLE STOP",42.281997,-71.390006,"215 W CENTRAL ST, NATICK, MA, 01760"
2024/01/15 12:08:00,"[NAT 1476] MBTA WEST NATICK STATION - 251 WEST CENTRAL ST","MOTOR VEHICLE STOP Citation/ Warning Issued","MOTOR VEHICLE STOP",42.281827,-71.392458,"251 W CENTRAL ST, NATICK, MA, 01760"
2024/01/15 12:32:00,"570 WORCESTER ST","MOTOR VEHICLE STOP Citation/ Warning Issued","MOTOR VEHICLE STOP",42.301287,-71.346920,"570 WORCESTER ST, NATICK, MA, 01760"
2024/01/15 13:12:00,"[NAT 2983] SUBWAY ( EAST NATICK ) - 189 WORCESTER ST","MOTOR VEHICLE STOP Citation/ Warning Issued","MOTOR VEHICLE STOP",42.303249,-71.333719,"189 WORCESTER ST, NATICK, MA, 01760"
2024/01/15 13:20:00,"[NAT 3879] BERNARDI AUDI - 549 WORCESTER ST","MOTOR VEHICLE STOP Citation/ Warning Issued","MOTOR VEHICLE STOP",42.309143,-71.284371,"549 WORCESTER ST, WELLESLEY HILLS, MA, 02481"
2024/01/15 13:28:00,"[NAT 135] BRIGHAM GILL MOTORCARS INC - 817 WORCESTER ST","911 HANG UP P - Services Rendered","911 HANG UP",42.305644,-71.310768,"817 WORCESTER ST, WELLESLEY HILLS, MA, 02481"
2024/01/15 13:38:00,"[NAT 3645] PGA TOUR SUPERSTORE - 1398 WORCESTER ST","MOTOR VEHICLE STOP Citation/ Warning Issued","MOTOR VEHICLE STOP",42.298767,-71.391559,"1398 WORCESTER ST, NATICK, MA, 01760"
2024/01/15 13:41:00,"241 OAK ST","SUSPICIOUS ACTIVITY Report to be filed","SUSPICIOUS ACTIVITY",42.316666,-71.340908,"241 OAK ST, NATICK, MA, 01760"
2024/01/15 14:44:00,"98 HARTFORD ST","MOTOR VEHICLE STOP Citation/ Warning Issued","MOTOR VEHICLE STOP",42.292163,-71.388557,"98 HARTFORD ST, NATICK, MA, 01760"
2024/01/15 17:37:00,"12 LINCOLN SOUTH ST","PARKING COMPLAINT P - Services Rendered","PARKING COMPLAINT",42.274318,-71.312360,"12 LINCOLN ST S, NATICK, MA, 01760"
2024/01/15 17:45:00,"[NAT 1066] DUNKIN DONUTS - 249 NORTH MAIN ST","MOTOR VEHICLE STOP Citation/ Warning Issued","MOTOR VEHICLE STOP",42.307208,-71.361708,"249 N MAIN ST, NATICK, MA, 01760"
2024/01/15 17:54:00,"23 PHILLIPS POND RD","ALARM, BURGLAR P - ALARM SET OFF IN ERROR","ALARM",42.258785,-71.317211,"23 PHILLIPS POND RD, NATICK, MA, 01760"
2024/01/15 18:37:00,"1 PHILLIPS POND RD ","PARKING COMPLAINT Gone On Arrival","PARKING COMPLAINT",42.260607,-71.318651,"1 PHILLIPS POND RD, NATICK, MA, 01760"
2024/01/15 18:38:00,"[NAT 860] PIERCE COLLISION - 135 WEST CENTRAL ST","ALARM, BURGLAR P - ALARM BLDG Chk Secure","ALARM",42.283208,-71.371980,"135 W CENTRAL ST, NATICK, MA, 01760"
2024/01/15 19:14:00,"3 GLEN ST ","MOTOR VEHICLE STOP Citation/ Warning Issued","MOTOR VEHICLE STOP",42.269460,-71.314041,"3 GLEN ST, NATICK, MA, 01760"
2024/01/15 20:16:00,"[NAT 4367] FIDO DOG PARK - 109 WEST CENTRAL ST","MOTOR VEHICLE STOP Citation/ Warning Issued","MOTOR VEHICLE STOP",42.283576,-71.366282,"109 W CENTRAL ST, NATICK, MA, 01760"
2024/01/15 22:32:00,"37 CURVE ST","ALARM, BURGLAR P - ALARM SET OFF IN ERROR","ALARM",42.276771,-71.355528,"37 CURVE ST, NATICK, MA, 01760"
2024/01/15 22:52:00,"[NAT 2688] COURTYARD BY MARRIOTT - 342 SPEEN ST Apt. #521","911 HANG UP P - Services Rendered","911 HANG UP",42.300749,-71.379948,"342 SPEEN ST, NATICK, MA, 01760"
2024/01/16 06:44:00,"44 NORTH MAIN ST Apt. #3","SERVE SUMMONS UNABLE TO SERVE","SERVE SUMMONS",42.288033,-71.350178,"44 N MAIN ST, NATICK, MA, 01760"
2024/01/16 07:16:00,"21 VILLAGE ROCK LN","LARCENY OF M/V Report to be filed","LARCENY OF M/V",42.278482,-71.394655,"21 VILLAGE ROCK LN, NATICK, MA, 01760"
2024/01/16 08:39:00,"[FRA] 600 CONCORD ST","ESCORT/ TRANSPORT P - Services Rendered","ESCORT/",42.292559,-71.409285,"600 CONCORD ST, FRAMINGHAM, MA, 01702"
2024/01/16 09:30:00," 262 SPEEN ST","MOTOR VEHICLE CRASH Report to be filed","MOTOR VEHICLE CRASH",42.297144,-71.377679,"262 SPEEN ST, NATICK, MA, 01760"
2024/01/16 09:36:00,"3 LAKEVIEW GARDENS Apt. #403","ESCORT/ TRANSPORT P - Services Rendered","ESCORT/",42.277642,-71.370215,"3 LAKEVIEW AVE, NATICK, MA, 01760"
2024/01/16 10:18:00,"[NAT 920] NATICK MALL (MALL I) - 1245 WORCESTER ST","SUSPICIOUS ACTIVITY P - Services Rendered","SUSPICIOUS ACTIVITY",42.299500,-71.377749,"1245 WORCESTER ST, NATICK, MA, 01760"
2024/01/16 10:53:00,"3 HARDWICK RD","F - Structure Fire F - Services Provided","Structure Fire",42.293986,-71.392453,"3 HARDWICK RD, NATICK, MA, 01760"
2024/01/16 11:30:00,"24 WILSON ST ","MOTOR VEHICLE CRASH Report to be filed","MOTOR VEHICLE CRASH",42.284064,-71.342775,"24 WILSON ST, NATICK, MA, 01760"
2024/01/16 11:33:00,"[NAT 963] HAMPTON INN - 319 SPEEN ST","F - MVA with Injury F - Transport-Hospital","MOTOR VEHICLE CRASH",42.301009,-71.379941,"319 SPEEN ST, NATICK, MA, 01760"
2024/01/16 11:44:00,"34 WALNUT ST","Animals (Other) P - Services Rendered","ANIMALS",42.287894,-71.348012,"34 WALNUT ST, NATICK, MA, 01760"
2024/01/16 11:48:00,"[NAT 4444] 76 MARION ST - 76 MARION ST Apt. #ST","SERVE WARRANT Report to be filed","SERVE WARRANT",42.291557,-71.337800,"76 MARION ST, NATICK, MA, 01760"
2024/01/16 12:16:00,"[NAT 1063] METROWEST MEDICAL CENTER - LEONARD MORSE HOSP - 67 UNION ST","SUSPICIOUS ACTIVITY Report to be filed","SUSPICIOUS ACTIVITY",42.280369,-71.332476,"67 UNION ST, NATICK, MA, 01760"
2024/01/16 12:21:00,"14 BIRCH RD","SERVE SUMMONS UNABLE TO SERVE","SERVE SUMMONS",42.307957,-71.364027,"14 BIRCH RD, NATICK, MA, 01760"
2024/01/16 12:54:00,"[NAT 3843] NATICK HIGH SCHOOL (NEW) - 15 WEST ST","SUSPICIOUS ACTIVITY Report to be filed","SUSPICIOUS ACTIVITY",42.276971,-71.359319,"15 WEST ST, NATICK, MA, 01760"
2024/01/16 12:59:00,"[NAT 2420] GUITAR CENTER - 321 SPEEN ST","LARCENY / FORGERY/ FRAUD Report to be filed","LARCENY / FORGERY/ FRAUD",42.301013,-71.379943,"321 SPEEN ST, NATICK, MA, 01760"
2024/01/16 14:24:00,"62 POND ST","SERVE SUMMONS UNABLE TO SERVE","SERVE SUMMONS",42.281628,-71.352217,"62 POND ST, NATICK, MA, 01760"
2024/01/16 14:58:00,"[NAT 855] THRIVE PET HEALTH CARE - 121 WEST CENTRAL ST","Animals (Other) P - Services Rendered","ANIMALS",42.283651,-71.369312,"121 W CENTRAL ST, NATICK, MA, 01760"
2024/01/16 15:21:00,"74 CEDAR AVE Apt. #D","M/ V CRASH/ Hit & Run Report to be filed","MOTOR VEHICLE CRASH",42.274988,-71.356374,"74 CEDAR AVE, NATICK, MA, 01760"
2024/01/16 16:56:00,"[NAT 2222] SALON 4 - 15 WATSON ST","ALARM, BURGLAR P- Alarm Open Door/ Window","ALARM",42.282307,-71.377754,"15 WATSON ST, NATICK, MA, 01760"
2024/01/16 17:15:00,"135 WEST CENTRAL ST","MOTOR VEHICLE CRASH Report to be filed","MOTOR VEHICLE CRASH",42.283208,-71.371980,"135 W CENTRAL ST, NATICK, MA, 01760"
2024/01/16 18:17:00,"[NAT 3019] MACY'S - 1247 WORCESTER ST","SHOPLIFTING P - Services Rendered","SHOPLIFTING",42.299501,-71.377795,"1247 WORCESTER ST, NATICK, MA, 01760"
2024/01/16 19:38:00,"[NAT 3983] UNIQLO - 1245 WORCESTER ST Apt. #3084","ALARM, BURGLAR P - ALARM BLDG Chk Secure","ALARM",42.299500,-71.377749,"1245 WORCESTER ST, NATICK, MA, 01760"
2024/01/16 20:06:00,"19 VILLAGE HILL LN Apt. #8","B& E MOTOR VEHICLE Report to be filed","B& E MOTOR VEHICLE",42.275982,-71.394349,"19 VILLAGE HILL LN, NATICK, MA, 01760"
2024/01/16 21:48:00,"46 BEACON ST","SUSPICIOUS ACTIVITY P - Services Rendered","SUSPICIOUS ACTIVITY",42.295574,-71.353406,"46 BEACON ST, NATICK, MA, 01760"
2024/01/17 00:37:00,"[NAT 764] NATICK GAS & SERVICE - 225 NORTH MAIN ST","ALARM, BURGLAR P - ALARM BLDG Chk Secure","ALARM",42.303141,-71.361279,"225 N MAIN ST, NATICK, MA, 01760"
2024/01/17 05:18:00,"[NAT 4184] DAVE AND BUSTERS-2ND FLOOR - 1235 WORCESTER ST Apt. #200","ALARM, BURGLAR P - ALARM BLDG Chk Secure","ALARM",42.299493,-71.377519,"1235 WORCESTER ST, NATICK, MA, 01760"
2024/01/17 06:51:00,"62 POND ST","SERVE SUMMONS UNABLE TO SERVE","SERVE SUMMONS",42.281628,-71.352217,"62 POND ST, NATICK, MA, 01760"
2024/01/17 08:00:00,"5 RANGER RD","ALARM, BURGLAR P - ALARM BLDG Chk Secure","ALARM",42.286934,-71.390378,"5 RANGER RD, NATICK, MA, 01760"
2024/01/17 08:50:00,"16 PURINGTON AVE","Animals (Other) P - Services Rendered","ANIMALS",42.294874,-71.374325,"16 PURINGTON AVE, NATICK, MA, 01760"
2024/01/17 09:51:00,"[NAT 1015] U- HAUL CO - 834 WORCESTER ST","MOTOR VEHICLE STOP Citation/ Warning Issued","MOTOR VEHICLE STOP",42.300197,-71.356918,"834 WORCESTER ST, NATICK, MA, 01760"
2024/01/17 10:06:00,"[NAT 3879] BERNARDI AUDI - 549 WORCESTER ST","MOTOR VEHICLE STOP Citation/ Warning Issued","MOTOR VEHICLE STOP",42.309143,-71.284371,"549 WORCESTER ST, WELLESLEY HILLS, MA, 02481"
2024/01/17 10:26:00,"164 WEST CENTRAL ST","MOTOR VEHICLE STOP Citation/ Warning Issued","MOTOR VEHICLE STOP",42.282470,-71.379061,"164 W CENTRAL ST, NATICK, MA, 01760"
2024/01/17 11:29:00,"20 OXFORD ST","Animals (Other) P - Services Rendered","ANIMALS",42.307286,-71.330867,"20 OXFORD ST, NATICK, MA, 01760"
2024/01/17 12:31:00,"[NAT 3019] MACY'S - 1247 WORCESTER ST","MOTOR VEHICLE STOP Citation/ Warning Issued","MOTOR VEHICLE STOP",42.299501,-71.377795,"1247 WORCESTER ST, NATICK, MA, 01760"
2024/01/17 12:37:00,"5 COMMONWEALTH WEST RD","911 HANG UP P - Services Rendered","911 HANG UP",42.308705,-71.382072,"5 COMMONWEALTH RD, NATICK, MA, 01760"
2024/01/17 12:46:00,"14 BIRCH RD","SERVE SUMMONS UNABLE TO SERVE","SERVE SUMMONS",42.307957,-71.364027,"14 BIRCH RD, NATICK, MA, 01760"
2024/01/17 12:47:00,"[NAT 4165] ADVANCE AUTO PARTS - 219 NORTH MAIN ST","FOUND/ LOST PROPERTY Log Entry","FOUND/ LOST PROPERTY",42.303076,-71.361265,"219 N MAIN ST, NATICK, MA, 01760"
2024/01/17 12:55:00,"86 NORTH MAIN ST","MOTOR VEHICLE CRASH Report to be filed","MOTOR VEHICLE CRASH",42.290427,-71.354797,"86 N MAIN ST, NATICK, MA, 01760"
2024/01/17 12:56:00,"[NAT 1705] NATICK POLICE DEPARTMENT - 20 EAST CENTRAL ST","ONLINE INCIDENT REPORT Report to be filed","ONLINE INCIDENT REPORT",42.284248,-71.345123,"20 E CENTRAL ST, NATICK, MA, 01760"
2024/01/17 13:40:00,"[NAT 3879] BERNARDI AUDI - 549 WORCESTER ST","MOTOR VEHICLE STOP Citation/ Warning Issued","MOTOR VEHICLE STOP",42.309143,-71.284371,"549 WORCESTER ST, WELLESLEY HILLS, MA, 02481"
2024/01/17 13:44:00,"[NAT 2371] SHERWOOD PLAZA (EAST) - 1298 WORCESTER ST","MOTOR VEHICLE STOP Citation/ Warning Issued","MOTOR VEHICLE STOP",42.298923,-71.387223,"1298 WORCESTER ST, NATICK, MA, 01760"
2024/01/17 13:49:00,"114 GLEN ST ","F - MVA with Injury SUMMONS REQUEST","MOTOR VEHICLE CRASH",42.257751,-71.315576,"114 GLEN ST, NATICK, MA, 01760"
2024/01/17 13:50:00,"1364 WORCESTER ST","MOTOR VEHICLE STOP Citation/ Warning Issued","MOTOR VEHICLE STOP",42.298770,-71.391463,"1364 WORCESTER ST, NATICK, MA, 01760"
2024/01/17 14:21:00,"[NAT 3222] CHEESECAKE FACTORY - 1245 WORCESTER ST Apt. #1098","Animals (Other) P - Services Rendered","ANIMALS",42.299500,-71.377749,"1245 WORCESTER ST, NATICK, MA, 01760"
2024/01/17 15:03:00,"72 SPEEN ST","SUSPICIOUS ACTIVITY Unable to Locate","SUSPICIOUS ACTIVITY",42.277044,-71.376862,"72 SPEEN ST, NATICK, MA, 01760"
2024/01/17 15:34:00,"[NAT 3616] AVALON NATICK - CLUBHOUSE - 3 CHRYSLER RD","SUSPICIOUS ACTIVITY P - Services Rendered","SUSPICIOUS ACTIVITY",42.305152,-71.381969,"3 CHRYSLER RD, NATICK, MA, 01760"
2024/01/17 15:56:00,"225 OAK ST ","HAZARD Vehicle Towed","HAZARD",42.315369,-71.340069,"225 OAK ST, NATICK, MA, 01760"
2024/01/17 16:36:00,"[NAT 2688] COURTYARD BY MARRIOTT - 342 SPEEN ST","SUSPICIOUS ACTIVITY Gone On Arrival","SUSPICIOUS ACTIVITY",42.300749,-71.379948,"342 SPEEN ST, NATICK, MA, 01760"
2024/01/17 17:45:00,"14 SOUTH AVE ","PARKING COMPLAINT Citation/ Warning Issued","PARKING COMPLAINT",42.285567,-71.345200,"14 SOUTH AVE, NATICK, MA, 01760"
2024/01/17 19:36:00,"[NAT 3298] NATICK FIREPLACE - 671 WORCESTER ST","MOTOR VEHICLE STOP Citation/ Warning Issued","MOTOR VEHICLE STOP",42.306450,-71.295256,"671 WORCESTER ST, WELLESLEY HILLS, MA, 02481"
2024/01/17 20:19:00,"55 FISHER ST","F - Well Being Check P - Services Rendered","Well Being Check",42.293679,-71.366168,"55 FISHER ST, NATICK, MA, 01760"
2024/01/17 20:20:00,"[NAT 3] RAMP FROM RT9 WEST TO SPEEN ST NORTH - RAMP - RT9 WB TO SPEEN ST","MOTOR VEHICLE STOP Citation/ Warning Issued","MOTOR VEHICLE STOP",42.270720,-71.381262,"9 SPEEN ST, NATICK, MA, 01760"
2024/01/17 20:58:00,"[NAT 403] THE CONTAINER STORE - 1265 WORCESTER ST","MOTOR VEHICLE STOP Citation/ Warning Issued","MOTOR VEHICLE STOP",42.299514,-71.378211,"1265 WORCESTER ST, NATICK, MA, 01760"
2024/01/17 21:08:00,"[NAT 1705] NATICK POLICE DEPARTMENT - 20 EAST CENTRAL ST","LOCKOUT (VEHICLE) P - Services Rendered","LOCKOUT",42.284248,-71.345123,"20 E CENTRAL ST, NATICK, MA, 01760"
2024/01/17 21:12:00,"313 SPEEN ST ","MOTOR VEHICLE STOP Citation/ Warning Issued","MOTOR VEHICLE STOP",42.300998,-71.379934,"313 SPEEN ST, NATICK, MA, 01760"
2024/01/17 21:18:00,"194 NORTH MAIN ST ","MOTOR VEHICLE STOP Citation/ Warning Issued","MOTOR VEHICLE STOP",42.298788,-71.359505,"194 N MAIN ST, NATICK, MA, 01760"
2024/01/17 21:27:00,"24 TERRANE AVE ","NOISE COMPLAINT Unfounded","NOISE COMPLAINT",42.305349,-71.353970,"24 TERRANE AVE, NATICK, MA, 01760"
2024/01/17 21:44:00,"[NAT 1238] PUMPING STATION - 1080 WORCESTER ST","MOTOR VEHICLE STOP Citation/ Warning Issued","MOTOR VEHICLE STOP",42.298426,-71.370126,"1080 WORCESTER ST, NATICK, MA, 01760"
2024/01/17 23:43:00,"[NAT 1202] MAHAN FIELD - 90 WEST ST","DISABLED M/V P - Services Rendered","DISABLED M/V",42.268943,-71.359823,"90 WEST ST, NATICK, MA, 01760"
2024/01/18 01:08:00,"74 SUMMER ST","PARKING COMPLAINT P - Services Rendered","PARKING COMPLAINT",42.284043,-71.350984,"74 SUMMER ST, NATICK, MA, 01760"
2024/01/18 03:04:00,"[NAT 395] 313 SPEEN OFFICE BLDG - 313 SPEEN ST","MOTOR VEHICLE STOP Citation/ Warning Issued","MOTOR VEHICLE STOP",42.300998,-71.379934,"313 SPEEN ST, NATICK, MA, 01760"
2024/01/18 07:36:00,"[NAT 2972] 32 PLEASANT SOUTH ST - 32 PLEASANT ST","F - MVA with Injury F - Transport-Hospital","MOTOR VEHICLE CRASH",42.268889,-71.312789,"32 PLEASANT ST S, NATICK, MA, 01760"
2024/01/18 09:34:00,"274 ELIOT ST","MOTOR VEHICLE STOP Citation/ Warning Issued","MOTOR VEHICLE STOP",42.257521,-71.337138,"274 ELIOT ST, NATICK, MA, 01760"
2024/01/18 09:43:00,"[NAT 2009] A.J. ROSE CARPET & FLOORING - 599 WORCESTER ST","HAZARD Removed Hazard","HAZARD",42.308407,-71.286228,"599 WORCESTER ST, WELLESLEY HILLS, MA, 02481"
2024/01/18 09:47:00,"[NAT 3728] PLANET FITNESS - 215 WEST CENTRAL ST","SUSPICIOUS ACTIVITY P - Services Rendered","SUSPICIOUS ACTIVITY",42.281997,-71.390006,"215 W CENTRAL ST, NATICK, MA, 01760"
2024/01/18 10:05:00,"[NAT 124] 116 ELIOT ST - 116 ELIOT ST","MOTOR VEHICLE STOP Citation/ Warning Issued","MOTOR VEHICLE STOP",42.268650,-71.320060,"116 ELIOT ST, NATICK, MA, 01760"
2024/01/18 10:08:00,"[NAT 68] MCDONALDS, RT 9 EASTBOUND - 290 WORCESTER ST","MOTOR VEHICLE STOP Citation/ Warning Issued","MOTOR VEHICLE STOP",42.301963,-71.340499,"290 WORCESTER ST, NATICK, MA, 01760"
2024/01/18 10:26:00,"[NAT 1550] JOHN EVERETT AND SONS FUNERAL HOME - 4 PARK ST","ESCORT/ TRANSPORT Log Entry","ESCORT/",42.283897,-71.346185,"4 PARK ST, NATICK, MA, 01760"
2024/01/18 10:37:00,"[NAT 3817] BOSTONWEST VETERINARY EMERGENCY & SPECIALTY - 5 STRATHMORE RD","Animals (Other) P - Services Rendered","ANIMALS",42.296412,-71.389945,"5 STRATHMORE RD, NATICK, MA, 01760"
2024/01/18 10:50:00,"517 WORCESTER ST ","MOTOR VEHICLE STOP Citation/ Warning Issued","MOTOR VEHICLE STOP",42.310568,-71.280848,"517 WORCESTER ST, WELLESLEY HILLS, MA, 02481"
2024/01/18 10:54:00,"106 CEDAR AVE Apt. #C","F - Well Being Check F - Services Provided","Well Being Check",42.275119,-71.356587,"106 CEDAR AVE, NATICK, MA, 01760"
2024/01/18 11:40:00,"[NAT 1011] TEMPLE ISRAEL - 145 HARTFORD ST","ESCORT/ TRANSPORT P - Services Rendered","ESCORT/",42.291216,-71.403048,"145 HARTFORD ST, FRAMINGHAM, MA, 01702"
2024/01/18 11:57:00,"51 ELIOT ST ","MOTOR VEHICLE CRASH Report to be filed","MOTOR VEHICLE CRASH",42.273675,-71.315396,"51 ELIOT ST, NATICK, MA, 01760"
2024/01/18 13:15:00,"13 SOUTH AVE","COMPLAINT P - Services Rendered","COMPLAINT",42.285318,-71.346359,"13 SOUTH AVE, NATICK, MA, 01760"
2024/01/18 13:19:00,"52 PILGRIM RD","SUSPICIOUS ACTIVITY P - Services Rendered","SUSPICIOUS ACTIVITY",42.287208,-71.388975,"52 PILGRIM RD, NATICK, MA, 01760"
2024/01/18 14:15:00,"[NAT 4049] ROCHE BOBOIS - 395 WORCESTER ST","MOTOR VEHICLE STOP Citation/ Warning Issued","MOTOR VEHICLE STOP",42.314564,-71.269575,"395 WORCESTER ST, WELLESLEY HILLS, MA, 02481"
2024/01/18 14:17:00,"[NAT 1705] NATICK POLICE DEPARTMENT - 20 EAST CENTRAL ST","FOUND/ LOST PROPERTY Log Entry","FOUND/ LOST PROPERTY",42.284248,-71.345123,"20 E CENTRAL ST, NATICK, MA, 01760"
2024/01/18 14:26:00,"[NAT 2876] SEPHORA - 1245 WORCESTER ST Apt. #2164","LARCENY / FORGERY/ FRAUD Report to be filed","LARCENY / FORGERY/ FRAUD",42.299500,-71.377749,"1245 WORCESTER ST, NATICK, MA, 01760"
2024/01/18 14:37:00,"44 NORTH MAIN ST","SERVE SUMMONS Unable to Locate","SERVE SUMMONS",42.288033,-71.350178,"44 N MAIN ST, NATICK, MA, 01760"
2024/01/18 14:55:00,"[NAT 4036] RICE THEORY - 381 WORCESTER ST","MOTOR VEHICLE STOP Citation/ Warning Issued","MOTOR VEHICLE STOP",42.314702,-71.268652,"381 WORCESTER ST, WELLESLEY HILLS, MA, 02481"
2024/01/18 16:01:00,"[NAT 2223] LAUNDRY LOFT - 19 WATSON ST","SUSPICIOUS ACTIVITY P - Services Rendered","SUSPICIOUS ACTIVITY",42.282253,-71.377759,"19 WATSON ST, NATICK, MA, 01760"
2024/01/18 16:41:00,"294 WEST CENTRAL ST","LARCENY / FORGERY/ FRAUD Report to be filed","LARCENY / FORGERY/ FRAUD",42.281195,-71.396348,"294 W CENTRAL ST, NATICK, MA, 01760"
2024/01/18 17:24:00,"44 NORTH MAIN ST Apt. #3","SERVE SUMMONS UNABLE TO SERVE","SERVE SUMMONS",42.288033,-71.350178,"44 N MAIN ST, NATICK, MA, 01760"
2024/01/18 17:28:00,"[NAT 4174] BUTTERCUP - 13 WEST CENTRAL ST","SUSPICIOUS ACTIVITY P - Services Rendered","SUSPICIOUS ACTIVITY",42.283720,-71.348352,"13 W CENTRAL ST, NATICK, MA, 01760"
2024/01/18 18:02:00,"[NAT 2066] NATICK CLEANERS - 13 WATSON ST","REMOVE UNWANTED PERSON(S) P - Services Rendered","REMOVE UNWANTED PERSON(S)",42.282334,-71.377752,"13 WATSON ST, NATICK, MA, 01760"
2024/01/18 18:31:00,"[NAT 1994] VICTORIA'S SECRETS - 1245 WORCESTER ST Apt. #1070","SHOPLIFTING Report to be filed","SHOPLIFTING",42.299500,-71.377749,"1245 WORCESTER ST, NATICK, MA, 01760"
2024/01/18 18:42:00,"[NAT 74] WENDY'S - 355 WORCESTER ST","MOTOR VEHICLE STOP Citation/ Warning Issued","MOTOR VEHICLE STOP",42.314808,-71.267098,"355 WORCESTER ST, WELLESLEY HILLS, MA, 02481"
2024/01/18 19:09:00,"[NAT 865] CVS PHARMACY 2125 - 137 WEST CENTRAL ST","HAZARD Unable to Locate","HAZARD",42.283147,-71.372361,"137 W CENTRAL ST, NATICK, MA, 01760"
2024/01/18 19:12:00,"[NAT 2876] SEPHORA - 1245 WORCESTER ST Apt. #2164","SHOPLIFTING Report to be filed","SHOPLIFTING",42.299500,-71.377749,"1245 WORCESTER ST, NATICK, MA, 01760"
2024/01/18 19:20:00,"[NAT 868] WALGREEN DRUG STORE - 148 WEST CENTRAL ST","MOTOR VEHICLE STOP Citation/ Warning Issued","MOTOR VEHICLE STOP",42.282485,-71.378093,"148 W CENTRAL ST, NATICK, MA, 01760"
2024/01/18 19:39:00,"[NAT 3404] AVALON NATICK APARTMENTS - 1 CHRYSLER RD Apt. #702","COMPLAINT Unable to Locate","COMPLAINT",42.305133,-71.382036,"1 CHRYSLER RD, NATICK, MA, 01760"
2024/01/18 19:48:00,"[NAT 596] 4 WELLESLEY RD","SUSPICIOUS ACTIVITY Unable to Locate","SUSPICIOUS ACTIVITY",42.304037,-71.331307,"4 WELLESLEY RD, NATICK, MA, 01760"
2024/01/18 20:15:00,"108 CEDAR AVE","SUSPICIOUS ACTIVITY Report to be filed","SUSPICIOUS ACTIVITY",42.274638,-71.356382,"108 CEDAR AVE, NATICK, MA, 01760"
2024/01/18 21:22:00,"[NAT 4367] FIDO DOG PARK - 109 WEST CENTRAL ST","SUSPICIOUS ACTIVITY P - Services Rendered","SUSPICIOUS ACTIVITY",42.283576,-71.366282,"109 W CENTRAL ST, NATICK, MA, 01760"
2024/01/18 21:54:00,"[NAT 403] THE CONTAINER STORE - 1265 WORCESTER ST","MOTOR VEHICLE STOP Citation/ Warning Issued","MOTOR VEHICLE STOP",42.299514,-71.378211,"1265 WORCESTER ST, NATICK, MA, 01760"
2024/01/18 22:28:00,"5 NORTHWOOD LN","ALARM, BURGLAR P - ALARM BLDG Chk Secure","ALARM",42.331829,-71.331184,"5 NORTHWOOD LN, WAYLAND, MA, 01778"
2024/01/18 23:12:00,"[NAT 2418] UNIVERSITY OFFICE BUILD. ASSOC - 190 NORTH MAIN ST","ALARM, BURGLAR P - ALARM BLDG Chk Secure","ALARM",42.298626,-71.359458,"190 N MAIN ST, NATICK, MA, 01760"
2024/01/19 08:38:00,"[NAT 1145] SUPER STOP & SHOP - 829 WORCESTER ST","HAZARD Removed Hazard","HAZARD",42.305625,-71.311027,"829 WORCESTER ST, WELLESLEY HILLS, MA, 02481"
2024/01/19 09:10:00,"[NAT 4335] CHASE ATM - 219 NORTH MAIN ST","ALARM, BURGLAR P - ALARM BLDG Chk Secure","ALARM",42.303076,-71.361265,"219 N MAIN ST, NATICK, MA, 01760"
2024/01/19 09:13:00,"[NAT 4011] DUNKIN DONUTS - 119 WEST CENTRAL ST Apt. #1-A","F - MVA with Injury Report to be filed","MOTOR VEHICLE CRASH",42.283715,-71.368930,"119 W CENTRAL ST, NATICK, MA, 01760"
2024/01/19 10:07:00,"[NAT 3780] 77 KIDS - 1245 WORCESTER ST Apt. #2084","MOTOR VEHICLE STOP Citation/ Warning Issued","MOTOR VEHICLE STOP",42.299500,-71.377749,"1245 WORCESTER ST, NATICK, MA, 01760"
2024/01/19 10:14:00,"[NAT 68] MCDONALDS, RT 9 EASTBOUND - 290 WORCESTER ST","MOTOR VEHICLE STOP Arrest(s) Made","MOTOR VEHICLE STOP",42.301963,-71.340499,"290 WORCESTER ST, NATICK, MA, 01760"
2024/01/19 11:12:00,"[NAT 937] OGA'S JAPANESE CUISINE - 915 WORCESTER ST","MOTOR VEHICLE STOP SUMMONS REQUEST","MOTOR VEHICLE STOP",42.299876,-71.361849,"915 WORCESTER ST, NATICK, MA, 01760"
2024/01/19 11:14:00,"[NAT 3576] 10 DURANT RD - 10 DURANT RD Apt. #A","Animals (Other) P - Services Rendered","ANIMALS",42.274940,-71.360645,"10 DURANT RD, NATICK, MA, 01760"
2024/01/19 11:39:00,"[NAT 372] MIDDLESEX SAVINGS BANK ( MAIN OFFICE) - 6 MAIN ST","MOTOR VEHICLE CRASH Report to be filed","MOTOR VEHICLE CRASH",42.284035,-71.347246,"6 MAIN ST, NATICK, MA, 01760"
2024/01/19 15:00:00,"[NAT 963] HAMPTON INN - 319 SPEEN ST","SUSPICIOUS ACTIVITY P - Services Rendered","SUSPICIOUS ACTIVITY",42.301009,-71.379941,"319 SPEEN ST, NATICK, MA, 01760"
2024/01/19 15:10:00,"[NAT 602] SHERWOOD VILLAGE WEST - 145 MILL ST","LARCENY / FORGERY/ FRAUD Report to be filed","LARCENY / FORGERY/ FRAUD",42.287571,-71.382764,"145 MILL ST, NATICK, MA, 01760"
2024/01/19 15:35:00,"[NAT 1705] NATICK POLICE DEPARTMENT - 20 EAST CENTRAL ST","FOUND/ LOST PROPERTY Log Entry","FOUND/ LOST PROPERTY",42.284248,-71.345123,"20 E CENTRAL ST, NATICK, MA, 01760"
2024/01/19 16:35:00,"[NAT 4367] FIDO DOG PARK - 109 WEST CENTRAL ST","COMPLAINT P - Services Rendered","COMPLAINT",42.283576,-71.366282,"109 W CENTRAL ST, NATICK, MA, 01760"
2024/01/19 16:46:00,"[NAT 869] ROCHE BROS SUPERMARKET - 150 WEST CENTRAL ST","MOTOR VEHICLE STOP Citation/ Warning Issued","MOTOR VEHICLE STOP",42.282483,-71.378214,"150 W CENTRAL ST, NATICK, MA, 01760"
2024/01/19 16:49:00,"12 LARKSPUR WAY Apt. #5","LARCENY / FORGERY/ FRAUD Report to be filed","LARCENY / FORGERY/ FRAUD",42.278309,-71.390350,"12 LARKSPUR WAY, NATICK, MA, 01760"
2024/01/19 17:00:00,"[NAT 869] ROCHE BROS SUPERMARKET - 150 WEST CENTRAL ST","MOTOR VEHICLE STOP Citation/ Warning Issued","MOTOR VEHICLE STOP",42.282483,-71.378214,"150 W CENTRAL ST, NATICK, MA, 01760"
2024/01/19 17:00:00,"[NAT 3824] SALON CENTRIC - 1400 WORCESTER ST","SUSPICIOUS ACTIVITY Unfounded","SUSPICIOUS ACTIVITY",42.298767,-71.391565,"1400 WORCESTER ST, NATICK, MA, 01760"
2024/01/19 18:23:00,"59 LINCOLN STREET EXT","ALARM, BURGLAR P - ALARM BLDG Chk Secure","ALARM",42.283066,-71.343792,"59 LINCOLN ST, NATICK, MA, 01760"
2024/01/19 18:44:00,"188 COTTAGE ST ","SUSPICIOUS ACTIVITY Gone On Arrival","SUSPICIOUS ACTIVITY",42.259679,-71.342297,"188 COTTAGE ST, NATICK, MA, 01760"
2024/01/19 19:41:00,"24 CIRCULAR AVE","SUSPICIOUS ACTIVITY Gone On Arrival","SUSPICIOUS ACTIVITY",42.277293,-71.347561,"24 CIRCULAR AVE, NATICK, MA, 01760"
2024/01/19 20:17:00,"[NAT 3019] MACY'S - 1247 WORCESTER ST","SHOPLIFTING P - Services Rendered","SHOPLIFTING",42.299501,-71.377795,"1247 WORCESTER ST, NATICK, MA, 01760"
2024/01/19 20:50:00,"71 WASHINGTON ST","FOUND/ LOST PROPERTY P - Services Rendered","FOUND/ LOST PROPERTY",42.288149,-71.347020,"71 WASHINGTON ST, NATICK, MA, 01760"
2024/01/19 21:28:00,"[NAT 1539] JO- ANN FABRICS - 244 WORCESTER ST","MOTOR VEHICLE STOP Citation/ Warning Issued","MOTOR VEHICLE STOP",42.302220,-71.337927,"244 WORCESTER ST, NATICK, MA, 01760"
2024/01/19 22:22:00,"[NAT 2327] 71 SPEEN ST - 71 SPEEN ST","ALARM, BURGLAR P- Alarm Open Door/ Window","ALARM",42.276791,-71.376836,"71 SPEEN ST, NATICK, MA, 01760"
2024/01/19 22:47:00,"33 COTTAGE ST ","F - MVA with Injury F - No Patient","MOTOR VEHICLE CRASH",42.277576,-71.346755,"33 COTTAGE ST, NATICK, MA, 01760"
2024/01/19 23:06:00,"1 WEST ST","SUSPICIOUS ACTIVITY Unfounded","SUSPICIOUS ACTIVITY",42.277584,-71.357376,"1 WEST ST, NATICK, MA, 01760"
2024/01/20 01:45:00,"[NAT 1511] MONTICELLO MOTEL - 1446 WORCESTER ST Apt. #127","NOISE COMPLAINT P - Services Rendered","NOISE COMPLAINT",42.298763,-71.391695,"1446 WORCESTER ST, NATICK, MA, 01760"
2024/01/20 02:06:00,"[NAT 1511] MONTICELLO MOTEL - 1446 WORCESTER ST Apt. #127","NOISE COMPLAINT P - Services Rendered","NOISE COMPLAINT",42.298763,-71.391695,"1446 WORCESTER ST, NATICK, MA, 01760"
2024/01/20 03:00:00,"[NAT 3817] BOSTONWEST VETERINARY EMERGENCY & SPECIALTY - 5 STRATHMORE RD","SUSPICIOUS ACTIVITY P - Services Rendered","SUSPICIOUS ACTIVITY",42.296412,-71.389945,"5 STRATHMORE RD, NATICK, MA, 01760"
2024/01/20 08:37:00,"5 CROWS - 41 MAIN ST","ALARM, BURGLAR P - ALARM BLDG Chk Secure","ALARM",42.285298,-71.347741,"41 MAIN ST, NATICK, MA, 01760"
2024/01/20 08:50:00,"265 BACON ST ","MOTOR VEHICLE STOP Citation/ Warning Issued","MOTOR VEHICLE STOP",42.297486,-71.359073,"265 BACON ST, NATICK, MA, 01760"
2024/01/20 08:50:00,"5 PORTER RD","HAZARD P - Services Rendered","HAZARD",42.291825,-71.391427,"5 PORTER RD, NATICK, MA, 01760"
2024/01/20 09:00:00,"132 NORTH MAIN ST ","MOTOR VEHICLE STOP Citation/ Warning Issued","MOTOR VEHICLE STOP",42.293965,-71.357909,"132 N MAIN ST, NATICK, MA, 01760"
2024/01/20 09:13:00,"[NAT 3854] PATTERSON DENTAL - 959 WORCESTER ST","ALARM, BURGLAR P- Alarm Open Door/ Window","ALARM",42.299734,-71.362981,"959 WORCESTER ST, NATICK, MA, 01760"
2024/01/20 09:16:00,"[NAT 2769] DUNKIN DONUTS - 50 EAST CENTRAL ST","MOTOR VEHICLE STOP Citation/ Warning Issued","MOTOR VEHICLE STOP",42.284719,-71.342658,"50 E CENTRAL ST, NATICK, MA, 01760"
2024/01/20 09:18:00,"113 S MAIN ST ","PARKING COMPLAINT Removed Hazard","PARKING COMPLAINT",42.277193,-71.350470,"113 S MAIN ST, NATICK, MA, 01760"
2024/01/20 09:40:00,"124 HARTFORD ST ","MOTOR VEHICLE STOP SUMMONS REQUEST","MOTOR VEHICLE STOP",42.291619,-71.390154,"124 HARTFORD ST, NATICK, MA, 01760"
2024/01/20 10:25:00,"1 SOUTH MAIN ST","MOTOR VEHICLE CRASH Report to be filed","MOTOR VEHICLE CRASH",42.284498,-71.347509,"1 MAIN ST, NATICK, MA, 01760"
2024/01/20 10:59:00,"[NAT 3768] HARBOR FREIGHT TOOLS - 321 SPEEN ST","LARCENY / FORGERY/ FRAUD Report to be filed","LARCENY / FORGERY/ FRAUD",42.301013,-71.379943,"321 SPEEN ST, NATICK, MA, 01760"
2024/01/20 11:23:00,"24 NORTH MAIN ST ","PARKING COMPLAINT Removed Hazard","PARKING COMPLAINT",42.286845,-71.349415,"24 N MAIN ST, NATICK, MA, 01760"
2024/01/20 11:30:00,"[NAT 4049] ROCHE BOBOIS - 395 WORCESTER ST","MOTOR VEHICLE STOP Citation/ Warning Issued","MOTOR VEHICLE STOP",42.314564,-71.269575,"395 WORCESTER ST, WELLESLEY HILLS, MA, 02481"
2024/01/20 11:42:00,"[NAT 403] THE CONTAINER STORE - 1265 WORCESTER ST","MOTOR VEHICLE STOP Citation/ Warning Issued","MOTOR VEHICLE STOP",42.299514,-71.378211,"1265 WORCESTER ST, NATICK, MA, 01760"
2024/01/20 12:54:00,"83 OAK ST ","MOTOR VEHICLE STOP Citation/ Warning Issued","MOTOR VEHICLE STOP",42.304081,-71.332045,"83 OAK ST, NATICK, MA, 01760"
2024/01/20 13:13:00,"2 NOBBY LN ","F - Wire Down P - Services Rendered","Wire Down",42.281997,-71.351438,"2 NOBBY LN, NATICK, MA, 01760"
2024/01/20 13:33:00,"[NAT 2223] LAUNDRY LOFT - 19 WATSON ST","FOUND/ LOST PROPERTY Report to be filed","FOUND/ LOST PROPERTY",42.282253,-71.377759,"19 WATSON ST, NATICK, MA, 01760"
2024/01/20 13:42:00,"[NAT 957] LENSCRAFTERS - 1364 WORCESTER ST","MOTOR VEHICLE STOP Citation/ Warning Issued","MOTOR VEHICLE STOP",42.298770,-71.391463,"1364 WORCESTER ST, NATICK, MA, 01760"
2024/01/20 13:58:00,"[FRA] SLEEP NUMBER - 1 WORCESTER RD","MOTOR VEHICLE STOP Citation/ Warning Issued","MOTOR VEHICLE STOP",42.304283,-71.328611,"1 WORCESTER ST, NATICK, MA, 01760"
2024/01/20 14:15:00,"[NAT 3437] SPIRIT BEAR POWER YOGA, LLC - 19 MAIN ST","COMPLAINT P - Services Rendered","COMPLAINT",42.284534,-71.347522,"19 MAIN ST, NATICK, MA, 01760"
2024/01/20 14:32:00,"[NAT 3673] PARKING DECK D ELTA-EAST GARAGE-NATICK MALL - 1245 WORCESTER ST","ANIMALS, BARKING DOG Unfounded","ANIMALS",42.299500,-71.377749,"1245 WORCESTER ST, NATICK, MA, 01760"
2024/01/20 14:52:00,"[NAT 2448] MURPHY FIELD - 161 NORTH MAIN ST","MOTOR VEHICLE STOP Citation/ Warning Issued","MOTOR VEHICLE STOP",42.297147,-71.359019,"161 N MAIN ST, NATICK, MA, 01760"
2024/01/20 15:45:00,"[NAT 3462] CALIFORNIA CLOSETS - 1 WORCESTER ST","SUSPICIOUS ACTIVITY Gone On Arrival","SUSPICIOUS ACTIVITY",42.304283,-71.328611,"1 WORCESTER ST, NATICK, MA, 01760"
2024/01/20 17:08:00,"517 WORCESTER ST ","DISABLED M/V Report to be filed","DISABLED M/V",42.310568,-71.280848,"517 WORCESTER ST, WELLESLEY HILLS, MA, 02481"
2024/01/20 21:53:00,"[NAT 3019] MACY'S - 1247 WORCESTER ST","ALARM, BURGLAR P - Services Rendered","ALARM",42.299501,-71.377795,"1247 WORCESTER ST, NATICK, MA, 01760"
2024/01/20 22:07:00,"[NAT 3803] SUR LA TABLE - 1245 WORCESTER ST Apt. #4014","ALARM, BURGLAR P - ALARM BLDG Chk Secure","ALARM",42.299500,-71.377749,"1245 WORCESTER ST, NATICK, MA, 01760"
2024/01/21 02:39:00,"[NAT 742] AUSTIN LIQUOR STORE - 212 NORTH MAIN ST","COMPLAINT P - Services Rendered","COMPLAINT",42.303997,-71.361590,"212 N MAIN ST, NATICK, MA, 01760"
2024/01/21 09:31:00,"910 WORCESTER ST","MOTOR VEHICLE STOP Citation/ Warning Issued","MOTOR VEHICLE STOP",42.299582,-71.362449,"910 WORCESTER ST, NATICK, MA, 01760"
2024/01/21 09:46:00,"108 WORCESTER ST","MOTOR VEHICLE STOP Citation/ Warning Issued","MOTOR VEHICLE STOP",42.303712,-71.330966,"108 WORCESTER ST, NATICK, MA, 01760"
