Date,Log_Address,Log_Reason,Normalized_Reason,lat,long,Normalized_Address
2024/04/01 08:24:00,"206 WORCESTER ST ","MOTOR VEHICLE CRASH Report to be filed","MOTOR VEHICLE CRASH",42.302669,-71.334527,"206, Worcester Street, Felchville, Natick, Middlesex County, Massachusetts, 01760, United States"
2024/04/01 09:41:00,"3 MALDEN ST","Animals (Other) P - Services Rendered","ANIMALS",42.282746,-71.338837,"3, Malden Street, Natick, Middlesex County, Massachusetts, 01500, United States"
2024/04/01 09:52:00,"21 UNION ST Apt. #B","Animals (Other) P - Services Rendered","ANIMALS",42.283387,-71.338481,"21, Union Street, Natick, Middlesex County, Massachusetts, 01500, United States"
2024/04/01 09:52:00,"90 WALNUT ST","SUSPICIOUS ACTIVITY Report to be filed","SUSPICIOUS ACTIVITY",42.293783,-71.348555,"90, Walnut Street, Natick, Middlesex County, Massachusetts, 01760, United States"
2024/04/01 09:57:00,"[NAT 4037] LA FITNESS - 1 DEAN RD","MOTOR VEHICLE STOP Citation/ Warning Issued","MOTOR VEHICLE STOP",42.297172,-71.385469,"LA Fitness, 1, Dean Road, Natick, Middlesex County, Massachusetts, 01701, United States"
2024/04/01 10:08:00,"[NAT 3181] THE NORTH FACE - 1245 WORCESTER ST Apt. #4016","ALARM, BURGLAR P - ALARM BLDG Chk Secure","ALARM",42.300544,-71.383484,"McDonald's, 1245, Worcester Street, Natick, Middlesex County, Massachusetts, 01760, United States"
2024/04/01 10:19:00,"[NAT 1410] BOX 5241 - 34 BENNETT ST","MOTOR VEHICLE TOW Vehicle Towed","MOTOR VEHICLE TOW",42.275295,-71.354281,"32;34, Bennett Street, Natick, Middlesex County, Massachusetts, 01760, United States"
2024/04/01 10:31:00,"[NAT 75] NATICK- WELLESLEY VETERINARY HOSPITAL - 359 WORCESTER ST","MOTOR VEHICLE STOP Citation/ Warning Issued","MOTOR VEHICLE STOP",42.302359,-71.340845,"359, Worcester Street, Felchville, Natick, Middlesex County, Massachusetts, 01760, United States"
2024/04/01 10:49:00,"[NAT 4049] ROCHE BOBOIS - 395 WORCESTER ST","MOTOR VEHICLE STOP Citation/ Warning Issued","MOTOR VEHICLE STOP",42.299358,-71.379158,"Worcester Street, Natick, Middlesex County, Massachusetts, 01760, United States"
2024/04/01 10:55:00,"313 SPEEN ST ","MOTOR VEHICLE STOP Citation/ Warning Issued","MOTOR VEHICLE STOP",42.301634,-71.379654,"313, Speen Street, Natick, Middlesex County, Massachusetts, 01760, United States"
2024/04/01 11:15:00,"517 WORCESTER ST ","MOTOR VEHICLE STOP Citation/ Warning Issued","MOTOR VEHICLE STOP",42.299358,-71.379158,"Worcester Street, Natick, Middlesex County, Massachusetts, 01760, United States"
2024/04/01 11:26:00,"193 ELIOT ST","MOTOR VEHICLE STOP Citation/ Warning Issued","MOTOR VEHICLE STOP",42.262470,-71.330283,"193, Eliot Street, South Natick, Natick, Middlesex County, Massachusetts, 01500, United States"
2024/04/01 11:35:00,"[NAT 1094] NATICK MILLS APARTMENTS - 60 NORTH MAIN ST","MOTOR VEHICLE STOP Citation/ Warning Issued","MOTOR VEHICLE STOP",42.290485,-71.354720,"North Main Street, Felchville, Natick, Middlesex County, Massachusetts, 01760, United States"
2024/04/01 12:02:00,"[NAT 865] CVS PHARMACY 2125 - 137 WEST CENTRAL ST","DISABLED M/V P - Services Rendered","DISABLED M/V",42.283155,-71.375070,"CVS Pharmacy, 137, West Central Street, West Natick, Natick, Middlesex County, Massachusetts, 01760, United States"
2024/04/01 13:00:00,"46 WEST ST","MOTOR VEHICLE TOW Vehicle Towed","MOTOR VEHICLE TOW",42.282901,-71.352678,"46, West Central Street, Natick, Middlesex County, Massachusetts, 01760, United States"
2024/04/01 13:06:00,"17 OAK ST","Animals (Other) P - Services Rendered","ANIMALS",42.297758,-71.326649,"Oak Street Maintenance Facility, 17, Oak Street, East Natick, Natick, Middlesex County, Massachusetts, 01500, United States"
2024/04/01 13:11:00,"[NAT 4013] MITCHEL GOLD & BOB WILLIAMS - 625 WORCESTER ST Apt. #ST","MOTOR VEHICLE STOP Citation/ Warning Issued","MOTOR VEHICLE STOP",42.301587,-71.349545,"625, Worcester Street, Felchville, Natick, Middlesex County, Massachusetts, 01760, United States"
2024/04/01 13:16:00,"177 NORTH MAIN ST Apt. #B","Animals (Other) P - Services Rendered","ANIMALS",42.299128,-71.359209,"177, North Main Street, Felchville, Natick, Middlesex County, Massachusetts, 01760, United States"
2024/04/01 13:46:00,"22 WASHINGTON AVE","LARCENY / FORGERY/ FRAUD Report to be filed","LARCENY / FORGERY/ FRAUD",42.285267,-71.353256,"22, Washington Avenue, Natick, Middlesex County, Massachusetts, 01760, United States"
2024/04/01 13:55:00,"1245 WORCESTER ST ","MOTOR VEHICLE STOP Citation/ Warning Issued","MOTOR VEHICLE STOP",42.300544,-71.383484,"McDonald's, 1245, Worcester Street, Natick, Middlesex County, Massachusetts, 01760, United States"
2024/04/01 14:17:00,"[NAT 2051] HOME DEPOT - 339 SPEEN ST","LARCENY / FORGERY/ FRAUD Report to be filed","LARCENY / FORGERY/ FRAUD",42.307117,-71.381278,"The Home Depot, 339, Speen Street, Natick, Middlesex County, Massachusetts, 01760, United States"
2024/04/01 14:21:00,"915 WORCESTER ST","MOTOR VEHICLE STOP Citation/ Warning Issued","MOTOR VEHICLE STOP",42.299358,-71.379158,"Worcester Street, Natick, Middlesex County, Massachusetts, 01760, United States"
2024/04/01 14:34:00,"[NAT 3728] PLANET FITNESS - 215 WEST CENTRAL ST","REMOVE UNWANTED PERSON(S) P - Services Rendered","REMOVE UNWANTED PERSON(S)",42.282634,-71.385363,"Sol de Mexico Cafe & Grill, 215, West Central Street, Natick Village, West Natick, Natick, Middlesex County, Massachusetts, 01760, United States"
2024/04/01 15:00:00,"117 WEST CENTRAL ST","MOTOR VEHICLE STOP Citation/ Warning Issued","MOTOR VEHICLE STOP",42.283539,-71.371863,"Dunkin', 117, West Central Street, West Natick, Natick, Middlesex County, Massachusetts, 01760, United States"
2024/04/01 15:03:00,"1 LAKESHORE RD","MOTOR VEHICLE STOP SUMMONS REQUEST","MOTOR VEHICLE STOP",42.300829,-71.361180,"1, Lakeshore Road, Felchville, Natick, Middlesex County, Massachusetts, 01760, United States"
2024/04/01 15:25:00,"17 EUCLID AVE","COMPLAINT SUMMONS REQUEST","COMPLAINT",42.307280,-71.337809,"17, Euclid Avenue, East Natick, Natick, Middlesex County, Massachusetts, 01500, United States"
2024/04/01 16:37:00,"14 MAGNOLIA RD","MISSING PERSON P - Services Rendered","MISSING PERSON",42.309111,-71.366429,"Magnolia Road, North Natick, Natick, Middlesex County, Massachusetts, 01760, United States"
2024/04/01 16:44:00,"[NAT 2051] HOME DEPOT - 339 SPEEN ST","SHOPLIFTING P - Services Rendered","SHOPLIFTING",42.307117,-71.381278,"The Home Depot, 339, Speen Street, Natick, Middlesex County, Massachusetts, 01760, United States"
2024/04/01 17:12:00,"[NAT 727] BOX 6112 - 47 HARTFORD ST","LARCENY / FORGERY/ FRAUD Report to be filed","LARCENY / FORGERY/ FRAUD",42.295749,-71.381235,"47, Hartford Street, Lokerville, Natick, Middlesex County, Massachusetts, 01760, United States"
2024/04/01 17:14:00,"[NAT 920] NATICK MALL (MALL I) - 1245 WORCESTER ST","FOUND/ LOST PROPERTY Log Entry","FOUND/ LOST PROPERTY",42.300544,-71.383484,"McDonald's, 1245, Worcester Street, Natick, Middlesex County, Massachusetts, 01760, United States"
2024/04/01 17:16:00,"[NAT 3019] MACY'S - 1247 WORCESTER ST","SHOPLIFTING Civil Matter","SHOPLIFTING",42.299358,-71.379158,"Worcester Street, Natick, Middlesex County, Massachusetts, 01760, United States"
2024/04/01 17:25:00,"180 HARTFORD ST","FOUND/ LOST PROPERTY P - Services Rendered","FOUND/ LOST PROPERTY",42.292050,-71.399500,"180, Hartford Street, Lokerville, Natick, Middlesex County, Massachusetts, 01701, United States"
2024/04/01 18:16:00,"[NAT 869] ROCHE BROS SUPERMARKET - 150 WEST CENTRAL ST","MOTOR VEHICLE STOP Citation/ Warning Issued","MOTOR VEHICLE STOP",42.281264,-71.377171,"Roche Bros., 150, West Central Street, West Natick, Natick, Middlesex County, Massachusetts, 01760, United States"
2024/04/01 19:09:00,"[NAT 869] ROCHE BROS SUPERMARKET - 150 WEST CENTRAL ST","MOTOR VEHICLE STOP Citation/ Warning Issued","MOTOR VEHICLE STOP",42.281264,-71.377171,"Roche Bros., 150, West Central Street, West Natick, Natick, Middlesex County, Massachusetts, 01760, United States"
2024/04/01 20:59:00,"65 SUMMER ST","ASSIST OTHER AGENCY P - Services Rendered","ASSIST OTHER AGENCY",42.284236,-71.350071,"Summer Street, Natick, Middlesex County, Massachusetts, 01760, United States"
2024/04/01 21:53:00,"[NAT 1011] TEMPLE ISRAEL - 145 HARTFORD ST","MOTOR VEHICLE STOP Citation/ Warning Issued","MOTOR VEHICLE STOP",42.291615,-71.392802,"Temple Israel of Natick, 145, Hartford Street, Lokerville, Natick, Middlesex County, Massachusetts, 01701, United States"
2024/04/01 22:07:00,"[NAT 1504] SHERWOOD VILLAGE EAST - 143 MILL ST","MOTOR VEHICLE STOP Citation/ Warning Issued","MOTOR VEHICLE STOP",42.288020,-71.381638,"143, Mill Street, West Natick, Natick, Middlesex County, Massachusetts, 01760, United States"
2024/04/01 22:33:00,"5 FISKE ST ","MOTOR VEHICLE STOP Arrest(s) Made","MOTOR VEHICLE STOP",42.275494,-71.372826,"Fiske Street, West Natick, Natick, Middlesex County, Massachusetts, 01760, United States"
2024/04/01 23:09:00,"[NAT 936] BERNARDI VOLVO - 910 WORCESTER ST","ALARM, BURGLAR P - ALARM SET OFF IN ERROR","ALARM",42.299242,-71.361541,"Bernardi Volvo Cars Natick, 910, Worcester Street, Felchville, Natick, Middlesex County, Massachusetts, 01760, United States"
2024/04/01 23:13:00,"[NAT 2013] UPS STORE OF NATICK - 841 WORCESTER ST","MOTOR VEHICLE TOW Vehicle Towed","MOTOR VEHICLE TOW",42.301103,-71.357785,"Stop & Shop, 829;841;843;849, Worcester Street, Felchville, Natick, Middlesex County, Massachusetts, 01760, United States"
2024/04/02 04:24:00,"[NAT 1511] MONTICELLO MOTEL - 1446 WORCESTER ST Apt. #130","DISTURBANCE Unfounded","DISTURBANCE",42.299358,-71.379158,"Worcester Street, Natick, Middlesex County, Massachusetts, 01760, United States"
2024/04/02 05:10:00,"[NAT 1016] WILSON MIDDLE SCHOOL - 22 RUTLEDGE RD","ALARM, BURGLAR P - ALARM SET OFF IN ERROR","ALARM",42.302330,-71.357708,"Wilson Middle School, 22, Rutledge Road, North Natick, Natick, Middlesex County, Massachusetts, 01760, United States"
2024/04/02 06:42:00,"[NAT 168] 15 PAMELA RD - 15 PAMELA RD","ALARM, BURGLAR P - ALARM SET OFF IN ERROR","ALARM",42.313423,-71.343104,"15, Pamela Road, East Natick, Natick, Middlesex County, Massachusetts, 01500, United States"
2024/04/02 06:54:00,"225 OAK ST ","SUSPICIOUS ACTIVITY P - Services Rendered","SUSPICIOUS ACTIVITY",42.315217,-71.339711,"225, Oak Street, East Natick, Natick, Middlesex County, Massachusetts, 01500, United States"
2024/04/02 06:59:00,"[NAT 936] BERNARDI VOLVO - 910 WORCESTER ST","ALARM, BURGLAR P - ALARM SET OFF IN ERROR","ALARM",42.299242,-71.361541,"Bernardi Volvo Cars Natick, 910, Worcester Street, Felchville, Natick, Middlesex County, Massachusetts, 01760, United States"
2024/04/02 08:17:00,"1 MAIN ST ","MOTOR VEHICLE CRASH Report to be filed","MOTOR VEHICLE CRASH",42.316089,-71.361993,"345 1/2, North Main Street, North Natick, Natick, Middlesex County, Massachusetts, 01760, United States"
2024/04/02 08:46:00,"53 MILL ST ","MOTOR VEHICLE STOP Citation/ Warning Issued","MOTOR VEHICLE STOP",42.282246,-71.380205,"53, Mill Street, West Natick, Natick, Middlesex County, Massachusetts, 01760, United States"
2024/04/02 08:49:00,"6 MORSE ST","Animals (Other) Log Entry","ANIMALS",42.283475,-71.344631,"6, Morse Street, Natick, Middlesex County, Massachusetts, 01760, United States"
2024/04/02 09:17:00,"[NAT 3797] 90 OAK STREET - 90 OAK ST","Animals (Other) Log Entry","ANIMALS",42.304552,-71.333061,"East School, 90, Oak Street, East Natick, Natick, Middlesex County, Massachusetts, 01500, United States"
2024/04/02 09:46:00,"[NAT 55] 5 WETHERSFIELD RD BLDG - 5 WETHERSFIELD RD","Animals (Other) Gone On Arrival","ANIMALS",42.301620,-71.352197,"5, Wethersfield Road, Lake Forest Park, Natick, Middlesex County, Massachusetts, 01760, United States"
2024/04/02 09:52:00,"177 NORTH MAIN ST Apt. #B","Animals (Other) Log Entry","ANIMALS",42.299128,-71.359209,"177, North Main Street, Felchville, Natick, Middlesex County, Massachusetts, 01760, United States"
2024/04/02 10:21:00,"217 WEST CENTRAL ST","MOTOR VEHICLE STOP Arrest(s) Made","MOTOR VEHICLE STOP",42.282802,-71.386337,"National Tire and Battery, 217, West Central Street, Natick Village, West Natick, Natick, Middlesex County, Massachusetts, 01760, United States"
2024/04/02 10:46:00,"[NAT 3817] BOSTONWEST VETERINARY EMERGENCY & SPECIALTY - 5 STRATHMORE RD","Animals (Other) Report to be filed","ANIMALS",42.295326,-71.389294,"5, Strathmore Road, Sherwood Plaza, Lokerville, Natick, Middlesex County, Massachusetts, 01760, United States"
2024/04/02 11:01:00,"9 WARING RD","ALARM, BURGLAR P - ALARM SET OFF IN ERROR","ALARM",42.309126,-71.357689,"9, Waring Road, Lake Forest Park, Natick, Middlesex County, Massachusetts, 01760, United States"
2024/04/02 11:50:00,"11 VILLAGE WAY Apt. #4","M/ V CRASH/ Hit & Run Report to be filed","MOTOR VEHICLE CRASH",42.280214,-71.390753,"11, Village Way, Natick Village, Natick, Middlesex County, Massachusetts, 01701, United States"
2024/04/02 11:55:00,"[FRA] 600 CONCORD ST","ESCORT/ TRANSPORT P - Services Rendered","ESCORT/",42.281274,-71.351232,"Concord Street, Natick, Middlesex County, Massachusetts, 01760, United States"
2024/04/02 12:05:00,"[NAT 3879] BERNARDI AUDI - 549 WORCESTER ST","MOTOR VEHICLE STOP Citation/ Warning Issued","MOTOR VEHICLE STOP",42.301944,-71.346536,"Audi Natick, 549, Worcester Street, Felchville, Natick, Middlesex County, Massachusetts, 01760, United States"
2024/04/02 12:17:00,"[NAT 855] THRIVE PET HEALTH CARE - 121 WEST CENTRAL ST","Animals (Other) P - Services Rendered","ANIMALS",42.283642,-71.372353,"121, West Central Street, West Natick, Natick, Middlesex County, Massachusetts, 01760, United States"
2024/04/02 12:22:00,"22 WINTER ST","SUSPICIOUS ACTIVITY Report to be filed","SUSPICIOUS ACTIVITY",42.319471,-71.338956,"22, Winter Street, Natick, Middlesex County, Massachusetts, 01500, United States"
2024/04/02 12:43:00,"[NAT 3019] MACY'S - 1247 WORCESTER ST","SHOPLIFTING SUMMONS REQUEST","SHOPLIFTING",42.299358,-71.379158,"Worcester Street, Natick, Middlesex County, Massachusetts, 01760, United States"
2024/04/02 13:29:00,"[NAT 1705] NATICK POLICE DEPARTMENT - 20 EAST CENTRAL ST","ONLINE INCIDENT REPORT Report to be filed","ONLINE INCIDENT REPORT",42.284691,-71.345078,"Natick Police Department, 20, East Central Street, Natick, Middlesex County, Massachusetts, 01760, United States"
2024/04/02 14:40:00,"13 SHADY OAK LN ","Animals (Other) Log Entry","ANIMALS",42.288057,-71.400179,"13, Shady Oak Lane, Lokerville, Natick, Middlesex County, Massachusetts, 01701, United States"
2024/04/02 15:18:00,"[NAT 1547] SUNNYSIDE PLAZA - 915 WORCESTER ST","MOTOR VEHICLE STOP Citation/ Warning Issued","MOTOR VEHICLE STOP",42.299358,-71.379158,"Worcester Street, Natick, Middlesex County, Massachusetts, 01760, United States"
2024/04/02 16:15:00,"[NAT 4025] TOTAL WINE AND MORE - 321 SPEEN ST","LOCKOUT (VEHICLE) P - Services Rendered","LOCKOUT",42.303556,-71.380338,"Harbor Freight Tools, 321, Speen Street, Natick, Middlesex County, Massachusetts, 01760, United States"
2024/04/02 16:28:00,"10 VILLAGE GREEN LN Apt. #17","SERVE SUMMONS Merge: 24-5608 By: 49438","SERVE SUMMONS",42.280386,-71.391825,"10;12, Village Green Lane, Natick Village, Natick, Middlesex County, Massachusetts, 01701, United States"
2024/04/02 17:22:00,"10 VILLAGE GREEN LN Apt. #17","SERVE SUMMONS UNABLE TO SERVE","SERVE SUMMONS",42.280386,-71.391825,"10;12, Village Green Lane, Natick Village, Natick, Middlesex County, Massachusetts, 01701, United States"
2024/04/02 18:22:00,"[NAT 2005] MARY ANN MORSE NURSING CENTER - 45 UNION ST Apt. #105A","COMPLAINT Report to be filed","COMPLAINT",42.281486,-71.337536,"45, Union Street, Natick, Middlesex County, Massachusetts, 01500, United States"
2024/04/02 19:30:00,"[NAT 920] NATICK MALL (MALL I) - 1245 WORCESTER ST","FOUND/ LOST PROPERTY Log Entry","FOUND/ LOST PROPERTY",42.300544,-71.383484,"McDonald's, 1245, Worcester Street, Natick, Middlesex County, Massachusetts, 01760, United States"
2024/04/02 21:03:00,"[NAT 742] AUSTIN LIQUOR STORE - 212 NORTH MAIN ST","MOTOR VEHICLE CRASH P - Services Rendered","MOTOR VEHICLE CRASH",42.301257,-71.361444,"212, North Main Street, North Natick, Natick, Middlesex County, Massachusetts, 01760, United States"
2024/04/02 21:14:00,"17 VILLAGE WAY","ALARM, BURGLAR P - ALARM SET OFF IN ERROR","ALARM",42.279908,-71.391702,"17, Village Way, Natick Village, Natick, Middlesex County, Massachusetts, 01701, United States"
2024/04/02 21:50:00,"[NAT 235] TOWN LINE LIQUORS INC - 160 EAST CENTRAL ST","ERRATIC OPERATOR Gone On Arrival","ERRATIC OPERATOR",42.288463,-71.332628,"160, East Central Street, Natick, Middlesex County, Massachusetts, 01500, United States"
2024/04/03 06:23:00,"10 VILLAGE GREEN LN Apt. #17","SERVE SUMMONS UNABLE TO SERVE","SERVE SUMMONS",42.280386,-71.391825,"10;12, Village Green Lane, Natick Village, Natick, Middlesex County, Massachusetts, 01701, United States"
2024/04/03 06:42:00,"[NAT 625] 6 RETROP RD","911 HANG UP P - Services Rendered","911 HANG UP",42.286910,-71.328666,"6, Retrop Road, South Natick, Natick, Middlesex County, Massachusetts, 01500, United States"
2024/04/03 08:32:00,"3 WILOGREEN RD","SUSPICIOUS ACTIVITY P - Services Rendered","SUSPICIOUS ACTIVITY",42.288396,-71.328546,"3, Wilogreen Road, Natick, Middlesex County, Massachusetts, 01500, United States"
2024/04/03 08:54:00,"[NAT 2665] SPEEDWAY (RT 9 WEST) - 207 WORCESTER ST","COMPLAINT P - Services Rendered","COMPLAINT",42.303002,-71.335638,"Speedway, 207, Worcester Street, Felchville, Natick, Middlesex County, Massachusetts, 01760, United States"
2024/04/03 10:16:00,"313 SPEEN ST ","HAZARD P - Services Rendered","HAZARD",42.301634,-71.379654,"313, Speen Street, Natick, Middlesex County, Massachusetts, 01760, United States"
2024/04/03 10:42:00,"45 INDIAN RIDGE RD","Animals (Other) P - Services Rendered","ANIMALS",42.249902,-71.323810,"45, Indian Ridge Road, Natick, Middlesex County, Massachusetts, 02030, United States"
2024/04/03 11:46:00,"[NAT 4365] SUBARU SERVICE GARAGE - 932 WORCESTER ST","MOTOR VEHICLE STOP SUMMONS REQUEST","MOTOR VEHICLE STOP",42.299423,-71.362260,"932, Worcester Street, Felchville, Natick, Middlesex County, Massachusetts, 01760, United States"
2024/04/03 13:21:00,"1245 WORCESTER ST ","MOTOR VEHICLE STOP Report to be filed","MOTOR VEHICLE STOP",42.300544,-71.383484,"McDonald's, 1245, Worcester Street, Natick, Middlesex County, Massachusetts, 01760, United States"
2024/04/03 13:33:00,"29 BRADFORD RD","LARCENY / FORGERY/ FRAUD Report to be filed","LARCENY / FORGERY/ FRAUD",42.310366,-71.349730,"29, Bradford Road, Lake Forest Park, Natick, Middlesex County, Massachusetts, 01760, United States"
2024/04/03 13:48:00,"[NAT 4184] DAVE AND BUSTERS-2ND FLOOR - 313 SPEEN ST 200 ","MOTOR VEHICLE CRASH Report to be filed","MOTOR VEHICLE CRASH",42.300998,-71.379934,"313 SPEEN ST, NATICK, MA, 01760"
2024/04/03 14:17:00,"143 MILL ST","MOTOR VEHICLE STOP Citation/ Warning Issued","MOTOR VEHICLE STOP",42.288020,-71.381638,"143, Mill Street, West Natick, Natick, Middlesex County, Massachusetts, 01760, United States"
2024/04/03 14:35:00,"4 WALDEN DR Apt. #19","LARCENY / FORGERY/ FRAUD Report to be filed","LARCENY / FORGERY/ FRAUD",42.276837,-71.387899,"2;4, Walden Drive, West Natick, Natick, Middlesex County, Massachusetts, 01770, United States"
2024/04/03 16:48:00,"180 CEDAR TER Apt. #B","F - Well Being Check F - No Patient","Well Being Check",42.273020,-71.356284,"Cedar Terrace, Natick, Middlesex County, Massachusetts, 01760, United States"
2024/04/03 17:26:00,"[NAT 868] WALGREEN DRUG STORE - 148 WEST CENTRAL ST","MOTOR VEHICLE CRASH SUMMONS REQUEST","MOTOR VEHICLE CRASH",42.282549,-71.376385,"West Central Street, West Natick, Natick, Middlesex County, Massachusetts, 01760, United States"
2024/04/03 18:23:00,"10 COLEMAN CT","SUSPICIOUS ACTIVITY P - Services Rendered","SUSPICIOUS ACTIVITY",42.298446,-71.361319,"8;10, Coleman Court, Felchville, Natick, Middlesex County, Massachusetts, 01760, United States"
2024/04/03 20:39:00,"7 ROBINHOOD RD","ALARM, BURGLAR P - ALARM SET OFF IN ERROR","ALARM",42.297627,-71.376139,"7, Robinhood Road, Natick, Middlesex County, Massachusetts, 01760, United States"
2024/04/04 00:27:00,"[NAT 920] NATICK MALL (MALL I) - 1245 WORCESTER ST","HAZARD P - Services Rendered","HAZARD",42.300544,-71.383484,"McDonald's, 1245, Worcester Street, Natick, Middlesex County, Massachusetts, 01760, United States"
2024/04/04 01:24:00,"[NAT 4387] LUCID MOTORS - 1245 WORCESTER ST","ALARM, BURGLAR P - ALARM BLDG Chk Secure","ALARM",42.300544,-71.383484,"McDonald's, 1245, Worcester Street, Natick, Middlesex County, Massachusetts, 01760, United States"
2024/04/04 07:44:00,"232 POND ST ","HAZARD P - Services Rendered","HAZARD",42.277747,-71.375779,"232, Pond Street, West Natick, Natick, Middlesex County, Massachusetts, 01760, United States"
2024/04/04 08:22:00,"[NAT 2553] ETHAN ALLEN - 321 SPEEN ST","ALARM, BURGLAR P - ALARM BLDG Chk Secure","ALARM",42.303556,-71.380338,"Harbor Freight Tools, 321, Speen Street, Natick, Middlesex County, Massachusetts, 01760, United States"
2024/04/04 08:24:00,"105 OAK ST","F - Wire Down F - Services Provided","Wire Down",42.306083,-71.332428,"105, Oak Street, East Natick, Natick, Middlesex County, Massachusetts, 01500, United States"
2024/04/04 08:30:00,"[NAT 855] THRIVE PET HEALTH CARE - 121 WEST CENTRAL ST","Animals (Other) P - Services Rendered","ANIMALS",42.283642,-71.372353,"121, West Central Street, West Natick, Natick, Middlesex County, Massachusetts, 01760, United States"
2024/04/04 08:31:00,"[NAT 485] 71 GLEN ST ","F - Wire Down P - Services Rendered","Wire Down",42.263083,-71.315777,"71, Glen Street, South Natick, Natick, Middlesex County, Massachusetts, 02030, United States"
2024/04/04 09:35:00,"104 WORCESTER ST","MOTOR VEHICLE CRASH Unfounded","MOTOR VEHICLE CRASH",42.303597,-71.330047,"104, Worcester Street, East Natick, Natick, Middlesex County, Massachusetts, 01500, United States"
2024/04/04 09:43:00,"[NAT 611] BOX 1241 - 9 EAST ST Apt. #1","JUVENILE PROBLEM P - Services Rendered","JUVENILE PROBLEM",42.281511,-71.346141,"9, East Street, Natick, Middlesex County, Massachusetts, 01760, United States"
2024/04/04 10:36:00,"[NAT 4210] ANTHONYS COAL FIRED PIZZA - 219 NORTH MAIN ST Apt. #A-104","ALARM, BURGLAR P - ALARM SET OFF IN ERROR","ALARM",42.303076,-71.361265,"219 N MAIN ST, NATICK, MA, 01760"
2024/04/04 11:43:00,"[NAT 3404] AVALON NATICK APARTMENTS - 1 CHRYSLER RD Apt. #809","B& E MOTOR VEHICLE Report to be filed","B& E MOTOR VEHICLE",42.305429,-71.380194,"1, Chrysler Road, Natick, Middlesex County, Massachusetts, 01760, United States"
2024/04/04 12:17:00,"[NAT 1705] NATICK POLICE DEPARTMENT - 20 EAST CENTRAL ST","ESCORT/ TRANSPORT P - Services Rendered","ESCORT/",42.284691,-71.345078,"Natick Police Department, 20, East Central Street, Natick, Middlesex County, Massachusetts, 01760, United States"
2024/04/04 12:50:00,"[NAT 1705] NATICK POLICE DEPARTMENT - 20 EAST CENTRAL ST","SERVE WARRANT Arrest(s) Made","SERVE WARRANT",42.284691,-71.345078,"Natick Police Department, 20, East Central Street, Natick, Middlesex County, Massachusetts, 01760, United States"
2024/04/04 12:59:00,"[NAT 3592] REDI DISPENSARY - 321 SPEEN ST","ASSIST OTHER AGENCY Unable to Locate","ASSIST OTHER AGENCY",42.303556,-71.380338,"Harbor Freight Tools, 321, Speen Street, Natick, Middlesex County, Massachusetts, 01760, United States"
2024/04/04 13:14:00,"209 SPEEN ST","LARCENY / FORGERY/ FRAUD P - Services Rendered","LARCENY / FORGERY/ FRAUD",42.292127,-71.376093,"209, Speen Street, West Natick, Natick, Middlesex County, Massachusetts, 01760, United States"
2024/04/04 13:24:00,"11 FISHER ST Apt. #B","Animals (Other) Log Entry","ANIMALS",42.294852,-71.359790,"11, Fisher Street, Felchville, Natick, Middlesex County, Massachusetts, 01760, United States"
2024/04/04 13:44:00,"12 BROOK ST","Animals (Other) P - Services Rendered","ANIMALS",42.277819,-71.320708,"12, Brook Street, South Natick, Natick, Middlesex County, Massachusetts, 01500, United States"
2024/04/04 14:09:00,"[FRA] 600 CONCORD ST","ESCORT/ TRANSPORT P - Services Rendered","ESCORT/",42.281274,-71.351232,"Concord Street, Natick, Middlesex County, Massachusetts, 01760, United States"
2024/04/04 15:43:00,"10 KINSMAN PL","F - Well Being Check F - Services Provided","Well Being Check",42.291755,-71.353703,"10, Kinsman Place, Felchville, Natick, Middlesex County, Massachusetts, 01760, United States"
2024/04/04 18:42:00,"14 WEST HILL PARK","SUSPICIOUS ACTIVITY Unfounded","SUSPICIOUS ACTIVITY",42.289517,-71.399684,"14 HILL ST, NATICK, MA, 01760"
2024/04/04 21:45:00,"57 BACON ST","DISTURBANCE Report to be filed","DISTURBANCE",42.294054,-71.330101,"57, Bacon Street, Natick, Middlesex County, Massachusetts, 01500, United States"
2024/04/04 23:41:00,"223 WEST CENTRAL ST","MOTOR VEHICLE TOW Vehicle Towed","MOTOR VEHICLE TOW",42.282549,-71.376385,"West Central Street, West Natick, Natick, Middlesex County, Massachusetts, 01760, United States"
2024/04/05 00:29:00,"[NAT 963] HAMPTON INN - 319 SPEEN ST","MOTOR VEHICLE STOP Citation/ Warning Issued","MOTOR VEHICLE STOP",42.302629,-71.377661,"Hampton Inn, 319, Speen Street, Natick, Middlesex County, Massachusetts, 01760, United States"
2024/04/05 00:48:00,"[NAT 79] BERNARDI HONDA - 960 WORCESTER ST","MOTOR VEHICLE STOP Citation/ Warning Issued","MOTOR VEHICLE STOP",42.298802,-71.364049,"960, Worcester Street, Felchville, Natick, Middlesex County, Massachusetts, 01760, United States"
2024/04/05 07:33:00,"100 WEST CENTRAL ST ","F - MVA with Injury Report to be filed","MOTOR VEHICLE CRASH",42.282031,-71.359967,"100, West Central Street, Natick, Middlesex County, Massachusetts, 01760, United States"
2024/04/05 08:28:00,"[FRA] 600 CONCORD ST","ESCORT/ TRANSPORT P - Services Rendered","ESCORT/",42.281274,-71.351232,"Concord Street, Natick, Middlesex County, Massachusetts, 01760, United States"
2024/04/05 09:02:00,"257 ELIOT ST","MOTOR VEHICLE STOP Citation/ Warning Issued","MOTOR VEHICLE STOP",42.258888,-71.334398,"257, Eliot Street, South Natick, Natick, Middlesex County, Massachusetts, 01500, United States"
2024/04/05 09:16:00,"[NAT 2371] SHERWOOD PLAZA (WEST) - 1298 WORCESTER ST","MOTOR VEHICLE STOP SUMMONS REQUEST","MOTOR VEHICLE STOP",42.298141,-71.383831,"Smashburger, 1298, Worcester Street, Natick, Middlesex County, Massachusetts, 01760, United States"
2024/04/05 09:24:00,"15 VILLAGE ROCK LN Apt. #6","F - Well Being Check F - Services Provided","Well Being Check",42.278428,-71.394646,"Village Rock Lane, Natick Village, Natick, Middlesex County, Massachusetts, 01702, United States"
2024/04/05 09:47:00,"21 WESTFIELD RD","MOTOR VEHICLE STOP Citation/ Warning Issued","MOTOR VEHICLE STOP",42.285785,-71.380403,"21, Westfield Road, Natick, Middlesex County, Massachusetts, 01760, United States"
2024/04/05 09:49:00,"288 NORTH MAIN ST Apt. #2","NEIGHBOR DISPUTE P - Services Rendered","NEIGHBOR DISPUTE",42.309783,-71.361586,"288, North Main Street, North Natick, Natick, Middlesex County, Massachusetts, 01760, United States"
2024/04/05 10:00:00,"[NAT 431] CITIZENS BANK - 34 MAIN ST","SUSPICIOUS ACTIVITY P - Services Rendered","SUSPICIOUS ACTIVITY",42.285131,-71.347315,"Citizens Bank, 34, Main Street, Natick, Middlesex County, Massachusetts, 01760, United States"
2024/04/05 10:13:00,"[NAT 1482] NATICK AUTO CLINIC INC - 193 WORCESTER ST","MOTOR VEHICLE CRASH P - Services Rendered","MOTOR VEHICLE CRASH",42.299358,-71.379158,"Worcester Street, Natick, Middlesex County, Massachusetts, 01760, United States"
2024/04/05 10:31:00,"34 BURNING TREE RD","COMPLAINT Report to be filed","COMPLAINT",42.283626,-71.388292,"34, Burning Tree Road, Lokerville, Natick, Middlesex County, Massachusetts, 01760, United States"
2024/04/05 11:06:00,"[NAT 2999] 3 PENOBSCOT RD - 3 PENOBSCOT RD","Animals (Other) Log Entry","ANIMALS",42.284456,-71.332461,"3, Penobscot Road, South Natick, Natick, Middlesex County, Massachusetts, 01500, United States"
2024/04/05 11:10:00,"[NAT 3843] NATICK HIGH SCHOOL - 15 WEST ST","ASSAULT Report to be filed","ASSAULT",42.275933,-71.361274,"Natick High School, 15, West Street, Natick, Middlesex County, Massachusetts, 01760, United States"
2024/04/05 11:33:00,"[NAT 3843] NATICK HIGH SCHOOL - 15 WEST ST","ASSAULT P - Services Rendered","ASSAULT",42.275933,-71.361274,"Natick High School, 15, West Street, Natick, Middlesex County, Massachusetts, 01760, United States"
2024/04/05 11:37:00,"1245 WORCESTER ST","LARCENY / FORGERY/ FRAUD Report to be filed","LARCENY / FORGERY/ FRAUD",42.300544,-71.383484,"McDonald's, 1245, Worcester Street, Natick, Middlesex County, Massachusetts, 01760, United States"
2024/04/05 11:43:00,"[NAT 3843] NATICK HIGH SCHOOL - 15 WEST ST","ASSAULT SUMMONS REQUEST","ASSAULT",42.275933,-71.361274,"Natick High School, 15, West Street, Natick, Middlesex County, Massachusetts, 01760, United States"
2024/04/05 11:46:00,"[NAT 4113] B GOOD RESTAURANT - 1265 WORCESTER ST","MOTOR VEHICLE STOP Citation/ Warning Issued","MOTOR VEHICLE STOP",42.300027,-71.389372,"Ben & Jerry's, 1265, Worcester Street, Natick, Middlesex County, Massachusetts, 01760, United States"
2024/04/05 13:03:00,"[NAT 403] THE CONTAINER STORE - 1265 WORCESTER ST","MOTOR VEHICLE STOP SUMMONS REQUEST","MOTOR VEHICLE STOP",42.299806,-71.389394,"The Container Store, 1265, Worcester Street, Natick, Middlesex County, Massachusetts, 01760, United States"
2024/04/05 13:52:00,"12 NORTH MAIN ST","MOTOR VEHICLE STOP Citation/ Warning Issued","MOTOR VEHICLE STOP",42.290485,-71.354720,"North Main Street, Felchville, Natick, Middlesex County, Massachusetts, 01760, United States"
2024/04/05 14:43:00,"2 WORCESTER ST ","MOTOR VEHICLE CRASH Report to be filed","MOTOR VEHICLE CRASH",42.299358,-71.379158,"Worcester Street, Natick, Middlesex County, Massachusetts, 01760, United States"
2024/04/05 14:49:00,"3 JENNISON CIR","SUSPICIOUS ACTIVITY Report to be filed","SUSPICIOUS ACTIVITY",42.320959,-71.334758,"3, Jennison Circle, Natick, Middlesex County, Massachusetts, 01500, United States"
2024/04/05 14:51:00,"[NAT 872] ELIOT CENTER FOR HEALTH AND REHABILTATION - 168 WEST CENTRAL ST","MOTOR VEHICLE STOP Citation/ Warning Issued","MOTOR VEHICLE STOP",42.282113,-71.378986,"168, West Central Street, West Natick, Natick, Middlesex County, Massachusetts, 01760, United States"
2024/04/05 15:20:00,"1400 WORCESTER ST","M/ V CRASH/ Hit & Run P - Services Rendered","MOTOR VEHICLE CRASH",42.297934,-71.392263,"1400, Worcester Street, Natick, Middlesex County, Massachusetts, 01701, United States"
2024/04/05 16:04:00,"24 BRADFORD RD","LARCENY / FORGERY/ FRAUD Report to be filed","LARCENY / FORGERY/ FRAUD",42.310398,-71.351681,"24, Bradford Road, Lake Forest Park, Natick, Middlesex County, Massachusetts, 01760, United States"
2024/04/05 16:27:00,"9 VILLAGE ROCK LN Apt. #8","NEIGHBOR DISPUTE P - Services Rendered","NEIGHBOR DISPUTE",42.278966,-71.393989,"9;11, Village Rock Lane, Natick Village, Natick, Middlesex County, Massachusetts, 01702, United States"
2024/04/05 16:36:00,"[NAT 4025] TOTAL WINE AND MORE - 321 SPEEN ST","COMPLAINT Gone On Arrival","COMPLAINT",42.303556,-71.380338,"Harbor Freight Tools, 321, Speen Street, Natick, Middlesex County, Massachusetts, 01760, United States"
2024/04/05 17:01:00,"[NAT 3111] CLOVERLEAF APARTMENTS - 325 SPEEN ST Apt. #902","LARCENY / FORGERY/ FRAUD Report to be filed","LARCENY / FORGERY/ FRAUD",42.304716,-71.377648,"325, Speen Street, Natick, Middlesex County, Massachusetts, 01760, United States"
2024/04/05 17:14:00,"51 ELIOT ST ","ERRATIC OPERATOR Log Entry","ERRATIC OPERATOR",42.266507,-71.323707,"Eliot Street, South Natick, Natick, Middlesex County, Massachusetts, 01500, United States"
2024/04/05 17:53:00,"25 HARDWICK RD ","SUSPICIOUS ACTIVITY P - Services Rendered","SUSPICIOUS ACTIVITY",42.296364,-71.393082,"25, Hardwick Road, Lokerville, Natick, Middlesex County, Massachusetts, 01701, United States"
2024/04/05 19:08:00,"[NAT 3019] MACY'S - 1247 WORCESTER ST","SHOPLIFTING Arrest(s) Made","SHOPLIFTING",42.299358,-71.379158,"Worcester Street, Natick, Middlesex County, Massachusetts, 01760, United States"
2024/04/05 21:58:00,"[NAT 4327] KINGS AUTO & SPA DETAILING - 200 WEST CENTRAL ST","ALARM, BURGLAR P - ALARM BLDG Chk Secure","ALARM",42.282019,-71.384274,"200, West Central Street, Natick Village, West Natick, Natick, Middlesex County, Massachusetts, 01760, United States"
2024/04/06 00:20:00,"[NAT 2688] COURTYARD BY MARRIOTT - 342 SPEEN ST","ESCORT/ TRANSPORT P - Services Rendered","ESCORT/",42.306288,-71.383494,"Courtyard Boston Natick, 342, Speen Street, Natick, Middlesex County, Massachusetts, 01760, United States"
2024/04/06 03:38:00,"50 SILVER HILL LN Apt. #10","SUSPICIOUS ACTIVITY P - Services Rendered","SUSPICIOUS ACTIVITY",42.276903,-71.384997,"50, Silver Hill Lane, West Natick, Natick, Middlesex County, Massachusetts, 01760, United States"
2024/04/06 05:55:00,"7 LARKSPUR WAY Apt. #1","SUDDEN DEATH Report to be filed","SUDDEN DEATH",42.279168,-71.389922,"1;3;5;7, Larkspur Way, Natick, Middlesex County, Massachusetts, 01760, United States"
2024/04/06 06:43:00,"156 WALNUT ST ","MOTOR VEHICLE CRASH Report to be filed","MOTOR VEHICLE CRASH",42.300942,-71.346227,"156, Walnut Street, Natick, Middlesex County, Massachusetts, 01760, United States"
2024/04/06 06:52:00,"9 LAKEVIEW GARDENS Apt. #205","SUSPICIOUS ACTIVITY Report to be filed","SUSPICIOUS ACTIVITY",42.291269,-71.360728,"Bldg 2 (9/11), Lakeview Gardens, Natick, Middlesex County, Massachusetts, 01760, United States"
2024/04/06 07:06:00,"[NAT 2043] STARBUCKS COFFEE - 1346 WORCESTER ST","M/ V CRASH/ Hit & Run Report to be filed","MOTOR VEHICLE CRASH",42.298001,-71.387002,"Starbucks, 1346, Worcester Street, Natick, Middlesex County, Massachusetts, 01760, United States"
2024/04/06 07:21:00,"6 MILL ST ","PARKING COMPLAINT P - Services Rendered","PARKING COMPLAINT",42.278279,-71.376982,"6, Mill Street, West Natick, Natick, Middlesex County, Massachusetts, 01760, United States"
2024/04/06 09:04:00,"72 BACON ST","F - MVA with Injury Report to be filed","MOTOR VEHICLE CRASH",42.293618,-71.331252,"72, Bacon Street, Natick, Middlesex County, Massachusetts, 01500, United States"
2024/04/06 09:37:00,"5 POINT ST","LARCENY / FORGERY/ FRAUD Report to be filed","LARCENY / FORGERY/ FRAUD",42.278886,-71.371324,"5, Point Street, West Natick, Natick, Middlesex County, Massachusetts, 01760, United States"
2024/04/06 12:43:00,"A2 ROW 3 - 1245 WORCESTER ST","ABANDONED M/V P - Services Rendered","ABANDONED M/V",42.300544,-71.383484,"McDonald's, 1245, Worcester Street, Natick, Middlesex County, Massachusetts, 01760, United States"
2024/04/06 12:47:00,"[NAT 1543] RECYCLE CENTER - 21 WEST ST","LOCKOUT (VEHICLE) P - Services Rendered","LOCKOUT",42.275147,-71.360814,"West Street, Natick, Middlesex County, Massachusetts, 01760, United States"
2024/04/06 13:10:00,"[NAT 3592] REDI DISPENSARY - 321 SPEEN ST","ASSIST OTHER AGENCY P - Services Rendered","ASSIST OTHER AGENCY",42.303556,-71.380338,"Harbor Freight Tools, 321, Speen Street, Natick, Middlesex County, Massachusetts, 01760, United States"
2024/04/06 13:37:00,"[NAT 854] 57 SOUTH ST - 57 SOUTH ST","ALARM, BURGLAR P - ALARM BLDG Chk Secure","ALARM",42.256627,-71.329835,"57, South Street, South Natick, Natick, Middlesex County, Massachusetts, 01500, United States"
2024/04/06 13:46:00,"[NAT 2711] CLOSET TO CLOSET - 90 PARK AVE","911 HANG UP P - Services Rendered","911 HANG UP",42.299978,-71.356074,"90;92, Park Avenue, Felchville, Natick, Middlesex County, Massachusetts, 01760, United States"
2024/04/06 13:59:00,"15 VILLAGE ROCK LN Apt. #10","F - Well Being Check P - Services Rendered","Well Being Check",42.278428,-71.394646,"Village Rock Lane, Natick Village, Natick, Middlesex County, Massachusetts, 01702, United States"
2024/04/06 14:28:00,"[NAT 277] RELIABLE CLEANERS - 214 WEST CENTRAL ST","M/ V CRASH/ Hit & Run P - Services Rendered","MOTOR VEHICLE CRASH",42.282030,-71.385348,"214, West Central Street, Natick Village, West Natick, Natick, Middlesex County, Massachusetts, 01760, United States"
2024/04/06 15:10:00,"[NAT 4327] KINGS AUTO & SPA DETAILING - 200 WEST CENTRAL ST","ALARM, BURGLAR P - Services Rendered","ALARM",42.282019,-71.384274,"200, West Central Street, Natick Village, West Natick, Natick, Middlesex County, Massachusetts, 01760, United States"
2024/04/06 18:31:00,"[NAT 3222] CHEESECAKE FACTORY - 1245 WORCESTER ST Apt. #1098","SUSPICIOUS ACTIVITY Gone On Arrival","SUSPICIOUS ACTIVITY",42.300544,-71.383484,"McDonald's, 1245, Worcester Street, Natick, Middlesex County, Massachusetts, 01760, United States"
2024/04/06 21:25:00,"[NAT 3577] 59 ELIOT HILL RD - 59 ELIOT HILL RD","SUSPICIOUS ACTIVITY Unfounded","SUSPICIOUS ACTIVITY",42.259745,-71.337719,"59, Eliot Hill Road, Morseville, Natick, Middlesex County, Massachusetts, 01770, United States"
2024/04/06 21:45:00,"[SHR] 17 WASHINGTON ST","ASSIST OTHER AGENCY P - Services Rendered","ASSIST OTHER AGENCY",42.287821,-71.347043,"Washington Street, Natick, Middlesex County, Massachusetts, 01760, United States"
2024/04/06 22:15:00,"48 VILLAGE BROOK LN Apt. #20","NOISE COMPLAINT P - Services Rendered","NOISE COMPLAINT",42.277531,-71.392338,"46;48, Village Brook Lane, Natick Village, Natick, Middlesex County, Massachusetts, 01702, United States"
2024/04/06 22:56:00,"[NAT 3770] URBAN OUTFITTERS - 1245 WORCESTER ST Apt. #4000","ALARM, BURGLAR P - ALARM BLDG Chk Secure","ALARM",42.300544,-71.383484,"McDonald's, 1245, Worcester Street, Natick, Middlesex County, Massachusetts, 01760, United States"
2024/04/07 00:27:00,"[NAT 3698] 12 DWIGHT AVE - 12 DWIGHT AVE","ANIMALS, BARKING DOG P - Services Rendered","ANIMALS",42.308855,-71.354884,"12, Dwight Avenue, Lake Forest Park, Natick, Middlesex County, Massachusetts, 01760, United States"
2024/04/07 02:51:00,"[NAT 3616] AVALON NATICK - CLUBHOUSE - 3 CHRYSLER RD","MOTOR VEHICLE TOW Log Entry","MOTOR VEHICLE TOW",42.305768,-71.379073,"3, Chrysler Road, Natick, Middlesex County, Massachusetts, 01760, United States"
2024/04/07 04:17:00,"[NAT 4001] TODOS DANCE STUDIO - 677 WORCESTER ST","NOISE COMPLAINT P - Services Rendered","NOISE COMPLAINT",42.301402,-71.351125,"677, Worcester Street, Felchville, Natick, Middlesex County, Massachusetts, 01760, United States"
2024/04/07 08:40:00,"[NAT 1505] WENDY'S INTERNATIONAL - 303 WEST CENTRAL ST","MOTOR VEHICLE STOP Citation/ Warning Issued","MOTOR VEHICLE STOP",42.281651,-71.396098,"Wendy's, 303, West Central Street, Natick Village, Natick, Middlesex County, Massachusetts, 01760, United States"
2024/04/07 09:04:00,"[NAT 4092] NEWTON DISTRIBUTING - 245 WEST CENTRAL ST","MOTOR VEHICLE STOP Citation/ Warning Issued","MOTOR VEHICLE STOP",42.282538,-71.389604,"245, West Central Street, Natick Village, West Natick, Natick, Middlesex County, Massachusetts, 01760, United States"
2024/04/07 09:25:00,"182 MILL ST","MOTOR VEHICLE STOP Citation/ Warning Issued","MOTOR VEHICLE STOP",42.290796,-71.388104,"182, Mill Street, West Natick, Natick, Middlesex County, Massachusetts, 01760, United States"
2024/04/07 09:44:00,"30 WORCESTER ST","MOTOR VEHICLE STOP Citation/ Warning Issued","MOTOR VEHICLE STOP",42.303925,-71.327588,"30, Worcester Street, East Natick, Natick, Middlesex County, Massachusetts, 01500, United States"
2024/04/07 09:56:00,"[NAT 79] BERNARDI HONDA - 960 WORCESTER ST","DISABLED M/V Citation/ Warning Issued","DISABLED M/V",42.298802,-71.364049,"960, Worcester Street, Felchville, Natick, Middlesex County, Massachusetts, 01760, United States"
2024/04/07 10:03:00,"148 CEDAR TER","ABANDONED M/V P - Services Rendered","ABANDONED M/V",42.273323,-71.356354,"144;146;148;150;Bldg U (144-150), Cedar Terrace, Natick, Middlesex County, Massachusetts, 01760, United States"
2024/04/07 10:19:00,"[NAT 4004] VACANT - 104 WORCESTER ST","MOTOR VEHICLE STOP Citation/ Warning Issued","MOTOR VEHICLE STOP",42.303597,-71.330047,"104, Worcester Street, East Natick, Natick, Middlesex County, Massachusetts, 01500, United States"
2024/04/07 10:23:00,"[NAT 800] BOX 644 - 19 RIDGE AVE","B& E MOTOR VEHICLE Report to be filed","B& E MOTOR VEHICLE",42.294066,-71.372831,"19, Ridge Avenue, Natick, Middlesex County, Massachusetts, 01760, United States"
2024/04/07 10:35:00,"84 CEDAR AVE Apt. #D","F - Well Being Check P - Services Rendered","Well Being Check",42.273718,-71.356061,"80;82;84;86;Bldg M (80-86), Cedar Avenue, Natick, Middlesex County, Massachusetts, 01760, United States"
2024/04/07 11:24:00,"162 MILL ST","MOTOR VEHICLE STOP Citation/ Warning Issued","MOTOR VEHICLE STOP",42.289103,-71.385461,"162, Mill Street, West Natick, Natick, Middlesex County, Massachusetts, 01760, United States"
2024/04/07 12:33:00,"[NAT 3364] PANERA BREAD - 841 WORCESTER ST","MOTOR VEHICLE STOP SUMMONS REQUEST","MOTOR VEHICLE STOP",42.301076,-71.358915,"Panera Bread, 841, Worcester Street, Felchville, Natick, Middlesex County, Massachusetts, 01760, United States"
2024/04/07 12:43:00,"[NAT 3836] STARBUCKS - 333 WORCESTER ST","MOTOR VEHICLE STOP Citation/ Warning Issued","MOTOR VEHICLE STOP",42.302734,-71.338880,"Starbucks, 333, Worcester Street, Felchville, Natick, Middlesex County, Massachusetts, 01760, United States"
2024/04/07 13:59:00,"148 HARTFORD ST ","MOTOR VEHICLE STOP Citation/ Warning Issued","MOTOR VEHICLE STOP",42.290533,-71.393482,"148, Hartford Street, Lokerville, Natick, Middlesex County, Massachusetts, 01701, United States"
2024/04/07 14:12:00,"141 NORTH MAIN ST ","MOTOR VEHICLE STOP Citation/ Warning Issued","MOTOR VEHICLE STOP",42.294569,-71.357871,"141, North Main Street, Felchville, Natick, Middlesex County, Massachusetts, 01760, United States"
2024/04/07 14:16:00,"244 WEST CENTRAL ST ","MOTOR VEHICLE STOP Citation/ Warning Issued","MOTOR VEHICLE STOP",42.282549,-71.376385,"West Central Street, West Natick, Natick, Middlesex County, Massachusetts, 01760, United States"
2024/04/07 14:57:00,"[NAT 1505] WENDY'S INTERNATIONAL - 303 WEST CENTRAL ST","MOTOR VEHICLE STOP Citation/ Warning Issued","MOTOR VEHICLE STOP",42.281651,-71.396098,"Wendy's, 303, West Central Street, Natick Village, Natick, Middlesex County, Massachusetts, 01760, United States"
2024/04/07 15:10:00,"[NAT 872] ELIOT CENTER FOR HEALTH AND REHABILTATION - 168 WEST CENTRAL ST","MOTOR VEHICLE STOP Citation/ Warning Issued","MOTOR VEHICLE STOP",42.282113,-71.378986,"168, West Central Street, West Natick, Natick, Middlesex County, Massachusetts, 01760, United States"
2024/04/07 17:08:00,"7 MORGAN DR Apt. #103","COMPLAINT P - Services Rendered","COMPLAINT",42.265702,-71.355252,"Bldg 7, Morgan Drive, Natick, Middlesex County, Massachusetts, 01770, United States"
2024/04/07 17:20:00,"119 WORCESTER ST ","HAZARD P - Services Rendered","HAZARD",42.303995,-71.331528,"119, Worcester Street, East Natick, Natick, Middlesex County, Massachusetts, 01500, United States"
2024/04/07 17:35:00,"[NAT 3404] AVALON NATICK APARTMENTS - 1 CHRYSLER RD","SUSPICIOUS ACTIVITY P - Services Rendered","SUSPICIOUS ACTIVITY",42.305429,-71.380194,"1, Chrysler Road, Natick, Middlesex County, Massachusetts, 01760, United States"
2024/04/07 19:12:00,"[NAT 435] CENTER FOR THE ARTS (TCAN) - 14 SUMMER ST","ALARM, BURGLAR P - ALARM BLDG Chk Secure","ALARM",42.284369,-71.348137,"The Center For Arts In Natick, 14, Summer Street, Natick, Middlesex County, Massachusetts, 01760, United States"
2024/04/07 20:06:00,"[NAT 1145] SUPER STOP & SHOP - 829 WORCESTER ST","LARCENY / FORGERY/ FRAUD Report to be filed","LARCENY / FORGERY/ FRAUD",42.301103,-71.357785,"Stop & Shop, 829;841;843;849, Worcester Street, Felchville, Natick, Middlesex County, Massachusetts, 01760, United States"
2024/04/07 22:31:00," 3 GIBSON RD","MOTOR VEHICLE STOP Citation/ Warning Issued","MOTOR VEHICLE STOP",42.290469,-71.395258,"3, Gibson Road, Lokerville, Natick, Middlesex County, Massachusetts, 01701, United States"
2024/04/07 22:54:00,"197 WEST CENTRAL ST","MOTOR VEHICLE STOP Citation/ Warning Issued","MOTOR VEHICLE STOP",42.283017,-71.383069,"197, West Central Street, Natick Village, West Natick, Natick, Middlesex County, Massachusetts, 01760, United States"
2024/04/08 04:56:00,"[NAT 68] MCDONALDS, RT 9 EASTBOUND - 290 WORCESTER ST","HAZARD P - Services Rendered","HAZARD",42.301753,-71.337127,"McDonald's, 290, Worcester Street, Felchville, Natick, Middlesex County, Massachusetts, 01760, United States"
2024/04/08 08:30:00,"[NAT 3836] STARBUCKS - 333 WORCESTER ST","HAZARD P - Services Rendered","HAZARD",42.302734,-71.338880,"Starbucks, 333, Worcester Street, Felchville, Natick, Middlesex County, Massachusetts, 01760, United States"
2024/04/08 09:22:00,"2 VILLAGE HILL LN Apt. #9","FOUND/ LOST PROPERTY Log Entry","FOUND/ LOST PROPERTY",42.276767,-71.394702,"Village Hill Lane, Natick Village, Natick, Middlesex County, Massachusetts, 01702, United States"
2024/04/08 09:27:00,"113 SPEEN ST ","MOTOR VEHICLE CRASH Report to be filed","MOTOR VEHICLE CRASH",42.279622,-71.376300,"Speen Street, West Natick, Natick, Middlesex County, Massachusetts, 01760, United States"
2024/04/08 09:32:00,"[NAT 3590] TILES PLUS MORE - 309 WORCESTER ST","MOTOR VEHICLE STOP Citation/ Warning Issued","MOTOR VEHICLE STOP",42.303036,-71.337515,"309, Worcester Street, Felchville, Natick, Middlesex County, Massachusetts, 01760, United States"
2024/04/08 09:39:00,"16 VERNON RD","LARCENY / FORGERY/ FRAUD Report to be filed","LARCENY / FORGERY/ FRAUD",42.288577,-71.387021,"16, Vernon Road, Lokerville, Natick, Middlesex County, Massachusetts, 01760, United States"
2024/04/08 09:56:00,"[NAT 4049] ROCHE BOBOIS - 395 WORCESTER ST","MOTOR VEHICLE STOP Citation/ Warning Issued","MOTOR VEHICLE STOP",42.299358,-71.379158,"Worcester Street, Natick, Middlesex County, Massachusetts, 01760, United States"
2024/04/08 10:18:00,"[NAT 4092] NEWTON DISTRIBUTING - 245 WEST CENTRAL ST","MOTOR VEHICLE STOP Citation/ Warning Issued","MOTOR VEHICLE STOP",42.282538,-71.389604,"245, West Central Street, Natick Village, West Natick, Natick, Middlesex County, Massachusetts, 01760, United States"
2024/04/08 10:31:00,"[NAT 1198] COCHITUATE STATE PARK - 11 COMMONWEALTH WEST RD","SUSPICIOUS ACTIVITY P - Services Rendered","SUSPICIOUS ACTIVITY",42.308737,-71.381834,"11 COMMONWEALTH RD, NATICK, MA, 01760"
2024/04/08 11:01:00,"[NAT 4025] TOTAL WINE AND MORE - 321 SPEEN ST","REMOVE UNWANTED PERSON(S) P - Services Rendered","REMOVE UNWANTED PERSON(S)",42.303556,-71.380338,"Harbor Freight Tools, 321, Speen Street, Natick, Middlesex County, Massachusetts, 01760, United States"
2024/04/08 11:39:00,"76 MARION ST ","DISABLED M/V Vehicle Towed","DISABLED M/V",42.292488,-71.338203,"76, Marion Street, Natick, Middlesex County, Massachusetts, 01500, United States"
2024/04/08 13:42:00,"[NAT 3925] NIC AND ZOE - 323 SPEEN ST Apt. #ST","SUSPICIOUS ACTIVITY Unfounded","SUSPICIOUS ACTIVITY",42.304617,-71.380811,"Stickley Furniture, 323, Speen Street, Natick, Middlesex County, Massachusetts, 01760, United States"
2024/04/08 14:09:00,"8 ROLLING LN","LARCENY / FORGERY/ FRAUD Report to be filed","LARCENY / FORGERY/ FRAUD",42.294696,-71.323301,"8, Rolling Lane, Natick, Middlesex County, Massachusetts, 01500, United States"
2024/04/08 14:11:00,"517 WORCESTER ST ","MOTOR VEHICLE STOP Citation/ Warning Issued","MOTOR VEHICLE STOP",42.299358,-71.379158,"Worcester Street, Natick, Middlesex County, Massachusetts, 01760, United States"
2024/04/08 14:25:00,"[WEL] 800 WORCESTER ST","MOTOR VEHICLE STOP Citation/ Warning Issued","MOTOR VEHICLE STOP",42.299358,-71.379158,"Worcester Street, Natick, Middlesex County, Massachusetts, 01760, United States"
2024/04/08 14:57:00,"1350 WORCESTER ST ","MOTOR VEHICLE CRASH Report to be filed","MOTOR VEHICLE CRASH",42.297849,-71.387783,"Travelodge, 1350, Worcester Street, Natick, Middlesex County, Massachusetts, 01760, United States"
2024/04/08 15:09:00,"[NAT 3577] 59 ELIOT HILL RD - 59 ELIOT HILL RD","DISTURBANCE Report to be filed","DISTURBANCE",42.259745,-71.337719,"59, Eliot Hill Road, Morseville, Natick, Middlesex County, Massachusetts, 01770, United States"
2024/04/08 15:28:00,"SALLY BEAUTY - 1298 WORCESTER ST","ALARM, BURGLAR P - ALARM SET OFF IN ERROR","ALARM",42.298141,-71.383831,"Smashburger, 1298, Worcester Street, Natick, Middlesex County, Massachusetts, 01760, United States"
2024/04/08 20:40:00,"59 ELIOT HILL RD","DISTURBANCE P - Services Rendered","DISTURBANCE",42.259745,-71.337719,"59, Eliot Hill Road, Morseville, Natick, Middlesex County, Massachusetts, 01770, United States"
2024/04/08 22:01:00,"17 WALDEN DR","SUSPICIOUS ACTIVITY Unfounded","SUSPICIOUS ACTIVITY",42.276024,-71.386718,"15;17, Walden Drive, West Natick, Natick, Middlesex County, Massachusetts, 01770, United States"
2024/04/09 02:54:00,"[NAT 986] ENTERPRISE RENT A CAR - 2 WETHERSFIELD RD","ALARM, BURGLAR P - Services Rendered","ALARM",42.301226,-71.352677,"Enterprise, 2;4, Wethersfield Road, Lake Forest Park, Natick, Middlesex County, Massachusetts, 01760, United States"
2024/04/09 03:09:00,"[NAT 135] BRIGHAM GILL MOTORCARS INC - 817 WORCESTER ST","SUSPICIOUS ACTIVITY P - Services Rendered","SUSPICIOUS ACTIVITY",42.300941,-71.356596,"817, Worcester Street, Felchville, Natick, Middlesex County, Massachusetts, 01760, United States"
2024/04/09 07:08:00,"[NAT 4155] 1 HOME AVE ","F - MVA with Injury F - Transport-Hospital","MOTOR VEHICLE CRASH",42.281485,-71.386220,"Home Avenue, West Natick, Natick, Middlesex County, Massachusetts, 01760, United States"
2024/04/09 08:04:00,"82 MIDDLESEX AVE","F - Well Being Check P - Services Rendered","Well Being Check",42.284375,-71.352053,"82, Middlesex Avenue, Natick, Middlesex County, Massachusetts, 01760, United States"
2024/04/09 08:13:00,"[NAT 1147] AUTO ZONE - 120 WORCESTER ST","MOTOR VEHICLE CRASH P - Services Rendered","MOTOR VEHICLE CRASH",42.303361,-71.331113,"AutoZone, 120, Worcester Street, East Natick, Natick, Middlesex County, Massachusetts, 01500, United States"
2024/04/09 08:15:00,"[FRA] 600 CONCORD ST","ESCORT/ TRANSPORT P - Services Rendered","ESCORT/",42.281274,-71.351232,"Concord Street, Natick, Middlesex County, Massachusetts, 01760, United States"
2024/04/09 08:16:00,"[NAT 1705] NATICK POLICE DEPARTMENT - 20 EAST CENTRAL ST","ONLINE INCIDENT REPORT Report to be filed","ONLINE INCIDENT REPORT",42.284691,-71.345078,"Natick Police Department, 20, East Central Street, Natick, Middlesex County, Massachusetts, 01760, United States"
2024/04/09 09:05:00,"[NAT 3879] BERNARDI AUDI - 549 WORCESTER ST","MOTOR VEHICLE STOP Citation/ Warning Issued","MOTOR VEHICLE STOP",42.301944,-71.346536,"Audi Natick, 549, Worcester Street, Felchville, Natick, Middlesex County, Massachusetts, 01760, United States"
2024/04/09 10:12:00,"9 FOLEY DR","ALARM, BURGLAR P - ALARM SET OFF IN ERROR","ALARM",42.295344,-71.365454,"9, Foley Drive, Felchville, Natick, Middlesex County, Massachusetts, 01760, United States"
2024/04/09 11:14:00,"24 WESTLAKE RD","HAZARD P - Services Rendered","HAZARD",42.309810,-71.354371,"24, Westlake Road, Lake Forest Park, Natick, Middlesex County, Massachusetts, 01760, United States"
2024/04/09 11:17:00,"[NAT 4049] ROCHE BOBOIS - 395 WORCESTER ST","MOTOR VEHICLE STOP Citation/ Warning Issued","MOTOR VEHICLE STOP",42.299358,-71.379158,"Worcester Street, Natick, Middlesex County, Massachusetts, 01760, United States"
2024/04/09 11:21:00,"[NAT 941] VALVOLINE INSTANT OIL CHANGE - 891 WORCESTER ST","DISABLED M/V P - Services Rendered","DISABLED M/V",42.299358,-71.379158,"Worcester Street, Natick, Middlesex County, Massachusetts, 01760, United States"
2024/04/09 11:35:00,"[NAT 941] VALVOLINE INSTANT OIL CHANGE - 891 WORCESTER ST","DISABLED M/V P - Services Rendered","DISABLED M/V",42.299358,-71.379158,"Worcester Street, Natick, Middlesex County, Massachusetts, 01760, United States"
2024/04/09 11:36:00,"300 WEST CENTRAL ST","MOTOR VEHICLE STOP P - Services Rendered","MOTOR VEHICLE STOP",42.282549,-71.376385,"West Central Street, West Natick, Natick, Middlesex County, Massachusetts, 01760, United States"
2024/04/09 11:43:00,"[NAT 1001] JEHOVAH'S WITNESS ASSEMBLY HALL - 85 BACON ST","SUSPICIOUS ACTIVITY P - Services Rendered","SUSPICIOUS ACTIVITY",42.294222,-71.334068,"Jehovah's Witnesses Assembly Hall, 85, Bacon Street, Natick, Middlesex County, Massachusetts, 01500, United States"
2024/04/09 11:55:00,"[NAT 2440] BEN AND JERRYS - 1265 WORCESTER ST","SUSPICIOUS ACTIVITY P - Services Rendered","SUSPICIOUS ACTIVITY",42.300027,-71.389372,"Ben & Jerry's, 1265, Worcester Street, Natick, Middlesex County, Massachusetts, 01760, United States"
2024/04/09 12:11:00,"[NAT 1202] MAHAN FIELD - 1 WEST ST","Animals (Other) Log Entry","ANIMALS",42.277662,-71.357564,"1, West Street, Natick, Middlesex County, Massachusetts, 01760, United States"
2024/04/09 12:15:00,"14 SUNSHINE AVE","VANDALISM Report to be filed","VANDALISM",42.310385,-71.332505,"14, Sunshine Avenue, East Natick, Natick, Middlesex County, Massachusetts, 01500, United States"
2024/04/09 12:59:00,"[NAT 4164] DUNKIN DONUTS - 223 NORTH MAIN ST","MISSING/LOST CHILD P - Services Rendered","MISSING/LOST CHILD",42.302637,-71.360521,"Dunkin', 223, North Main Street, North Natick, Natick, Middlesex County, Massachusetts, 01760, United States"
2024/04/09 13:23:00,"17 OAK ST","Animals (Other) Log Entry","ANIMALS",42.297758,-71.326649,"Oak Street Maintenance Facility, 17, Oak Street, East Natick, Natick, Middlesex County, Massachusetts, 01500, United States"
2024/04/09 13:26:00,"[NAT 3] RAMP FROM RT9 WEST TO SPEEN ST NORTH - RAMP - RT9 WB TO SPEEN ST","MOTOR VEHICLE STOP Citation/ Warning Issued","MOTOR VEHICLE STOP",42.270720,-71.381262,"9 SPEEN ST, NATICK, MA, 01760"
2024/04/09 14:28:00,"11 MORGAN DR Apt. #106","LARCENY / FORGERY/ FRAUD Report to be filed","LARCENY / FORGERY/ FRAUD",42.264254,-71.353994,"Bldg 11, Morgan Drive, Natick, Middlesex County, Massachusetts, 01770, United States"
2024/04/09 15:35:00,"56 FELCH RD","Animals (Other) Gone On Arrival","ANIMALS",42.313589,-71.353030,"56, Felch Road, Lake Forest Park, Natick, Middlesex County, Massachusetts, 01760, United States"
2024/04/09 16:00:00,"8 BRADFORD RD","Animals (Other) P - Services Rendered","ANIMALS",42.308000,-71.351413,"8, Bradford Road, Lake Forest Park, Natick, Middlesex County, Massachusetts, 01760, United States"
2024/04/09 16:43:00,"10 NEW HAMPSHIRE AVE","F - Well Being Check F - Services Provided","Well Being Check",42.302076,-71.334697,"10, New Hampshire Avenue, Natick, Middlesex County, Massachusetts, 01500, United States"
2024/04/09 18:09:00,"8 OXFORD ST ","HAZARD P - Services Rendered","HAZARD",42.307288,-71.330395,"Oxford Street, East Natick, Natick, Middlesex County, Massachusetts, 01500, United States"
2024/04/09 18:57:00,"[NAT 324] DION'S PACKAGE STORE INC - 4 SOUTH AVE","SUSPICIOUS ACTIVITY P - Services Rendered","SUSPICIOUS ACTIVITY",42.285597,-71.346912,"4;6, South Avenue, Natick, Middlesex County, Massachusetts, 01760, United States"
2024/04/09 19:01:00,"[NAT 1986] SUNGLASS HUT - 1245 WORCESTER ST Apt. #2024","SHOPLIFTING Unfounded","SHOPLIFTING",42.300544,-71.383484,"McDonald's, 1245, Worcester Street, Natick, Middlesex County, Massachusetts, 01760, United States"
2024/04/09 19:35:00,"[NAT 3019] MACY'S - 1247 WORCESTER ST","LOCKOUT (VEHICLE) P - Services Rendered","LOCKOUT",42.299358,-71.379158,"Worcester Street, Natick, Middlesex County, Massachusetts, 01760, United States"
2024/04/09 21:24:00,"23 WOODBINE RD Apt. #2","LARCENY / FORGERY/ FRAUD Report to be filed","LARCENY / FORGERY/ FRAUD",42.278005,-71.389499,"21;23, Woodbine Road, Natick, Middlesex County, Massachusetts, 01760, United States"
2024/04/09 21:29:00,"[NAT 1705] NATICK POLICE DEPARTMENT - 20 EAST CENTRAL ST","SUSPICIOUS ACTIVITY P - Services Rendered","SUSPICIOUS ACTIVITY",42.284691,-71.345078,"Natick Police Department, 20, East Central Street, Natick, Middlesex County, Massachusetts, 01760, United States"
2024/04/09 21:55:00,"47 SPEEN ST","NOISE COMPLAINT P - Services Rendered","NOISE COMPLAINT",42.274411,-71.378192,"47, Speen Street, West Natick, Natick, Middlesex County, Massachusetts, 01760, United States"
2024/04/09 22:04:00,"[NAT 3404] AVALON NATICK APARTMENTS - 1 CHRYSLER RD Apt. #513","MISSING/LOST CHILD Report to be filed","MISSING/LOST CHILD",42.305429,-71.380194,"1, Chrysler Road, Natick, Middlesex County, Massachusetts, 01760, United States"
2024/04/09 22:08:00,"12 EDWARDS RD","F - Well Being Check F - Services Provided","Well Being Check",42.285114,-71.376196,"Edwards Road, Natick, Middlesex County, Massachusetts, 01760, United States"
2024/04/10 01:57:00,"7 VILLAGE HILL LN Apt. #4","MOTOR VEHICLE TOW Vehicle Towed","MOTOR VEHICLE TOW",42.276081,-71.395515,"5;7, Village Hill Lane, Natick Village, Natick, Middlesex County, Massachusetts, 01702, United States"
2024/04/10 05:03:00,"IMMERSIVE GAMEBOX - 1245 WORCESTER ST Apt. #1010","ALARM, BURGLAR P - ALARM BLDG Chk Secure","ALARM",42.300544,-71.383484,"McDonald's, 1245, Worcester Street, Natick, Middlesex County, Massachusetts, 01760, United States"
2024/04/10 08:28:00,"[NAT 872] ELIOT CENTER FOR HEALTH AND REHABILTATION - 168 WEST CENTRAL ST","ASSAULT Report to be filed","ASSAULT",42.282113,-71.378986,"168, West Central Street, West Natick, Natick, Middlesex County, Massachusetts, 01760, United States"
2024/04/10 08:32:00,"158 WALNUT ST","SERVE SUMMONS SERVED IN-HAND","SERVE SUMMONS",42.301145,-71.346284,"158, Walnut Street, Natick, Middlesex County, Massachusetts, 01760, United States"
2024/04/10 09:13:00,"[NAT 301] NATICK VILLAGE - CONDO OFFICE - 18 VILLAGE WAY","DISTURBANCE P - Services Rendered","DISTURBANCE",42.279415,-71.392306,"18, Village Way, Natick Village, Natick, Middlesex County, Massachusetts, 01701, United States"
2024/04/10 09:43:00,"[NAT 3] RAMP FROM RT9 WEST TO SPEEN ST NORTH - RAMP - RT9 WB TO SPEEN ST","MOTOR VEHICLE STOP Arrest(s) Made","MOTOR VEHICLE STOP",42.270720,-71.381262,"9 SPEEN ST, NATICK, MA, 01760"
2024/04/10 09:51:00,"17 OAK ST","Animals (Other) Citation/ Warning Issued","ANIMALS",42.297758,-71.326649,"Oak Street Maintenance Facility, 17, Oak Street, East Natick, Natick, Middlesex County, Massachusetts, 01500, United States"
2024/04/10 10:19:00,"150 WEST CENTRAL ST ","DISABLED M/V P - Services Rendered","DISABLED M/V",42.281264,-71.377171,"Roche Bros., 150, West Central Street, West Natick, Natick, Middlesex County, Massachusetts, 01760, United States"
2024/04/10 10:21:00,"[NAT 1570] 3 ANDREW CIR - 3 ANDREW CIR","Animals (Other) Log Entry","ANIMALS",42.321830,-71.330159,"3, Andrew Circle, Natick, Middlesex County, Massachusetts, 01500, United States"
2024/04/10 10:41:00,"211 OAK ST ","F - MVA with Injury Report to be filed","MOTOR VEHICLE CRASH",42.312584,-71.336719,"Oak Street, East Natick, Natick, Middlesex County, Massachusetts, 01500, United States"
2024/04/10 11:08:00,"12 SOUTH MAIN ST","Animals (Other) Log Entry","ANIMALS",42.270120,-71.356198,"South Main Street, Natick, Middlesex County, Massachusetts, 01760, United States"
2024/04/10 11:24:00,"[FRA] 600 CONCORD ST","ESCORT/ TRANSPORT P - Services Rendered","ESCORT/",42.281274,-71.351232,"Concord Street, Natick, Middlesex County, Massachusetts, 01760, United States"
2024/04/10 11:35:00,"[NAT 872] ELIOT CENTER FOR HEALTH AND REHABILTATION - 168 WEST CENTRAL ST","MOTOR VEHICLE STOP Citation/ Warning Issued","MOTOR VEHICLE STOP",42.282113,-71.378986,"168, West Central Street, West Natick, Natick, Middlesex County, Massachusetts, 01760, United States"
2024/04/10 11:36:00,"188 MILL ST","MOTOR VEHICLE STOP Citation/ Warning Issued","MOTOR VEHICLE STOP",42.291563,-71.388582,"188, Mill Street, West Natick, Natick, Middlesex County, Massachusetts, 01760, United States"
2024/04/10 12:14:00,"146 MILL ST","MOTOR VEHICLE STOP Citation/ Warning Issued","MOTOR VEHICLE STOP",42.287542,-71.383157,"146, Mill Street, West Natick, Natick, Middlesex County, Massachusetts, 01760, United States"
2024/04/10 12:34:00,"[NAT 3779] FIVE GUYS - 821 WORCESTER ST","SUSPICIOUS ACTIVITY Unfounded","SUSPICIOUS ACTIVITY",42.299358,-71.379158,"Worcester Street, Natick, Middlesex County, Massachusetts, 01760, United States"
2024/04/10 12:56:00,"[NAT 4367] FIDO DOG PARK - 109 WEST CENTRAL ST","Animals (Other) Log Entry","ANIMALS",42.283238,-71.363720,"FIDO Dog Park, 109, West Central Street, Natick, Middlesex County, Massachusetts, 01760, United States"
2024/04/10 13:32:00,"[NAT 1202] MAHAN FIELD - 1 WEST ST","Animals (Other) Log Entry","ANIMALS",42.277662,-71.357564,"1, West Street, Natick, Middlesex County, Massachusetts, 01760, United States"
2024/04/10 14:03:00,"43 POND ST","DISTURBANCE P - Services Rendered","DISTURBANCE",42.278152,-71.375638,"Pond Street, West Natick, Natick, Middlesex County, Massachusetts, 01760, United States"
2024/04/10 14:39:00,"[NAT 872] ELIOT CENTER FOR HEALTH AND REHABILTATION - 168 WEST CENTRAL ST","MOTOR VEHICLE STOP Citation/ Warning Issued","MOTOR VEHICLE STOP",42.282113,-71.378986,"168, West Central Street, West Natick, Natick, Middlesex County, Massachusetts, 01760, United States"
2024/04/10 14:42:00,"[NAT 941] VALVOLINE INSTANT OIL CHANGE - 891 WORCESTER ST","MOTOR VEHICLE STOP Citation/ Warning Issued","MOTOR VEHICLE STOP",42.299358,-71.379158,"Worcester Street, Natick, Middlesex County, Massachusetts, 01760, United States"
2024/04/10 15:10:00,"148 HARTFORD ST ","DISABLED M/V P - Services Rendered","DISABLED M/V",42.290533,-71.393482,"148, Hartford Street, Lokerville, Natick, Middlesex County, Massachusetts, 01701, United States"
2024/04/10 15:46:00,"131 POND ST","MOTOR VEHICLE STOP Citation/ Warning Issued","MOTOR VEHICLE STOP",42.278152,-71.375638,"Pond Street, West Natick, Natick, Middlesex County, Massachusetts, 01760, United States"
2024/04/10 16:44:00,"52 NORTH MAIN ST","FOUND/ LOST PROPERTY Log Entry","FOUND/ LOST PROPERTY",42.288591,-71.350728,"52, North Main Street, Felchville, Natick, Middlesex County, Massachusetts, 01760, United States"
2024/04/10 16:48:00,"3 FRANKLIN ST Apt. #3","COMPLAINT Report to be filed","COMPLAINT",42.286898,-71.345604,"3, Franklin Street, Natick, Middlesex County, Massachusetts, 01760, United States"
2024/04/10 17:17:00,"5 PINE ST","911 HANG UP P - Services Rendered","911 HANG UP",42.314160,-71.359399,"5, Pine Street, Lake Forest Park, Natick, Middlesex County, Massachusetts, 01760, United States"
2024/04/10 17:58:00,"[NAT 3019] MACY'S - 1247 WORCESTER ST","SHOPLIFTING Arrest(s) Made","SHOPLIFTING",42.299358,-71.379158,"Worcester Street, Natick, Middlesex County, Massachusetts, 01760, United States"
2024/04/10 18:21:00,"12 PLAIN ST Apt. #3","F - Well Being Check F - Services Provided","Well Being Check",42.281832,-71.348446,"12, Plain Street, Natick, Middlesex County, Massachusetts, 01760, United States"
2024/04/10 18:56:00,"1 CABOT ST","F - Well Being Check P - Services Rendered","Well Being Check",42.322667,-71.329742,"1, Cabot Street, Natick, Middlesex County, Massachusetts, 01500, United States"
2024/04/10 19:41:00,"[NAT 3793] DOVER RUG - 721 WORCESTER ST","MOTOR VEHICLE STOP Citation/ Warning Issued","MOTOR VEHICLE STOP",42.301206,-71.353502,"721, Worcester Street, Felchville, Natick, Middlesex County, Massachusetts, 01760, United States"
2024/04/10 21:37:00,"[NAT 3675] ZITI'S OF NATICK - 218 SPEEN ST","SUSPICIOUS ACTIVITY Gone On Arrival","SUSPICIOUS ACTIVITY",42.279622,-71.376300,"Speen Street, West Natick, Natick, Middlesex County, Massachusetts, 01760, United States"
2024/04/11 04:26:00,"84 CEDAR AVE","NOISE COMPLAINT P - Services Rendered","NOISE COMPLAINT",42.273718,-71.356061,"80;82;84;86;Bldg M (80-86), Cedar Avenue, Natick, Middlesex County, Massachusetts, 01760, United States"
2024/04/11 06:04:00,"[NAT 2872] MEDICAL ASSOCIATES OF GREATER BOSTON - 307 WEST CENTRAL ST","ALARM, BURGLAR P - ALARM SET OFF IN ERROR","ALARM",42.281509,-71.396776,"307, West Central Street, Natick Village, Natick, Middlesex County, Massachusetts, 01702, United States"
2024/04/11 06:09:00,"[NAT 351] BAKERY ON THE COMMON - 9 SOUTH MAIN ST","VANDALISM P - Services Rendered","VANDALISM",42.270120,-71.356198,"South Main Street, Natick, Middlesex County, Massachusetts, 01760, United States"
2024/04/11 07:56:00,"14 BIRCH RD","LARCENY / FORGERY/ FRAUD Report to be filed","LARCENY / FORGERY/ FRAUD",42.307893,-71.363923,"14, Birch Road, North Natick, Natick, Middlesex County, Massachusetts, 01760, United States"
2024/04/11 08:21:00,"[FRA] NATICK DISTRICT COURT - 600 CONCORD ST","ESCORT/ TRANSPORT P - Services Rendered","ESCORT/",42.281274,-71.351232,"Concord Street, Natick, Middlesex County, Massachusetts, 01760, United States"
2024/04/11 09:49:00,"2 CRESCENT ST ","Animals (Other) Gone On Arrival","ANIMALS",42.288486,-71.375080,"2, Crescent Street, Natick, Middlesex County, Massachusetts, 01760, United States"
2024/04/11 09:54:00,"[NAT 3314] J.J. LANE PARK - 185 SPEEN ST","Animals (Other) Log Entry","ANIMALS",42.279622,-71.376300,"Speen Street, West Natick, Natick, Middlesex County, Massachusetts, 01760, United States"
2024/04/11 10:26:00,"23 COTTAGE ST","M/ V CRASH/ Hit & Run Report to be filed","MOTOR VEHICLE CRASH",42.278151,-71.347003,"23, Cottage Street, Natick, Middlesex County, Massachusetts, 01760, United States"
2024/04/11 11:24:00,"[NAT 1511] MONTICELLO MOTEL - 1446 WORCESTER ST","ASSIST OTHER AGENCY Unable to Locate","ASSIST OTHER AGENCY",42.299358,-71.379158,"Worcester Street, Natick, Middlesex County, Massachusetts, 01760, United States"
2024/04/11 12:06:00,"[NAT 3778] SUNKAWAY U-TURN - 290 WORCESTER ST","DISABLED M/V Vehicle Towed","DISABLED M/V",42.301753,-71.337127,"McDonald's, 290, Worcester Street, Felchville, Natick, Middlesex County, Massachusetts, 01760, United States"
2024/04/11 13:23:00,"251 BACON ST ","DISABLED M/V SUMMONS REQUEST","DISABLED M/V",42.297378,-71.356487,"251, Bacon Street, Felchville, Natick, Middlesex County, Massachusetts, 01760, United States"
2024/04/11 13:30:00,"[NAT 2411] NATICK MALL (SOUTH PARKING LOT) - 1245 WORCESTER ST","MOTOR VEHICLE CRASH P - Services Rendered","MOTOR VEHICLE CRASH",42.300544,-71.383484,"McDonald's, 1245, Worcester Street, Natick, Middlesex County, Massachusetts, 01760, United States"
2024/04/11 13:48:00,"[NAT 4206] MASS GENERAL BRIGHAM URGENT CARE - 219 NORTH MAIN ST","F - MVA with Injury SUMMONS REQUEST","MOTOR VEHICLE CRASH",42.302162,-71.359671,"Chipotle, 219, North Main Street, North Natick, Natick, Middlesex County, Massachusetts, 01760, United States"
2024/04/11 14:01:00,"[NAT 3616] AVALON NATICK - CLUBHOUSE - 3 CHRYSLER RD","MOTOR VEHICLE TOW Vehicle Towed","MOTOR VEHICLE TOW",42.305768,-71.379073,"3, Chrysler Road, Natick, Middlesex County, Massachusetts, 01760, United States"
2024/04/11 15:28:00,"8 FELCH CT","SUSPICIOUS ACTIVITY Unfounded","SUSPICIOUS ACTIVITY",42.311008,-71.359809,"8, Felch Court, Lake Forest Park, Natick, Middlesex County, Massachusetts, 01760, United States"
2024/04/11 16:59:00,"27 VILLAGE ROCK LN Apt. #18","F - Well Being Check F - Transport-Hospital","Well Being Check",42.278428,-71.394646,"Village Rock Lane, Natick Village, Natick, Middlesex County, Massachusetts, 01702, United States"
2024/04/11 19:12:00,"[NAT 3287] NORDSTROM - 290 SPEEN ST","SHOPLIFTING Report to be filed","SHOPLIFTING",42.302625,-71.382688,"Nordstrom, 290, Speen Street, Natick, Middlesex County, Massachusetts, 01760, United States"
2024/04/11 20:58:00,"175 OAK ST ","Animals (Other) P - Services Rendered","ANIMALS",42.312584,-71.336719,"Oak Street, East Natick, Natick, Middlesex County, Massachusetts, 01500, United States"
2024/04/12 06:54:00,"1 GRIST MILL LN ","911 HANG UP P - Services Rendered","911 HANG UP",42.258610,-71.331300,"1, Grist Mill Lane, Natick, Middlesex County, Massachusetts, 01770, United States"
2024/04/12 07:09:00,"[NAT 2440] BEN AND JERRYS - 1265 WORCESTER ST","ALARM, BURGLAR P - ALARM BLDG Chk Secure","ALARM",42.300027,-71.389372,"Ben & Jerry's, 1265, Worcester Street, Natick, Middlesex County, Massachusetts, 01760, United States"
2024/04/12 08:31:00,"[NAT 4011] DUNKIN DONUTS - 119 WEST CENTRAL ST Apt. #1-A","REMOVE UNWANTED PERSON(S) Removed Hazard","REMOVE UNWANTED PERSON(S)",42.283715,-71.368930,"119 W CENTRAL ST, NATICK, MA, 01760"
2024/04/12 09:47:00,"[NAT 855] THRIVE PET HEALTH CARE - 121 WEST CENTRAL ST","Animals (Other) Log Entry","ANIMALS",42.283642,-71.372353,"121, West Central Street, West Natick, Natick, Middlesex County, Massachusetts, 01760, United States"
2024/04/12 10:11:00,"17 WALDEN DR Apt. #2","DISTURBANCE P - Services Rendered","DISTURBANCE",42.276024,-71.386718,"15;17, Walden Drive, West Natick, Natick, Middlesex County, Massachusetts, 01770, United States"
2024/04/12 10:40:00,"3 TECH CIR ","Animals (Other) Gone On Arrival","ANIMALS",42.314400,-71.337983,"Zimmer Northeast, 3, Tech Circle, East Natick Industrial Park, Natick, Middlesex County, Massachusetts, 01760, United States"
2024/04/12 10:47:00,"154 OAK ST ","Animals (Other) P - Services Rendered","ANIMALS",42.311139,-71.334484,"154, Oak Street, East Natick, Natick, Middlesex County, Massachusetts, 01500, United States"
2024/04/12 11:24:00,"[NAT 3728] PLANET FITNESS - 215 WEST CENTRAL ST","MOTOR VEHICLE STOP Citation/ Warning Issued","MOTOR VEHICLE STOP",42.282634,-71.385363,"Sol de Mexico Cafe & Grill, 215, West Central Street, Natick Village, West Natick, Natick, Middlesex County, Massachusetts, 01760, United States"
2024/04/12 11:36:00,"251 WEST CENTRAL ST ","MOTOR VEHICLE STOP Citation/ Warning Issued","MOTOR VEHICLE STOP",42.282654,-71.392655,"Subway, 251, West Central Street, Natick Village, Natick, Middlesex County, Massachusetts, 01760, United States"
2024/04/12 11:37:00,"[NAT 920] NATICK MALL (MALL I) - 1245 WORCESTER ST","MOTOR VEHICLE STOP Citation/ Warning Issued","MOTOR VEHICLE STOP",42.300544,-71.383484,"McDonald's, 1245, Worcester Street, Natick, Middlesex County, Massachusetts, 01760, United States"
2024/04/12 12:21:00,"[NAT 1063] METROWEST MEDICAL CENTER - LEONARD MORSE HOSP - 67 UNION ST","LARCENY / FORGERY/ FRAUD Arrest(s) Made","LARCENY / FORGERY/ FRAUD",42.280157,-71.335248,"MetroWest Medical Center: Leonard Morse Hospital, 67, Union Street, South Natick, Natick, Middlesex County, Massachusetts, 01760, United States"
2024/04/12 12:44:00,"10 CLEARVIEW DR","ALARM, BURGLAR P - ALARM WEATH/PWR Rel","ALARM",42.274228,-71.336683,"10, Clearview Drive, Natick, Middlesex County, Massachusetts, 01500, United States"
2024/04/12 13:43:00,"[NAT 3162] ST PATRICK'S SCHOOL - 45 EAST CENTRAL ST","SUSPICIOUS ACTIVITY Unable to Locate","SUSPICIOUS ACTIVITY",42.285033,-71.340769,"East Central Street, Natick, Middlesex County, Massachusetts, 01760, United States"
2024/04/12 13:45:00,"164 WEST CENTRAL ST","MOTOR VEHICLE STOP SUMMONS REQUEST","MOTOR VEHICLE STOP",42.282251,-71.378469,"164, West Central Street, West Natick, Natick, Middlesex County, Massachusetts, 01760, United States"
2024/04/12 13:49:00,"3 TECH CIR ","PARKING COMPLAINT P - Services Rendered","PARKING COMPLAINT",42.314400,-71.337983,"Zimmer Northeast, 3, Tech Circle, East Natick Industrial Park, Natick, Middlesex County, Massachusetts, 01760, United States"
2024/04/12 14:34:00,"[NAT 3671] SPEEDWAY (RT 9 EAST) - 230 WORCESTER ST","LOCKOUT (VEHICLE) P - Services Rendered","LOCKOUT",42.302446,-71.335572,"Speedway, 230, Worcester Street, Felchville, Natick, Middlesex County, Massachusetts, 01760, United States"
2024/04/12 14:37:00,"18 PLAIN ST","F - Well Being Check F - Transport-Hospital","Well Being Check",42.281478,-71.348399,"18, Plain Street, Natick, Middlesex County, Massachusetts, 01760, United States"
2024/04/12 15:18:00,"1 AUTUMN LN ","SUSPICIOUS ACTIVITY P - Services Rendered","SUSPICIOUS ACTIVITY",42.276071,-71.383400,"1, Autumn Lane, West Natick, Natick, Middlesex County, Massachusetts, 01760, United States"
2024/04/12 16:47:00,"[NAT 1398] TOWN HALL - 13 EAST CENTRAL ST","SUSPICIOUS ACTIVITY P - Services Rendered","SUSPICIOUS ACTIVITY",42.283717,-71.345872,"Natick Town Hall, 13, East Central Street, Natick, Middlesex County, Massachusetts, 01760, United States"
2024/04/12 16:50:00,"8 PERRY RD","REMOVE UNWANTED PERSON(S) Report to be filed","REMOVE UNWANTED PERSON(S)",42.303989,-71.362317,"8, Perry Road, North Natick, Natick, Middlesex County, Massachusetts, 01760, United States"
2024/04/12 17:12:00,"[NAT 2932] LZ-5 NATICK (MACY'S LOT) - 1239 WORCESTER ST","REMOVE UNWANTED PERSON(S) P - Services Rendered","REMOVE UNWANTED PERSON(S)",42.299358,-71.379158,"Worcester Street, Natick, Middlesex County, Massachusetts, 01760, United States"
2024/04/12 17:25:00,"10 REDMEN DR","ALARM, BURGLAR P - ALARM BLDG Chk Secure","ALARM",42.270091,-71.358700,"10, Redmen Drive, Natick, Middlesex County, Massachusetts, 01760, United States"
2024/04/12 17:28:00,"[NAT 872] ELIOT CENTER FOR HEALTH AND REHABILTATION - 168 WEST CENTRAL ST","SUSPICIOUS ACTIVITY Log Entry","SUSPICIOUS ACTIVITY",42.282113,-71.378986,"168, West Central Street, West Natick, Natick, Middlesex County, Massachusetts, 01760, United States"
2024/04/12 18:52:00,"31 WEST CENTRAL ST","DISTURBANCE P - Services Rendered","DISTURBANCE",42.283668,-71.350030,"31, West Central Street, Natick, Middlesex County, Massachusetts, 01760, United States"
2024/04/12 20:26:00,"[NAT 4130] KOHR GOLF - 218 SPEEN ST","ALARM, BURGLAR P - ALARM SET OFF IN ERROR","ALARM",42.279622,-71.376300,"Speen Street, West Natick, Natick, Middlesex County, Massachusetts, 01760, United States"
2024/04/12 21:00:00,"42 BEACON ST","LARCENY / FORGERY/ FRAUD Report to be filed","LARCENY / FORGERY/ FRAUD",42.294863,-71.353001,"42, Beacon Street, Felchville, Natick, Middlesex County, Massachusetts, 01760, United States"
2024/04/12 21:16:00,"191 HARTFORD ST ","MOTOR VEHICLE STOP Citation/ Warning Issued","MOTOR VEHICLE STOP",42.293049,-71.400500,"191, Hartford Street, Lokerville, Natick, Middlesex County, Massachusetts, 01701, United States"
2024/04/12 21:27:00,"87 HARTFORD ST","MOTOR VEHICLE STOP Citation/ Warning Issued","MOTOR VEHICLE STOP",42.293564,-71.385496,"87, Hartford Street, Lokerville, Natick, Middlesex County, Massachusetts, 01760, United States"
2024/04/12 21:47:00,"[NAT 1092] JOHNSON SCHOOL - 99 SOUTH MAIN ST","SUSPICIOUS ACTIVITY Gone On Arrival","SUSPICIOUS ACTIVITY",42.270120,-71.356198,"South Main Street, Natick, Middlesex County, Massachusetts, 01760, United States"
2024/04/12 22:05:00,"[NAT 4367] FIDO DOG PARK - 109 WEST CENTRAL ST","MOTOR VEHICLE STOP Citation/ Warning Issued","MOTOR VEHICLE STOP",42.283238,-71.363720,"FIDO Dog Park, 109, West Central Street, Natick, Middlesex County, Massachusetts, 01760, United States"
2024/04/12 22:26:00,"[NAT 3793] DOVER RUG - 721 WORCESTER ST","MOTOR VEHICLE STOP Citation/ Warning Issued","MOTOR VEHICLE STOP",42.301206,-71.353502,"721, Worcester Street, Felchville, Natick, Middlesex County, Massachusetts, 01760, United States"
2024/04/13 00:30:00,"[NAT 3718] STEENKAMP RESIDENCE - 185 BACON ST","REMOVE UNWANTED PERSON(S) P - Services Rendered","REMOVE UNWANTED PERSON(S)",42.293825,-71.347601,"185, Bacon Street, Natick, Middlesex County, Massachusetts, 01760, United States"
2024/04/13 01:46:00,"DRIS - 16 TECH CIR","ALARM, BURGLAR P - ALARM BLDG Chk Secure","ALARM",42.316250,-71.334781,"16;16A, Tech Circle, East Natick Industrial Park, Natick, Middlesex County, Massachusetts, 01760, United States"
2024/04/13 10:45:00,"18 TERRACE RD","SUSPICIOUS ACTIVITY P - Services Rendered","SUSPICIOUS ACTIVITY",42.295566,-71.336123,"18, Terrace Road, Natick, Middlesex County, Massachusetts, 01500, United States"
2024/04/13 11:28:00,"7 HIGH ST","DISTURBANCE P - Services Rendered","DISTURBANCE",42.282153,-71.355026,"7, High Street, Natick, Middlesex County, Massachusetts, 01760, United States"
2024/04/13 11:30:00,"[NAT 1705] NATICK POLICE DEPARTMENT - 20 EAST CENTRAL ST","ESCORT/ TRANSPORT P - Services Rendered","ESCORT/",42.284691,-71.345078,"Natick Police Department, 20, East Central Street, Natick, Middlesex County, Massachusetts, 01760, United States"
2024/04/13 12:40:00,"[NAT 963] HAMPTON INN - 319 SPEEN ST","M/ V CRASH/ Hit & Run Report to be filed","MOTOR VEHICLE CRASH",42.302629,-71.377661,"Hampton Inn, 319, Speen Street, Natick, Middlesex County, Massachusetts, 01760, United States"
2024/04/13 12:51:00,"[NAT 3111] CLOVERLEAF APARTMENTS - 325 SPEEN ST Apt. #102","MISSING/LOST CHILD Merge: 24-6219 By: 41598","MISSING/LOST CHILD",42.304716,-71.377648,"325, Speen Street, Natick, Middlesex County, Massachusetts, 01760, United States"
2024/04/13 12:54:00,"[NAT 3111] CLOVERLEAF APARTMENTS - 325 SPEEN ST Apt. #901","MISSING/LOST CHILD Report to be filed","MISSING/LOST CHILD",42.304716,-71.377648,"325, Speen Street, Natick, Middlesex County, Massachusetts, 01760, United States"
2024/04/13 13:15:00,"[NAT 191] NINE EAST WINES - 6 WORCESTER ST","MOTOR VEHICLE CRASH P - Services Rendered","MOTOR VEHICLE CRASH",42.304043,-71.326466,"Nine East Wine Emporium, 6, Worcester Street, East Natick, Natick, Middlesex County, Massachusetts, 01760, United States"
2024/04/13 14:21:00,"66 PARK AVE ","PARKING COMPLAINT P - Services Rendered","PARKING COMPLAINT",42.297333,-71.356101,"66, Park Avenue, Felchville, Natick, Middlesex County, Massachusetts, 01760, United States"
2024/04/13 15:04:00,"[NAT 4184] TACO BELL - 1235 WORCESTER ST Apt. #200","LARCENY / FORGERY/ FRAUD Report to be filed","LARCENY / FORGERY/ FRAUD",42.300871,-71.381504,"Dave & Buster's, 1235, Worcester Street, Natick, Middlesex County, Massachusetts, 01760, United States"
2024/04/13 16:24:00,"313 SPEEN ST ","MOTOR VEHICLE CRASH P - Services Rendered","MOTOR VEHICLE CRASH",42.301634,-71.379654,"313, Speen Street, Natick, Middlesex County, Massachusetts, 01760, United States"
2024/04/13 16:54:00,"[NAT 1986] SUNGLASS HUT - 1245 WORCESTER ST Apt. #2024","SHOPLIFTING P - Services Rendered","SHOPLIFTING",42.300544,-71.383484,"McDonald's, 1245, Worcester Street, Natick, Middlesex County, Massachusetts, 01760, United States"
2024/04/13 17:20:00,"517 WORCESTER ST ","ERRATIC OPERATOR Gone On Arrival","ERRATIC OPERATOR",42.299358,-71.379158,"Worcester Street, Natick, Middlesex County, Massachusetts, 01760, United States"
2024/04/13 19:22:00,"[NAT 1092] JOHNSON SCHOOL - 99 SOUTH MAIN ST","COMPLAINT P - Services Rendered","COMPLAINT",42.270120,-71.356198,"South Main Street, Natick, Middlesex County, Massachusetts, 01760, United States"
2024/04/13 20:21:00,"[NAT 2157] COOLIDGE FIELD - 5 CHESTER ST","SUSPICIOUS ACTIVITY Gone On Arrival","SUSPICIOUS ACTIVITY",42.280388,-71.343415,"5, Chester Street, Natick, Middlesex County, Massachusetts, 01760, United States"
2024/04/13 20:41:00,"196 POND ST ","MOTOR VEHICLE STOP Citation/ Warning Issued","MOTOR VEHICLE STOP",42.277990,-71.370445,"196, Pond Street, West Natick, Natick, Middlesex County, Massachusetts, 01760, United States"
2024/04/13 21:11:00,"1350 WORCESTER ST ","MOTOR VEHICLE CRASH Report to be filed","MOTOR VEHICLE CRASH",42.297849,-71.387783,"Travelodge, 1350, Worcester Street, Natick, Middlesex County, Massachusetts, 01760, United States"
2024/04/13 21:40:00,"1 LAMPLIGHT CIR ","MOTOR VEHICLE STOP Citation/ Warning Issued","MOTOR VEHICLE STOP",42.292469,-71.398784,"1, Lamplight Circle, Lokerville, Natick, Middlesex County, Massachusetts, 01701, United States"
2024/04/13 22:46:00,"[NAT 1519] ST MARKS COPTIC CHURCH - 145 OAK ST","DISTURBANCE P - Services Rendered","DISTURBANCE",42.309939,-71.333229,"Saint Mark's Coptic Orthodox Church, 145, Oak Street, East Natick, Natick, Middlesex County, Massachusetts, 01500, United States"
2024/04/13 23:01:00,"[NAT 2047] SPEEDWAY - 194 WEST CENTRAL ST","MOTOR VEHICLE STOP Citation/ Warning Issued","MOTOR VEHICLE STOP",42.282549,-71.376385,"West Central Street, West Natick, Natick, Middlesex County, Massachusetts, 01760, United States"
2024/04/14 00:23:00,"[NAT 1027] BRANDON SCHOOL - 27 WINTER ST","MISSING PERSON P - Services Rendered","MISSING PERSON",42.321675,-71.334713,"Winter Street, Natick, Middlesex County, Massachusetts, 01500, United States"
2024/04/14 05:18:00,"13 VILLAGE WAY Apt. #14","BURGLARY (B & E) Report to be filed","BURGLAR",42.280098,-71.391355,"13;15, Village Way, Natick Village, Natick, Middlesex County, Massachusetts, 01701, United States"
2024/04/14 06:07:00,"[NAT 4367] FIDO DOG PARK - 109 WEST CENTRAL ST","MOTOR VEHICLE STOP SUMMONS REQUEST","MOTOR VEHICLE STOP",42.283238,-71.363720,"FIDO Dog Park, 109, West Central Street, Natick, Middlesex County, Massachusetts, 01760, United States"
2024/04/14 08:47:00,"66 FOREST AVE EXT","SUSPICIOUS ACTIVITY P - Services Rendered","SUSPICIOUS ACTIVITY",42.274565,-71.353892,"66, Forest Avenue Extension, Natick, Middlesex County, Massachusetts, 01760, United States"
2024/04/14 09:44:00,"232 POND ST ","HAZARD P - Services Rendered","HAZARD",42.277747,-71.375779,"232, Pond Street, West Natick, Natick, Middlesex County, Massachusetts, 01760, United States"
2024/04/14 10:41:00,"[NAT 4461] BOOT BARN - 321 SPEEN ST","M/ V CRASH/ PRIVATE PROPERTY P - Services Rendered","MOTOR VEHICLE CRASH",42.303556,-71.380338,"Harbor Freight Tools, 321, Speen Street, Natick, Middlesex County, Massachusetts, 01760, United States"
2024/04/14 12:18:00,"64 PINE ST","LARCENY / FORGERY/ FRAUD P - Services Rendered","LARCENY / FORGERY/ FRAUD",42.315178,-71.353115,"64, Pine Street, Lake Forest Park, Natick, Middlesex County, Massachusetts, 01760, United States"
2024/04/14 14:11:00,"76 PARK AVE","SUSPICIOUS ACTIVITY Report to be filed","SUSPICIOUS ACTIVITY",42.298207,-71.356086,"76, Park Avenue, Felchville, Natick, Middlesex County, Massachusetts, 01760, United States"
2024/04/14 14:17:00,"[NAT 3671] SPEEDWAY (RT 9 EAST) - 230 WORCESTER ST","F - MVA Rollover or Entrapment F - Transport-Hospital","MOTOR VEHICLE CRASH",42.302446,-71.335572,"Speedway, 230, Worcester Street, Felchville, Natick, Middlesex County, Massachusetts, 01760, United States"
2024/04/14 14:31:00,"[NAT 3019] MACY'S - 1247 WORCESTER ST","SHOPLIFTING P - Services Rendered","SHOPLIFTING",42.299358,-71.379158,"Worcester Street, Natick, Middlesex County, Massachusetts, 01760, United States"
2024/04/14 14:40:00,"136 HOWE ST","ALARM, BURGLAR P - ALARM SET OFF IN ERROR","ALARM",42.287396,-71.400028,"136, Howe Street, Lokerville, Natick, Middlesex County, Massachusetts, 01701, United States"
2024/04/14 15:13:00,"16 WILSON ST","NOISE COMPLAINT P - Services Rendered","NOISE COMPLAINT",42.283226,-71.342344,"16, Wilson Street, Natick, Middlesex County, Massachusetts, 01760, United States"
2024/04/14 16:47:00,"[NAT 2051] HOME DEPOT - 339 SPEEN ST","M/ V CRASH/ Hit & Run Report to be filed","MOTOR VEHICLE CRASH",42.307117,-71.381278,"The Home Depot, 339, Speen Street, Natick, Middlesex County, Massachusetts, 01760, United States"
2024/04/14 17:05:00,"172 WEST CENTRAL ST ","F - MVA with Injury Report to be filed","MOTOR VEHICLE CRASH",42.282286,-71.379800,"172, West Central Street, West Natick, Natick, Middlesex County, Massachusetts, 01760, United States"
2024/04/14 17:05:00,"53 MILL ST ","F - MVA with Injury Merge: 24-6274 By: 48916","MOTOR VEHICLE CRASH",42.282246,-71.380205,"53, Mill Street, West Natick, Natick, Middlesex County, Massachusetts, 01760, United States"
2024/04/14 17:49:00,"[NAT 3019] MACY'S - 1247 WORCESTER ST","SHOPLIFTING Report to be filed","SHOPLIFTING",42.299358,-71.379158,"Worcester Street, Natick, Middlesex County, Massachusetts, 01760, United States"
2024/04/14 17:50:00,"57 BACON ST","COMPLAINT Gone On Arrival","COMPLAINT",42.294054,-71.330101,"57, Bacon Street, Natick, Middlesex County, Massachusetts, 01500, United States"
2024/04/14 18:03:00,"[NAT 4387] LUCID MOTORS - 1245 WORCESTER ST","ALARM, BURGLAR P - ALARM BLDG Chk Secure","ALARM",42.300544,-71.383484,"McDonald's, 1245, Worcester Street, Natick, Middlesex County, Massachusetts, 01760, United States"
2024/04/14 18:20:00,"[NAT 1504] SHERWOOD VILLAGE EAST - 143 MILL ST Apt. #109","LARCENY / FORGERY/ FRAUD Report to be filed","LARCENY / FORGERY/ FRAUD",42.288020,-71.381638,"143, Mill Street, West Natick, Natick, Middlesex County, Massachusetts, 01760, United States"
2024/04/14 18:27:00,"[NAT 3019] MACY'S - 1247 WORCESTER ST","FOUND/ LOST PROPERTY P - Services Rendered","FOUND/ LOST PROPERTY",42.299358,-71.379158,"Worcester Street, Natick, Middlesex County, Massachusetts, 01760, United States"
2024/04/14 18:30:00,"35 CENTRE ST","F - Well Being Check Unable to Locate","Well Being Check",42.305871,-71.346079,"35, Centre Street, Lake Forest Park, Natick, Middlesex County, Massachusetts, 01760, United States"
2024/04/14 18:50:00,"[NAT 869] ROCHE BROS SUPERMARKET - 150 WEST CENTRAL ST","DISTURBANCE P - Services Rendered","DISTURBANCE",42.281264,-71.377171,"Roche Bros., 150, West Central Street, West Natick, Natick, Middlesex County, Massachusetts, 01760, United States"
2024/04/14 22:26:00,"32 POND ST ","COMPLAINT Gone On Arrival","COMPLAINT",42.282487,-71.349057,"32, Pond Street, Natick, Middlesex County, Massachusetts, 01760, United States"
2024/04/14 22:55:00,"92 WEST CENTRAL ST","DISTURBANCE P - Services Rendered","DISTURBANCE",42.282087,-71.358680,"92, West Central Street, Natick, Middlesex County, Massachusetts, 01760, United States"
2024/04/15 02:28:00,"4 CHURCH ST","COMPLAINT P - Services Rendered","COMPLAINT",42.283466,-71.345319,"4, Church Street, Natick, Middlesex County, Massachusetts, 01760, United States"
2024/04/15 05:55:00,"[NAT 1476] MBTA WEST NATICK STATION - 251 WEST CENTRAL ST","COMPLAINT Taken/Refer Other Agency","COMPLAINT",42.282654,-71.392655,"Subway, 251, West Central Street, Natick Village, Natick, Middlesex County, Massachusetts, 01760, United States"
2024/04/15 06:38:00,"113 BACON ST ","MOTOR VEHICLE CRASH Report to be filed","MOTOR VEHICLE CRASH",42.293218,-71.337471,"113, Bacon Street, Natick, Middlesex County, Massachusetts, 01500, United States"
2024/04/15 07:30:00,"58 SUMMER ST ","MOTOR VEHICLE TOW Vehicle Towed","MOTOR VEHICLE TOW",42.284040,-71.350189,"58, Summer Street, Natick, Middlesex County, Massachusetts, 01760, United States"
2024/04/15 08:39:00,"[NAT 726] NEIGHBORHOOD WRENCH - 67 EAST CENTRAL ST","PARKING COMPLAINT Log Entry","PARKING COMPLAINT",42.284703,-71.340769,"67, East Central Street, Natick, Middlesex County, Massachusetts, 01760, United States"
2024/04/15 09:20:00,"28 VILLAGE BROOK LN","LOCKOUT (VEHICLE) P - Services Rendered","LOCKOUT",42.278198,-71.392375,"14;16;18;20;22;24;26;28, Village Brook Lane, Natick Village, Natick, Middlesex County, Massachusetts, 01702, United States"
2024/04/15 10:38:00,"13 MARK ST","LARCENY / FORGERY/ FRAUD Report to be filed","LARCENY / FORGERY/ FRAUD",42.313409,-71.348541,"13, Mark Street, Lake Forest Park, Natick, Middlesex County, Massachusetts, 01760, United States"
2024/04/15 10:39:00,"35 WALNUT ST","PARKING COMPLAINT P - Services Rendered","PARKING COMPLAINT",42.287947,-71.347747,"35, Walnut Street, Natick, Middlesex County, Massachusetts, 01760, United States"
2024/04/15 11:06:00,"86 WEST CENTRAL ST","DISTURBANCE P - Services Rendered","DISTURBANCE",42.282170,-71.358080,"86, West Central Street, Natick, Middlesex County, Massachusetts, 01760, United States"
2024/04/15 11:41:00,"73 MILL ST ","LOCKOUT (VEHICLE) P - Services Rendered","LOCKOUT",42.284865,-71.381216,"73, Mill Street, West Natick, Natick, Middlesex County, Massachusetts, 01760, United States"
2024/04/15 12:10:00,"[NAT 435] CENTER FOR THE ARTS (TCAN) - 14 SUMMER ST","FOUND/ LOST PROPERTY Log Entry","FOUND/ LOST PROPERTY",42.284369,-71.348137,"The Center For Arts In Natick, 14, Summer Street, Natick, Middlesex County, Massachusetts, 01760, United States"
2024/04/15 12:30:00,"[NAT 1705] NATICK POLICE DEPARTMENT - 20 EAST CENTRAL ST","FOUND/ LOST PROPERTY Log Entry","FOUND/ LOST PROPERTY",42.284691,-71.345078,"Natick Police Department, 20, East Central Street, Natick, Middlesex County, Massachusetts, 01760, United States"
2024/04/15 12:55:00,"16 CHURCH ST","M/ V CRASH/ Hit & Run Report to be filed","MOTOR VEHICLE CRASH",42.282487,-71.345087,"16, Church Street, Natick, Middlesex County, Massachusetts, 01760, United States"
2024/04/15 15:07:00,"[NAT 1705] NATICK POLICE DEPARTMENT - 20 EAST CENTRAL ST","FOUND/ LOST PROPERTY Log Entry","FOUND/ LOST PROPERTY",42.284691,-71.345078,"Natick Police Department, 20, East Central Street, Natick, Middlesex County, Massachusetts, 01760, United States"
2024/04/15 15:26:00,"[NAT 2688] COURTYARD BY MARRIOTT - 342 SPEEN ST","REMOVE UNWANTED PERSON(S) P - Services Rendered","REMOVE UNWANTED PERSON(S)",42.306288,-71.383494,"Courtyard Boston Natick, 342, Speen Street, Natick, Middlesex County, Massachusetts, 01760, United States"
2024/04/15 16:42:00,"1 WEST CENTRAL ST ","FOUND/ LOST PROPERTY Log Entry","FOUND/ LOST PROPERTY",42.282549,-71.376385,"West Central Street, West Natick, Natick, Middlesex County, Massachusetts, 01760, United States"
2024/04/15 18:41:00,"21 LAKEVIEW GARDENS Apt. #914","SUSPICIOUS ACTIVITY P - Services Rendered","SUSPICIOUS ACTIVITY",42.291940,-71.360188,"Bldg 9 (19/21), Lakeview Gardens, Natick, Middlesex County, Massachusetts, 01760, United States"
2024/04/15 18:48:00,"[NAT 3019] MACY'S - 1247 WORCESTER ST","SHOPLIFTING Arrest(s) Made","SHOPLIFTING",42.299358,-71.379158,"Worcester Street, Natick, Middlesex County, Massachusetts, 01760, United States"
2024/04/15 19:19:00,"7 SHERMAN ST","F - Well Being Check P - Services Rendered","Well Being Check",42.282005,-71.343372,"7, Sherman Street, Natick, Middlesex County, Massachusetts, 01760, United States"
2024/04/15 21:55:00,"[NAT 1145] SUPER STOP & SHOP - 829 WORCESTER ST","SUSPICIOUS ACTIVITY P - Services Rendered","SUSPICIOUS ACTIVITY",42.301103,-71.357785,"Stop & Shop, 829;841;843;849, Worcester Street, Felchville, Natick, Middlesex County, Massachusetts, 01760, United States"
2024/04/15 23:40:00,"[NAT 695] 51 EVERETT ST","ALARM, BURGLAR P - ALARM BLDG Chk Secure","ALARM",42.259235,-71.342940,"51, Everett Street, Morseville, Natick, Middlesex County, Massachusetts, 01770, United States"
2024/04/16 01:53:00,"[NAT 920] NATICK MALL (MALL I) - 1245 WORCESTER ST","MOTOR VEHICLE STOP Citation/ Warning Issued","MOTOR VEHICLE STOP",42.300544,-71.383484,"McDonald's, 1245, Worcester Street, Natick, Middlesex County, Massachusetts, 01760, United States"
2024/04/16 02:02:00,"[NAT 79] BERNARDI HONDA - 960 WORCESTER ST","MOTOR VEHICLE STOP P - Services Rendered","MOTOR VEHICLE STOP",42.298802,-71.364049,"960, Worcester Street, Felchville, Natick, Middlesex County, Massachusetts, 01760, United States"
2024/04/16 02:15:00,"[NAT 4210] ANTHONYS COAL FIRED PIZZA - 219 NORTH MAIN ST Apt. #A-104","SUSPICIOUS ACTIVITY P - Services Rendered","SUSPICIOUS ACTIVITY",42.303076,-71.361265,"219 N MAIN ST, NATICK, MA, 01760"
2024/04/16 05:42:00,"3 LANES END ST","ALARM, BURGLAR P - ALARM SET OFF IN ERROR","ALARM",42.270879,-71.382298,"3 LANES END, NATICK, MA, 01760"
2024/04/16 06:39:00,"106 EAST CENTRAL ST","MOTOR VEHICLE STOP Citation/ Warning Issued","MOTOR VEHICLE STOP",42.286148,-71.338203,"106, East Central Street, Natick, Middlesex County, Massachusetts, 01500, United States"
2024/04/16 07:51:00,"160 COTTAGE ST","MOTOR VEHICLE CRASH P - Services Rendered","MOTOR VEHICLE CRASH",42.262423,-71.342305,"160, Cottage Street, Morseville, Natick, Middlesex County, Massachusetts, 01760, United States"
2024/04/16 08:19:00,"1 COBBLESTONE DR ","Animals (Other) Log Entry","ANIMALS",42.267345,-71.345413,"1, Cobblestone Drive, Natick, Middlesex County, Massachusetts, 01760, United States"
2024/04/16 08:42:00,"[FRA] 600 CONCORD ST","ESCORT/ TRANSPORT P - Services Rendered","ESCORT/",42.281274,-71.351232,"Concord Street, Natick, Middlesex County, Massachusetts, 01760, United States"
2024/04/16 08:49:00,"[FRA] 600 CONCORD ST","ESCORT/ TRANSPORT P - Services Rendered","ESCORT/",42.281274,-71.351232,"Concord Street, Natick, Middlesex County, Massachusetts, 01760, United States"
2024/04/16 08:51:00,"[NAT 27] RAMP FROM RT9 EAST TO NORTH MAIN ST SOUTH - RAMP - RT9 EB TO RT27 SB","MOTOR VEHICLE STOP Citation/ Warning Issued","MOTOR VEHICLE STOP",42.286082,-71.348580,"9 N MAIN ST, NATICK, MA, 01760"
2024/04/16 09:30:00,"[NAT 855] THRIVE PET HEALTH CARE - 121 WEST CENTRAL ST","Animals (Other) Log Entry","ANIMALS",42.283642,-71.372353,"121, West Central Street, West Natick, Natick, Middlesex County, Massachusetts, 01760, United States"
2024/04/16 10:06:00,"[NAT 602] SHERWOOD VILLAGE WEST - 145 MILL ST Apt. #206W","SUDDEN DEATH Report to be filed","SUDDEN DEATH",42.288933,-71.383543,"145, Mill Street, West Natick, Natick, Middlesex County, Massachusetts, 01760, United States"
2024/04/16 11:35:00,"[NAT 1202] MAHAN FIELD - 1 WEST ST","Animals (Other) Log Entry","ANIMALS",42.277662,-71.357564,"1, West Street, Natick, Middlesex County, Massachusetts, 01760, United States"
2024/04/16 12:14:00,"11 MECHANIC ST","ASSIST OTHER AGENCY P - Services Rendered","ASSIST OTHER AGENCY",42.288108,-71.352007,"11, Mechanic Street, Natick, Middlesex County, Massachusetts, 01760, United States"
2024/04/16 12:49:00,"36 POND ST Apt. #1","LARCENY / FORGERY/ FRAUD P - Services Rendered","LARCENY / FORGERY/ FRAUD",42.282240,-71.349694,"36, Pond Street, Natick, Middlesex County, Massachusetts, 01760, United States"
2024/04/16 12:56:00,"[NAT 4074] PRIMEROSE SCHOOL OF NATICK - 296 NORTH MAIN ST","VANDALISM Report to be filed","VANDALISM",42.310363,-71.362964,"Primrose School of Natick, 296, North Main Street, North Natick, Natick, Middlesex County, Massachusetts, 01760, United States"
2024/04/16 13:09:00,"[NAT 4364] 182 PINE ST","Animals (Other) Gone On Arrival","ANIMALS",42.315837,-71.341176,"182, Pine Street, Lake Forest Park, Natick, Middlesex County, Massachusetts, 01760, United States"
2024/04/16 13:48:00,"[NAT 4367] FIDO DOG PARK - 109 WEST CENTRAL ST","Animals (Other) Log Entry","ANIMALS",42.283238,-71.363720,"FIDO Dog Park, 109, West Central Street, Natick, Middlesex County, Massachusetts, 01760, United States"
2024/04/16 13:55:00,"[NAT 2769] DUNKIN DONUTS - 50 EAST CENTRAL ST","DISTURBANCE P - Services Rendered","DISTURBANCE",42.284883,-71.342675,"Dunkin', 50, East Central Street, Natick, Middlesex County, Massachusetts, 01760, United States"
2024/04/16 14:12:00,"[NAT 3314] J.J. LANE PARK - 185 SPEEN ST","Animals (Other) Log Entry","ANIMALS",42.279622,-71.376300,"Speen Street, West Natick, Natick, Middlesex County, Massachusetts, 01760, United States"
2024/04/16 14:18:00,"42 SPEEN ST","VANDALISM Report to be filed","VANDALISM",42.274480,-71.378847,"42, Speen Street, West Natick, Natick, Middlesex County, Massachusetts, 01760, United States"
2024/04/16 14:44:00,"197 WEST CENTRAL ST","MOTOR VEHICLE STOP Citation/ Warning Issued","MOTOR VEHICLE STOP",42.283017,-71.383069,"197, West Central Street, Natick Village, West Natick, Natick, Middlesex County, Massachusetts, 01760, United States"
2024/04/16 15:06:00,"226 WEST CENTRAL ST ","MOTOR VEHICLE STOP Citation/ Warning Issued","MOTOR VEHICLE STOP",42.281980,-71.386649,"226, West Central Street, Natick Village, West Natick, Natick, Middlesex County, Massachusetts, 01760, United States"
2024/04/16 15:10:00,"7 LACONIA RD","LARCENY / FORGERY/ FRAUD SUMMONS REQUEST","LARCENY / FORGERY/ FRAUD",42.301370,-71.327430,"7, Laconia Road, Natick, Middlesex County, Massachusetts, 01500, United States"
2024/04/16 15:50:00,"[NAT 1705] NATICK POLICE DEPARTMENT - 20 EAST CENTRAL ST","FOUND/ LOST PROPERTY Log Entry","FOUND/ LOST PROPERTY",42.284691,-71.345078,"Natick Police Department, 20, East Central Street, Natick, Middlesex County, Massachusetts, 01760, United States"
2024/04/16 15:53:00,"[NAT 3614] AVALON NATICK APARTMENTS - 5 CHRYSLER RD Apt. #805","LARCENY / FORGERY/ FRAUD Report to be filed","LARCENY / FORGERY/ FRAUD",42.305704,-71.378613,"5, Chrysler Road, Natick, Middlesex County, Massachusetts, 01760, United States"
2024/04/16 16:37:00,"272 WEST CENTRAL ST","ALARM, BURGLAR P - ALARM BLDG Chk Secure","ALARM",42.282549,-71.376385,"West Central Street, West Natick, Natick, Middlesex County, Massachusetts, 01760, United States"
2024/04/16 16:42:00,"[NAT 470] TILLY AND SALVY'S BACON STREET FARM - 100 BACON ST","M/ V CRASH/ Hit & Run Report to be filed","MOTOR VEHICLE CRASH",42.293261,-71.343115,"Bacon Street, Natick, Middlesex County, Massachusetts, 01760, United States"
2024/04/16 16:45:00,"[NAT 1705] NATICK POLICE DEPARTMENT - 20 EAST CENTRAL ST","ASSIST OTHER AGENCY Report to be filed","ASSIST OTHER AGENCY",42.284691,-71.345078,"Natick Police Department, 20, East Central Street, Natick, Middlesex County, Massachusetts, 01760, United States"
2024/04/16 17:19:00,"[NAT 954] THE VERVE HOTEL - 1360 WORCESTER ST","MOTOR VEHICLE CRASH Report to be filed","MOTOR VEHICLE CRASH",42.298084,-71.388864,"The Verve, 1360, Worcester Street, Natick, Middlesex County, Massachusetts, 01701, United States"
2024/04/16 18:18:00,"14 SOUTH AVE ","PARKING COMPLAINT Citation/ Warning Issued","PARKING COMPLAINT",42.285633,-71.346320,"14, South Avenue, Natick, Middlesex County, Massachusetts, 01760, United States"
2024/04/16 18:28:00,"57 BACON ST","ESCORT/ TRANSPORT P - Services Rendered","ESCORT/",42.294054,-71.330101,"57, Bacon Street, Natick, Middlesex County, Massachusetts, 01500, United States"
2024/04/16 19:11:00,"57 BACON ST","MOTOR VEHICLE STOP Citation/ Warning Issued","MOTOR VEHICLE STOP",42.294054,-71.330101,"57, Bacon Street, Natick, Middlesex County, Massachusetts, 01500, United States"
2024/04/16 20:32:00,"11 BAYBERRY RD","ASSIST OTHER AGENCY Taken/Refer Other Agency","ASSIST OTHER AGENCY",42.309765,-71.368078,"11, Bayberry Road, North Natick, Natick, Middlesex County, Massachusetts, 01760, United States"
2024/04/16 23:24:00,"[NAT 1476] MBTA WEST NATICK STATION - 251 WEST CENTRAL ST","ASSIST OTHER AGENCY Taken/Refer Other Agency","ASSIST OTHER AGENCY",42.282654,-71.392655,"Subway, 251, West Central Street, Natick Village, Natick, Middlesex County, Massachusetts, 01760, United States"
2024/04/16 23:43:00,"[NAT 4421] HOT DOGGY - 1298 WORCESTER ST","REMOVE UNWANTED PERSON(S) Gone On Arrival","REMOVE UNWANTED PERSON(S)",42.298141,-71.383831,"Smashburger, 1298, Worcester Street, Natick, Middlesex County, Massachusetts, 01760, United States"
2024/04/17 06:59:00,"[NAT 4142] SHERWOOD PLAZA (EAST) - 1288 WORCESTER ST","MOTOR VEHICLE STOP Citation/ Warning Issued","MOTOR VEHICLE STOP",42.298223,-71.382392,"Ulta Beauty, 1276;1278;1282;1284;1286;1288, Worcester Street, Natick, Middlesex County, Massachusetts, 01760, United States"
2024/04/17 08:26:00,"[FRA] NATICK DISTRICT COURT - 600 CONCORD ST","ESCORT/ TRANSPORT P - Services Rendered","ESCORT/",42.281274,-71.351232,"Concord Street, Natick, Middlesex County, Massachusetts, 01760, United States"
2024/04/17 08:35:00,"18 TERRACE RD","SUSPICIOUS ACTIVITY Unable to Locate","SUSPICIOUS ACTIVITY",42.295566,-71.336123,"18, Terrace Road, Natick, Middlesex County, Massachusetts, 01500, United States"
2024/04/17 09:00:00,"[NAT 4366] 30 FISKE ST - 30 FISKE ST","Animals (Other) P - Services Rendered","ANIMALS",42.275064,-71.372811,"30, Fiske Street, West Natick, Natick, Middlesex County, Massachusetts, 01760, United States"
2024/04/17 09:31:00,"[GRA] TUFTS WILDLIFE CLINIC - 50 WILLARD ST","Animals (Other) P - Services Rendered","ANIMALS",42.319584,-71.363829,"50 WILLARD ST, WAYLAND, MA, 01778"
2024/04/17 09:40:00,"GOOD FEET - 1290 WORCESTER ST","LARCENY / FORGERY/ FRAUD Report to be filed","LARCENY / FORGERY/ FRAUD",42.298791,-71.382733,"1290, Worcester Street, Natick, Middlesex County, Massachusetts, 01760, United States"
2024/04/17 09:43:00,"[NAT 3121] WALCOTT SQUARE - 1 WEST CENTRAL ST","SUSPICIOUS ACTIVITY P - Services Rendered","SUSPICIOUS ACTIVITY",42.282549,-71.376385,"West Central Street, West Natick, Natick, Middlesex County, Massachusetts, 01760, United States"
2024/04/17 10:07:00,"[NAT 1203] CLARKS BLOCK - 2 SUMMER ST","MOTOR VEHICLE TOW Vehicle Towed","MOTOR VEHICLE TOW",42.284236,-71.350071,"Summer Street, Natick, Middlesex County, Massachusetts, 01760, United States"
2024/04/17 11:39:00,"[NAT 4073] LOKER PARK - 95 WALNUT ST","FOUND/ LOST PROPERTY Log Entry","FOUND/ LOST PROPERTY",42.298063,-71.347656,"Walnut Street, Natick, Middlesex County, Massachusetts, 01760, United States"
