{
    "[WEL] WELLESLEY - 3 FROST CIR": {
        "coder": "census",
        "log_location": "3 FROST CIR",
        "normalized_location": "3 FROST ST, NATICK, MA, 01760",
        "lat": "42.322319",
        "long": "-71.335604"
    },
    "[NAT 3843] NATICK HIGH SCHOOL (NEW) - 15 WEST ST": {
        "coder": "census",
        "log_location": "15 WEST ST",
        "normalized_location": "15 WEST ST, NATICK, MA, 01760",
        "lat": "42.276971",
        "long": "-71.359319"
    },
    "171 HARTFORD ST": {
        "coder": "census",
        "log_location": "171 HARTFORD ST",
        "normalized_location": "171 HARTFORD ST, NATICK, MA, 01760",
        "lat": "42.291410",
        "long": "-71.397313"
    },
    " 1 BROOKDALE RD": {
        "coder": "census",
        "log_location": "1 BROOKDALE RD",
        "normalized_location": "1 BROOKDALE RD, NATICK, MA, 01760",
        "lat": "42.291353",
        "long": "-71.397517"
    },
    "[NAT 2099] PARKING DECK A LPHA - REAR OF MACY'S - MALL - 1243 WORCESTER ST": {
        "coder": "census",
        "log_location": "1243 WORCESTER ST",
        "normalized_location": "1243 WORCESTER ST, NATICK, MA, 01760",
        "lat": "42.299498",
        "long": "-71.377703"
    },
    "517 WORCESTER ST ": {
        "coder": "census",
        "log_location": "517 WORCESTER ST",
        "normalized_location": "517 WORCESTER ST, WELLESLEY HILLS, MA, 02481",
        "lat": "42.310568",
        "long": "-71.280848"
    },
    "[NAT 742] AUSTIN LIQUOR STORE - 212 NORTH MAIN ST": {
        "coder": "census",
        "log_location": "212 NORTH MAIN ST",
        "normalized_location": "212 N MAIN ST, NATICK, MA, 01760",
        "lat": "42.303997",
        "long": "-71.361590"
    },
    "1245 WORCESTER ST ": {
        "coder": "census",
        "log_location": "1245 WORCESTER ST",
        "normalized_location": "1245 WORCESTER ST, NATICK, MA, 01760",
        "lat": "42.299500",
        "long": "-71.377749"
    },
    "[NAT 2921] 10 GRACE CIR - 10 GRACE CIR": {
        "coder": "census",
        "log_location": "10 GRACE CIR",
        "normalized_location": "10 GRACE CIR, NATICK, MA, 01760",
        "lat": "42.276004",
        "long": "-71.349804"
    },
    "8 ERIE DR": {
        "coder": "census",
        "log_location": "8 ERIE DR",
        "normalized_location": "8 ERIE DR, NATICK, MA, 01760",
        "lat": "42.313429",
        "long": "-71.339398"
    },
    "[NAT 79] BERNARDI HONDA - 960 WORCESTER ST": {
        "coder": "census",
        "log_location": "960 WORCESTER ST",
        "normalized_location": "960 WORCESTER ST, NATICK, MA, 01760",
        "lat": "42.299258",
        "long": "-71.365104"
    },
    "[NAT 3879] BERNARDI AUDI - 549 WORCESTER ST": {
        "coder": "census",
        "log_location": "549 WORCESTER ST",
        "normalized_location": "549 WORCESTER ST, WELLESLEY HILLS, MA, 02481",
        "lat": "42.309143",
        "long": "-71.284371"
    },
    "[NAT 431] CITIZENS BANK - 34 MAIN ST": {
        "coder": "census",
        "log_location": "34 MAIN ST",
        "normalized_location": "34 MAIN ST, NATICK, MA, 01760",
        "lat": "42.285688",
        "long": "-71.348005"
    },
    "121 WALNUT ST": {
        "coder": "census",
        "log_location": "121 WALNUT ST",
        "normalized_location": "121 WALNUT ST, NATICK, MA, 01760",
        "lat": "42.297822",
        "long": "-71.347862"
    },
    "190 NORTH MAIN ST": {
        "coder": "census",
        "log_location": "190 NORTH MAIN ST",
        "normalized_location": "190 N MAIN ST, NATICK, MA, 01760",
        "lat": "42.298626",
        "long": "-71.359458"
    },
    "111 OAK ST ": {
        "coder": "census",
        "log_location": "111 OAK ST",
        "normalized_location": "111 OAK ST, NATICK, MA, 01760",
        "lat": "42.306760",
        "long": "-71.332787"
    },
    "[NAT 4367] FIDO DOG PARK - 109 WEST CENTRAL ST": {
        "coder": "census",
        "log_location": "109 WEST CENTRAL ST",
        "normalized_location": "109 W CENTRAL ST, NATICK, MA, 01760",
        "lat": "42.283576",
        "long": "-71.366282"
    },
    "[NAT 3181] THE NORTH FACE - 1245 WORCESTER ST Apt. #4016": {
        "coder": "census",
        "log_location": "1245 WORCESTER ST",
        "normalized_location": "1245 WORCESTER ST, NATICK, MA, 01760",
        "lat": "42.299500",
        "long": "-71.377749"
    },
    "[NAT 855] THRIVE PET HEALTH CARE - 121 WEST CENTRAL ST": {
        "coder": "census",
        "log_location": "121 WEST CENTRAL ST",
        "normalized_location": "121 W CENTRAL ST, NATICK, MA, 01760",
        "lat": "42.283651",
        "long": "-71.369312"
    },
    "325 NORTH MAIN ST": {
        "coder": "census",
        "log_location": "325 NORTH MAIN ST",
        "normalized_location": "325 N MAIN ST, NATICK, MA, 01760",
        "lat": "42.313549",
        "long": "-71.360260"
    },
    "[NAT 75] NATICK- WELLESLEY VETERINARY HOSPITAL - 359 WORCESTER ST": {
        "coder": "census",
        "log_location": "359 WORCESTER ST",
        "normalized_location": "359 WORCESTER ST, WELLESLEY HILLS, MA, 02481",
        "lat": "42.314806",
        "long": "-71.267133"
    },
    " 1 MALL RD": {
        "coder": "census",
        "log_location": "1 MALL RD",
        "normalized_location": "1 MILL ST, NATICK, MA, 01760",
        "lat": "42.278235",
        "long": "-71.376336"
    },
    "[NAT 55] 5 WETHERSFIELD RD BLDG - 5 WETHERSFIELD RD": {
        "coder": "census",
        "log_location": "5 WETHERSFIELD RD",
        "normalized_location": "5 WETHERSFIELD RD, NATICK, MA, 01760",
        "lat": "42.302483",
        "long": "-71.352197"
    },
    "[NAT 986] ENTERPRISE RENT A CAR - 2 WETHERSFIELD RD": {
        "coder": "census",
        "log_location": "2 WETHERSFIELD RD",
        "normalized_location": "2 WETHERSFIELD RD, NATICK, MA, 01760",
        "lat": "42.302191",
        "long": "-71.352426"
    },
    "[NAT 3238] P F CHANG'S CHINA BISTRO - 1245 WORCESTER ST Apt. #4008": {
        "coder": "census",
        "log_location": "1245 WORCESTER ST",
        "normalized_location": "1245 WORCESTER ST, NATICK, MA, 01760",
        "lat": "42.299500",
        "long": "-71.377749"
    },
    "[NAT 3929] AFC URGENT CARE - 945 WORCESTER ST": {
        "coder": "census",
        "log_location": "945 WORCESTER ST",
        "normalized_location": "945 WORCESTER ST, NATICK, MA, 01760",
        "lat": "42.299779",
        "long": "-71.362621"
    },
    "[NAT 943] DALLAMORA REALTY - 987 WORCESTER ST": {
        "coder": "census",
        "log_location": "987 WORCESTER ST",
        "normalized_location": "987 WORCESTER ST, NATICK, MA, 01760",
        "lat": "42.299642",
        "long": "-71.363702"
    },
    "203 SPEEN ST": {
        "coder": "census",
        "log_location": "203 SPEEN ST",
        "normalized_location": "203 SPEEN ST, NATICK, MA, 01760",
        "lat": "42.290863",
        "long": "-71.376123"
    },
    "[NAT 2051] HOME DEPOT - 339 SPEEN ST": {
        "coder": "census",
        "log_location": "339 SPEEN ST",
        "normalized_location": "339 SPEEN ST, NATICK, MA, 01760",
        "lat": "42.301047",
        "long": "-71.379963"
    },
    "205 SPEEN ST ": {
        "coder": "census",
        "log_location": "205 SPEEN ST",
        "normalized_location": "205 SPEEN ST, NATICK, MA, 01760",
        "lat": "42.291260",
        "long": "-71.376223"
    },
    " 1 HERITAGE LN": {
        "coder": "census",
        "log_location": "1 HERITAGE LN",
        "normalized_location": "1 HERITAGE LN, NATICK, MA, 01760",
        "lat": "42.291101",
        "long": "-71.359671"
    },
    "[NAT 1705] NATICK POLICE DEPARTMENT - 20 EAST CENTRAL ST": {
        "coder": "census",
        "log_location": "20 EAST CENTRAL ST",
        "normalized_location": "20 E CENTRAL ST, NATICK, MA, 01760",
        "lat": "42.284248",
        "long": "-71.345123"
    },
    "44 CURVE ST": {
        "coder": "census",
        "log_location": "44 CURVE ST",
        "normalized_location": "44 CURVE ST, NATICK, MA, 01760",
        "lat": "42.276618",
        "long": "-71.356431"
    },
    "[NAT 1994] VICTORIA'S SECRETS - 1245 WORCESTER ST Apt. #1070": {
        "coder": "census",
        "log_location": "1245 WORCESTER ST",
        "normalized_location": "1245 WORCESTER ST, NATICK, MA, 01760",
        "lat": "42.299500",
        "long": "-71.377749"
    },
    "11 REYNOLDS AVE": {
        "coder": "census",
        "log_location": "11 REYNOLDS AVE",
        "normalized_location": "11 REYNOLDS AVE, NATICK, MA, 01760",
        "lat": "42.280641",
        "long": "-71.355058"
    },
    "162 HARTFORD ST": {
        "coder": "census",
        "log_location": "162 HARTFORD ST",
        "normalized_location": "162 HARTFORD ST, NATICK, MA, 01760",
        "lat": "42.290821",
        "long": "-71.395367"
    },
    "197 WEST CENTRAL ST": {
        "coder": "census",
        "log_location": "197 WEST CENTRAL ST",
        "normalized_location": "197 W CENTRAL ST, NATICK, MA, 01760",
        "lat": "42.282015",
        "long": "-71.389705"
    },
    "[NAT 74] WENDY'S - 355 WORCESTER ST": {
        "coder": "census",
        "log_location": "355 WORCESTER ST",
        "normalized_location": "355 WORCESTER ST, WELLESLEY HILLS, MA, 02481",
        "lat": "42.314808",
        "long": "-71.267098"
    },
    "49 WASHINGTON ST": {
        "coder": "census",
        "log_location": "49 WASHINGTON ST",
        "normalized_location": "49 WASHINGTON ST, NATICK, MA, 01760",
        "lat": "42.287212",
        "long": "-71.346812"
    },
    "[NAT 3984] BRANDON SCHOOL HOUSE 2 - 27 WINTER ST": {
        "coder": "census",
        "log_location": "27 WINTER ST",
        "normalized_location": "27 WINTER ST, WAYLAND, MA, 01778",
        "lat": "42.319975",
        "long": "-71.362971"
    },
    "328 WEST CENTRAL ST ": {
        "coder": "census",
        "log_location": "328 WEST CENTRAL ST",
        "normalized_location": "328 W CENTRAL ST, NATICK, MA, 01760",
        "lat": "42.280882",
        "long": "-71.397870"
    },
    "[NAT 2662] 44 EAST CENTRAL ST ": {
        "coder": "census",
        "log_location": "44 EAST CENTRAL ST",
        "normalized_location": "44 E CENTRAL ST, NATICK, MA, 01760",
        "lat": "42.284610",
        "long": "-71.343196"
    },
    "[NAT 995] ELIOT CHURCH - 49 ELIOT ST": {
        "coder": "census",
        "log_location": "49 ELIOT ST",
        "normalized_location": "49 ELIOT ST, NATICK, MA, 01760",
        "lat": "42.273949",
        "long": "-71.315012"
    },
    "[NAT 181] 117 NORTH AVE - 117 NORTH AVE": {
        "coder": "census",
        "log_location": "117 NORTH AVE",
        "normalized_location": "117 NORTH AVE, NATICK, MA, 01760",
        "lat": "42.287353",
        "long": "-71.339624"
    },
    "46 COTTAGE ST": {
        "coder": "census",
        "log_location": "46 COTTAGE ST",
        "normalized_location": "46 COTTAGE ST, NATICK, MA, 01760",
        "lat": "42.276146",
        "long": "-71.346175"
    },
    "[NAT 3314] J.J. LANE PARK - 185 SPEEN ST": {
        "coder": "census",
        "log_location": "185 SPEEN ST",
        "normalized_location": "185 SPEEN ST, NATICK, MA, 01760",
        "lat": "42.282216",
        "long": "-71.375839"
    },
    "194 NORTH MAIN ST ": {
        "coder": "census",
        "log_location": "194 NORTH MAIN ST",
        "normalized_location": "194 N MAIN ST, NATICK, MA, 01760",
        "lat": "42.298788",
        "long": "-71.359505"
    },
    "[NAT 728] BOX 6113 - 81 HARTFORD ST": {
        "coder": "census",
        "log_location": "81 HARTFORD ST",
        "normalized_location": "81 HARTFORD ST, NATICK, MA, 01760",
        "lat": "42.293633",
        "long": "-71.384642"
    },
    "7 SHATTUCK ST ": {
        "coder": "census",
        "log_location": "7 SHATTUCK ST",
        "normalized_location": "7 SHATTUCK ST, NATICK, MA, 01760",
        "lat": "42.289265",
        "long": "-71.347154"
    },
    "[NAT 3697] HADLOCK LAW OFFICE P.C. - 679 WORCESTER ST": {
        "coder": "census",
        "log_location": "679 WORCESTER ST",
        "normalized_location": "679 WORCESTER ST, WELLESLEY HILLS, MA, 02481",
        "lat": "42.306325",
        "long": "-71.295843"
    },
    "[NAT 4325] MUFFIN HOUSE CAFE - 325 NORTH MAIN ST": {
        "coder": "census",
        "log_location": "325 NORTH MAIN ST",
        "normalized_location": "325 N MAIN ST, NATICK, MA, 01760",
        "lat": "42.313549",
        "long": "-71.360260"
    },
    "575 WORCESTER ST": {
        "coder": "census",
        "log_location": "575 WORCESTER ST",
        "normalized_location": "575 WORCESTER ST, WELLESLEY HILLS, MA, 02481",
        "lat": "42.308812",
        "long": "-71.285197"
    },
    "1245 WORCESTER ST": {
        "coder": "census",
        "log_location": "1245 WORCESTER ST",
        "normalized_location": "1245 WORCESTER ST, NATICK, MA, 01760",
        "lat": "42.299500",
        "long": "-71.377749"
    },
    "51 ELIOT ST ": {
        "coder": "census",
        "log_location": "51 ELIOT ST",
        "normalized_location": "51 ELIOT ST, NATICK, MA, 01760",
        "lat": "42.273675",
        "long": "-71.315396"
    },
    "[FRA] 600 CONCORD ST": {
        "coder": "census",
        "log_location": "600 CONCORD ST",
        "normalized_location": "600 CONCORD ST, FRAMINGHAM, MA, 01702",
        "lat": "42.292559",
        "long": "-71.409285"
    },
    "41 BROOKDALE RD": {
        "coder": "census",
        "log_location": "41 BROOKDALE RD",
        "normalized_location": "41 BROOKDALE RD, NATICK, MA, 01760",
        "lat": "42.286473",
        "long": "-71.395151"
    },
    "[NAT 3830] 264 NORTH MAIN ST": {
        "coder": "census",
        "log_location": "264 NORTH MAIN ST",
        "normalized_location": "264 N MAIN ST, NATICK, MA, 01760",
        "lat": "42.307221",
        "long": "-71.361863"
    },
    "[NAT 865] CVS PHARMACY 2125 - 137 WEST CENTRAL ST": {
        "coder": "census",
        "log_location": "137 WEST CENTRAL ST",
        "normalized_location": "137 W CENTRAL ST, NATICK, MA, 01760",
        "lat": "42.283147",
        "long": "-71.372361"
    },
    "17 WALDEN DR Apt. #2": {
        "coder": "census",
        "log_location": "17 WALDEN DR Apt",
        "normalized_location": "17 WALDEN DR, NATICK, MA, 01760",
        "lat": "42.276787",
        "long": "-71.387309"
    },
    "[NAT 1011] TEMPLE ISRAEL - 145 HARTFORD ST": {
        "coder": "census",
        "log_location": "145 HARTFORD ST",
        "normalized_location": "145 HARTFORD ST, FRAMINGHAM, MA, 01702",
        "lat": "42.291216",
        "long": "-71.403048"
    },
    "29 BURNING TREE RD": {
        "coder": "census",
        "log_location": "29 BURNING TREE RD",
        "normalized_location": "29 BURNING TREE RD, NATICK, MA, 01760",
        "lat": "42.283882",
        "long": "-71.388663"
    },
    "167 SOUTH MAIN ST ": {
        "coder": "census",
        "log_location": "167 SOUTH MAIN ST",
        "normalized_location": "167 S MAIN ST, NATICK, MA, 01760",
        "lat": "42.272026",
        "long": "-71.354650"
    },
    "159 SOUTH MAIN ST": {
        "coder": "census",
        "log_location": "159 SOUTH MAIN ST",
        "normalized_location": "159 S MAIN ST, NATICK, MA, 01760",
        "lat": "42.272778",
        "long": "-71.354046"
    },
    "99 NORTH MAIN ST": {
        "coder": "census",
        "log_location": "99 NORTH MAIN ST",
        "normalized_location": "99 N MAIN ST, NATICK, MA, 01760",
        "lat": "42.290853",
        "long": "-71.355512"
    },
    "12 WINNEMAY ST": {
        "coder": "census",
        "log_location": "12 WINNEMAY ST",
        "normalized_location": "12 WINNEMAY ST, NATICK, MA, 01760",
        "lat": "42.288731",
        "long": "-71.349178"
    },
    "2 DURANT RD": {
        "coder": "census",
        "log_location": "2 DURANT RD",
        "normalized_location": "2 DURANT RD, NATICK, MA, 01760",
        "lat": "42.275129",
        "long": "-71.360601"
    },
    "2 WELLS ST": {
        "coder": "census",
        "log_location": "2 WELLS ST",
        "normalized_location": "2 WELLS ST, NATICK, MA, 01760",
        "lat": "42.304531",
        "long": "-71.333842"
    },
    "[NAT 957] LENSCRAFTERS - 1364 WORCESTER ST": {
        "coder": "census",
        "log_location": "1364 WORCESTER ST",
        "normalized_location": "1364 WORCESTER ST, NATICK, MA, 01760",
        "lat": "42.298770",
        "long": "-71.391463"
    },
    "3 HERITAGE LN": {
        "coder": "census",
        "log_location": "3 HERITAGE LN",
        "normalized_location": "3 HERITAGE LN, NATICK, MA, 01760",
        "lat": "42.291120",
        "long": "-71.359667"
    },
    "1 SUPERIOR DR ": {
        "coder": "census",
        "log_location": "1 SUPERIOR DR ",
        "normalized_location": "1 SUPERIOR DR, NATICK, MA, 01760",
        "lat": "42.301616",
        "long": "-71.377867"
    },
    "[NAT 2976] 548 WORCESTER ST - 548 WORCESTER ST": {
        "coder": "census",
        "log_location": "548 WORCESTER ST",
        "normalized_location": "548 WORCESTER ST, NATICK, MA, 01760",
        "lat": "42.301315",
        "long": "-71.346613"
    },
    "691 WORCESTER ST ": {
        "coder": "census",
        "log_location": "691 WORCESTER ST",
        "normalized_location": "691 WORCESTER ST, WELLESLEY HILLS, MA, 02481",
        "lat": "42.306156",
        "long": "-71.296741"
    },
    "263 SPEEN ST": {
        "coder": "census",
        "log_location": "263 SPEEN ST",
        "normalized_location": "263 SPEEN ST, NATICK, MA, 01760",
        "lat": "42.296862",
        "long": "-71.377250"
    },
    "BEN HEM - 18 EAST EVERGREEN RD": {
        "coder": "census",
        "log_location": "18 EAST EVERGREEN RD",
        "normalized_location": "18 E EVERGREEN RD, NATICK, MA, 01760",
        "lat": "42.307380",
        "long": "-71.360196"
    },
    "52 CEDAR AVE": {
        "coder": "census",
        "log_location": "52 CEDAR AVE",
        "normalized_location": "52 CEDAR AVE, NATICK, MA, 01760",
        "lat": "42.276258",
        "long": "-71.356567"
    },
    "51 POND ST": {
        "coder": "census",
        "log_location": "51 POND ST",
        "normalized_location": "51 POND ST, NATICK, MA, 01760",
        "lat": "42.282039",
        "long": "-71.351297"
    },
    "60 BENNETT ST": {
        "coder": "census",
        "log_location": "60 BENNETT ST",
        "normalized_location": "60 BENNETT ST, NATICK, MA, 01760",
        "lat": "42.275641",
        "long": "-71.355393"
    },
    "[NAT 4049] ROCHE BOBOIS - 395 WORCESTER ST": {
        "coder": "census",
        "log_location": "395 WORCESTER ST",
        "normalized_location": "395 WORCESTER ST, WELLESLEY HILLS, MA, 02481",
        "lat": "42.314564",
        "long": "-71.269575"
    },
    "[NAT 4001] TODOS DANCE STUDIO - 677 WORCESTER ST": {
        "coder": "census",
        "log_location": "677 WORCESTER ST",
        "normalized_location": "677 WORCESTER ST, WELLESLEY HILLS, MA, 02481",
        "lat": "42.306356",
        "long": "-71.295696"
    },
    "43 HARWOOD RD": {
        "coder": "census",
        "log_location": "43 HARWOOD RD",
        "normalized_location": "43 HARWOOD RD, NATICK, MA, 01760",
        "lat": "42.307374",
        "long": "-71.339667"
    },
    "[NAT 2929] EASTERN BANK - 2 SOUTH AVE": {
        "coder": "census",
        "log_location": "2 SOUTH AVE",
        "normalized_location": "2 SOUTH AVE, NATICK, MA, 01760",
        "lat": "42.285311",
        "long": "-71.347563"
    },
    "40 PARK AVE ": {
        "coder": "census",
        "log_location": "40 PARK AVE",
        "normalized_location": "40 PARK AVE, NATICK, MA, 01760",
        "lat": "42.295118",
        "long": "-71.355403"
    },
    "262 SPEEN ST ": {
        "coder": "census",
        "log_location": "262 SPEEN ST",
        "normalized_location": "262 SPEEN ST, NATICK, MA, 01760",
        "lat": "42.297144",
        "long": "-71.377679"
    },
    "[WEL] 978 WORCESTER ST Apt. #408": {
        "coder": "census",
        "log_location": "978 WORCESTER ST",
        "normalized_location": "978 WORCESTER ST, NATICK, MA, 01760",
        "lat": "42.299141",
        "long": "-71.366062"
    },
    "[NAT 3378] 40 SPEEN ST - 40 SPEEN ST": {
        "coder": "census",
        "log_location": "40 SPEEN ST",
        "normalized_location": "40 SPEEN ST, NATICK, MA, 01760",
        "lat": "42.274053",
        "long": "-71.378927"
    },
    "[NAT 4343] COSTARELLI RESIDENCE - 16 PORTER RD": {
        "coder": "census",
        "log_location": "16 PORTER RD",
        "normalized_location": "16 PORTER RD, NATICK, MA, 01760",
        "lat": "42.293280",
        "long": "-71.391725"
    },
    "[NAT 47] 6 UNION ST OFFICE BLDG - 6 UNION ST": {
        "coder": "census",
        "log_location": "6 UNION ST",
        "normalized_location": "6 UNION ST, NATICK, MA, 01760",
        "lat": "42.284639",
        "long": "-71.339960"
    },
    "[NAT 920] FOOD COURT - 1245 WORCESTER ST": {
        "coder": "census",
        "log_location": "1245 WORCESTER ST",
        "normalized_location": "1245 WORCESTER ST, NATICK, MA, 01760",
        "lat": "42.299500",
        "long": "-71.377749"
    },
    "[NAT 135] BRIGHAM GILL MOTORCARS INC - 817 WORCESTER ST": {
        "coder": "census",
        "log_location": "817 WORCESTER ST",
        "normalized_location": "817 WORCESTER ST, WELLESLEY HILLS, MA, 02481",
        "lat": "42.305644",
        "long": "-71.310768"
    },
    "[NAT 3111] CLOVERLEAF APARTMENTS - 325 SPEEN ST Apt. #314": {
        "coder": "census",
        "log_location": "325 SPEEN ST",
        "normalized_location": "325 SPEEN ST, NATICK, MA, 01760",
        "lat": "42.301020",
        "long": "-71.379948"
    },
    "[NAT 3165] APPLE STORE - 1245 WORCESTER ST Apt. #3082": {
        "coder": "census",
        "log_location": "1245 WORCESTER ST",
        "normalized_location": "1245 WORCESTER ST, NATICK, MA, 01760",
        "lat": "42.299500",
        "long": "-71.377749"
    },
    "[NAT 24] RAMP FROM RT9 WEST TO NORTH MAIN ST NORTH - RAMP - RT9 WB TO RT27 NB": {
        "coder": "census",
        "log_location": "9 WEST TO NORTH MAIN ST",
        "normalized_location": "9 N MAIN ST, NATICK, MA, 01760",
        "lat": "42.286082",
        "long": "-71.348580"
    },
    "11 CLEARVIEW DR": {
        "coder": "census",
        "log_location": "11 CLEARVIEW DR",
        "normalized_location": "11 CLEARVIEW DR, NATICK, MA, 01760",
        "lat": "42.273942",
        "long": "-71.337409"
    },
    "[NAT 1063] METROWEST MEDICAL CENTER - LEONARD MORSE HOSP - 67 UNION ST": {
        "coder": "census",
        "log_location": "67 UNION ST",
        "normalized_location": "67 UNION ST, NATICK, MA, 01760",
        "lat": "42.280369",
        "long": "-71.332476"
    },
    "23 WEST ST ": {
        "coder": "census",
        "log_location": "23 WEST ST",
        "normalized_location": "23 WEST ST, NATICK, MA, 01760",
        "lat": "42.276756",
        "long": "-71.359396"
    },
    "33 EVERGREEN RD": {
        "coder": "census",
        "log_location": "33 EVERGREEN RD",
        "normalized_location": "33 EVERGREEN RD, NATICK, MA, 01760",
        "lat": "42.308342",
        "long": "-71.365909"
    },
    "21 OAK ST": {
        "coder": "census",
        "log_location": "21 OAK ST",
        "normalized_location": "21 OAKLAND ST EXD, NATICK, MA, 01760",
        "lat": "42.276439",
        "long": "-71.357445"
    },
    "42 WORCESTER ST": {
        "coder": "census",
        "log_location": "42 WORCESTER ST",
        "normalized_location": "42 WORCESTER ST, NATICK, MA, 01760",
        "lat": "42.304053",
        "long": "-71.329029"
    },
    "[NAT 1128] NATIONAL GUARD READINESS CENTER - 149 SPEEN ST": {
        "coder": "census",
        "log_location": "149 SPEEN ST",
        "normalized_location": "149 SPEEN ST, NATICK, MA, 01760",
        "lat": "42.280774",
        "long": "-71.376059"
    },
    "25 GROVE ST": {
        "coder": "census",
        "log_location": "25 GROVE ST",
        "normalized_location": "25 GROVE ST, NATICK, MA, 01760",
        "lat": "42.290837",
        "long": "-71.350306"
    },
    "20 LAKEVIEW GARDENS Apt. #816": {
        "coder": "census",
        "log_location": "20 LAKEVIEW GARDENS Apt",
        "normalized_location": "20 LAKEVIEW AVE, NATICK, MA, 01760",
        "lat": "42.275652",
        "long": "-71.369569"
    },
    "12 WILLOW ST": {
        "coder": "census",
        "log_location": "12 WILLOW ST",
        "normalized_location": "12 WILLOW ST, NATICK, MA, 01760",
        "lat": "42.287629",
        "long": "-71.348862"
    },
    "[NAT 68] MCDONALDS, RT 9 EASTBOUND - 290 WORCESTER ST": {
        "coder": "census",
        "log_location": "290 WORCESTER ST",
        "normalized_location": "290 WORCESTER ST, NATICK, MA, 01760",
        "lat": "42.301963",
        "long": "-71.340499"
    },
    "[NAT 3219] L'OCCITANE - 1245 WORCESTER ST Apt. #3004": {
        "coder": "census",
        "log_location": "1245 WORCESTER ST",
        "normalized_location": "1245 WORCESTER ST, NATICK, MA, 01760",
        "lat": "42.299500",
        "long": "-71.377749"
    },
    "[NAT 3514] CARTERS BABIES & KIDS - 1300 WORCESTER ST Apt. #A": {
        "coder": "census",
        "log_location": "1300 WORCESTER ST",
        "normalized_location": "1300 WORCESTER ST, NATICK, MA, 01760",
        "lat": "42.298923",
        "long": "-71.387227"
    },
    "[NAT 3111] CLOVERLEAF APARTMENTS - 325 SPEEN ST Apt. #1002": {
        "coder": "census",
        "log_location": "325 SPEEN ST",
        "normalized_location": "325 SPEEN ST, NATICK, MA, 01760",
        "lat": "42.301020",
        "long": "-71.379948"
    },
    "1270 WORCESTER ST": {
        "coder": "census",
        "log_location": "1270 WORCESTER ST",
        "normalized_location": "1270 WORCESTER ST, NATICK, MA, 01760",
        "lat": "42.298927",
        "long": "-71.387165"
    },
    "[NAT 3780] 1245 WORCESTER ST Apt. #2084": {
        "coder": "census",
        "log_location": "1245 WORCESTER ST",
        "normalized_location": "1245 WORCESTER ST, NATICK, MA, 01760",
        "lat": "42.299500",
        "long": "-71.377749"
    },
    "25 WEST CENTRAL ST": {
        "coder": "census",
        "log_location": "25 WEST CENTRAL ST",
        "normalized_location": "25 W CENTRAL ST, NATICK, MA, 01760",
        "lat": "42.283594",
        "long": "-71.349349"
    },
    "21 PARK AVE": {
        "coder": "census",
        "log_location": "21 PARK AVE",
        "normalized_location": "21 PARK AVE, NATICK, MA, 01760",
        "lat": "42.292889",
        "long": "-71.354726"
    },
    "[NAT 1986] SUNGLASS HUT - 1245 WORCESTER ST Apt. #2024": {
        "coder": "census",
        "log_location": "1245 WORCESTER ST",
        "normalized_location": "1245 WORCESTER ST, NATICK, MA, 01760",
        "lat": "42.299500",
        "long": "-71.377749"
    },
    "[NAT 3747] ZAFTIGS WEST - 1298 WORCESTER ST Apt. #G": {
        "coder": "census",
        "log_location": "1298 WORCESTER ST",
        "normalized_location": "1298 WORCESTER ST, NATICK, MA, 01760",
        "lat": "42.298923",
        "long": "-71.387223"
    },
    "315 NORTH MAIN ST": {
        "coder": "census",
        "log_location": "315 NORTH MAIN ST",
        "normalized_location": "315 N MAIN ST, NATICK, MA, 01760",
        "lat": "42.312576",
        "long": "-71.360270"
    },
    "226 SOUTH MAIN ST ": {
        "coder": "census",
        "log_location": "226 SOUTH MAIN ST",
        "normalized_location": "226 S MAIN ST, NATICK, MA, 01760",
        "lat": "42.264835",
        "long": "-71.361133"
    },
    "[NAT 3019] MACY'S - 1247 WORCESTER ST": {
        "coder": "census",
        "log_location": "1247 WORCESTER ST",
        "normalized_location": "1247 WORCESTER ST, NATICK, MA, 01760",
        "lat": "42.299501",
        "long": "-71.377795"
    },
    "[NAT 2047] SPEEDWAY - 194 WEST CENTRAL ST": {
        "coder": "census",
        "log_location": "194 WEST CENTRAL ST",
        "normalized_location": "194 W CENTRAL ST, NATICK, MA, 01760",
        "lat": "42.282353",
        "long": "-71.382449"
    },
    "106 SPEEN ST": {
        "coder": "census",
        "log_location": "106 SPEEN ST",
        "normalized_location": "106 SPEEN ST, NATICK, MA, 01760",
        "lat": "42.283873",
        "long": "-71.375448"
    },
    "[NAT 655] LONGFELLOW SPORTS CLUB - 203 OAK ST": {
        "coder": "census",
        "log_location": "203 OAK ST",
        "normalized_location": "203 OAK ST, NATICK, MA, 01760",
        "lat": "42.314370",
        "long": "-71.339228"
    },
    "[NAT 3837] BILL'S PIZZERIA - 58 EAST CENTRAL ST": {
        "coder": "census",
        "log_location": "58 EAST CENTRAL ST",
        "normalized_location": "58 E CENTRAL ST, NATICK, MA, 01760",
        "lat": "42.284902",
        "long": "-71.341734"
    },
    "7 VILLAGE WAY Apt. #3": {
        "coder": "census",
        "log_location": "7 VILLAGE WAY",
        "normalized_location": "7 VILLAGE WAY, NATICK, MA, 01760",
        "lat": "42.280462",
        "long": "-71.390167"
    },
    "[NAT 3814] JD SPORTS (FORMER FINISH LINE) - 1245 WORCESTER ST Apt. #1020": {
        "coder": "census",
        "log_location": "1245 WORCESTER ST",
        "normalized_location": "1245 WORCESTER ST, NATICK, MA, 01760",
        "lat": "42.299500",
        "long": "-71.377749"
    },
    "[NAT 2101] NATICK MALL (PARKING DECK C) - 1249 WORCESTER ST": {
        "coder": "census",
        "log_location": "1249 WORCESTER ST",
        "normalized_location": "1249 WORCESTER ST, NATICK, MA, 01760",
        "lat": "42.299503",
        "long": "-71.377842"
    },
    "[NAT 4342] ARHAUS FURNITURE - 323 SPEEN ST": {
        "coder": "census",
        "log_location": "323 SPEEN ST",
        "normalized_location": "323 SPEEN ST, NATICK, MA, 01760",
        "lat": "42.301016",
        "long": "-71.379945"
    },
    "178 S MAIN ST ": {
        "coder": "census",
        "log_location": "178 S MAIN ST",
        "normalized_location": "178 S MAIN ST, NATICK, MA, 01760",
        "lat": "42.271767",
        "long": "-71.354674"
    },
    "125 NORTH MAIN ST": {
        "coder": "census",
        "log_location": "125 NORTH MAIN ST",
        "normalized_location": "125 N MAIN ST, NATICK, MA, 01760",
        "lat": "42.293155",
        "long": "-71.357431"
    },
    "[NAT 3728] PLANET FITNESS - 215 WEST CENTRAL ST": {
        "coder": "census",
        "log_location": "215 WEST CENTRAL ST",
        "normalized_location": "215 W CENTRAL ST, NATICK, MA, 01760",
        "lat": "42.281997",
        "long": "-71.390006"
    },
    "535 WORCESTER ST": {
        "coder": "census",
        "log_location": "535 WORCESTER ST",
        "normalized_location": "535 WORCESTER ST, WELLESLEY HILLS, MA, 02481",
        "lat": "42.309747",
        "long": "-71.282890"
    },
    "[NAT 963] HAMPTON INN - 319 SPEEN ST": {
        "coder": "census",
        "log_location": "319 SPEEN ST",
        "normalized_location": "319 SPEEN ST, NATICK, MA, 01760",
        "lat": "42.301009",
        "long": "-71.379941"
    },
    "18 TAMARACK RD": {
        "coder": "census",
        "log_location": "18 TAMARACK RD",
        "normalized_location": "18 TAMARACK RD, NATICK, MA, 01760",
        "lat": "42.283459",
        "long": "-71.393855"
    },
    "[NAT 1532] 28 WEST CENTRAL ST - 28 WEST CENTRAL ST Apt. #2": {
        "coder": "census",
        "log_location": "28 WEST CENTRAL ST",
        "normalized_location": "28 W CENTRAL ST, NATICK, MA, 01760",
        "lat": "42.283347",
        "long": "-71.350251"
    },
    "242 SPEEN ST ": {
        "coder": "census",
        "log_location": "242 SPEEN ST",
        "normalized_location": "242 SPEEN ST, NATICK, MA, 01760",
        "lat": "42.294937",
        "long": "-71.376894"
    },
    "[NAT 1547] SUNNYSIDE PLAZA - 915 WORCESTER ST": {
        "coder": "census",
        "log_location": "915 WORCESTER ST",
        "normalized_location": "915 WORCESTER ST, NATICK, MA, 01760",
        "lat": "42.299876",
        "long": "-71.361849"
    },
    "5 PINE ST ": {
        "coder": "census",
        "log_location": "5 PINE ST",
        "normalized_location": "5 PINE ST, NATICK, MA, 01760",
        "lat": "42.314252",
        "long": "-71.359736"
    },
    "[NAT 3287] NORDSTROM - 290 SPEEN ST": {
        "coder": "census",
        "log_location": "290 SPEEN ST",
        "normalized_location": "290 SPEEN ST, NATICK, MA, 01760",
        "lat": "42.299269",
        "long": "-71.379049"
    },
    "66 WELLESLEY ROAD EXT": {
        "coder": "census",
        "log_location": "66 WELLESLEY ROAD EXT",
        "normalized_location": "66 WELLESLEY RD EXD, NATICK, MA, 01760",
        "lat": "42.307176",
        "long": "-71.332126"
    },
    "[NAT 435] CENTER FOR THE ARTS (TCAN) - 14 SUMMER ST": {
        "coder": "census",
        "log_location": "14 SUMMER ST",
        "normalized_location": "14 SUMMER ST, NATICK, MA, 01760",
        "lat": "42.284470",
        "long": "-71.348222"
    },
    "101 NORTH MAIN ST": {
        "coder": "census",
        "log_location": "101 NORTH MAIN ST",
        "normalized_location": "101 N MAIN ST, NATICK, MA, 01760",
        "lat": "42.291087",
        "long": "-71.355793"
    },
    "[NAT 1203] CLARKS BLOCK - 2 SUMMER ST": {
        "coder": "census",
        "log_location": "2 SUMMER ST",
        "normalized_location": "2 SUMMER ST, NATICK, MA, 01760",
        "lat": "42.284561",
        "long": "-71.347539"
    },
    "2 SUMMER ST": {
        "coder": "census",
        "log_location": "2 SUMMER ST",
        "normalized_location": "2 SUMMER ST, NATICK, MA, 01760",
        "lat": "42.284561",
        "long": "-71.347539"
    },
    "17 WALCOTT ST": {
        "coder": "census",
        "log_location": "17 WALCOTT ST",
        "normalized_location": "17 WALCOTT ST, NATICK, MA, 01760",
        "lat": "42.278094",
        "long": "-71.348300"
    },
    "49 HARTFORD ST": {
        "coder": "census",
        "log_location": "49 HARTFORD ST",
        "normalized_location": "49 HARTFORD ST, NATICK, MA, 01760",
        "lat": "42.295443",
        "long": "-71.381366"
    },
    "RAMP - SPEEN ST TO RT9 EB": {
        "coder": "census",
        "log_location": "9 EB",
        "normalized_location": "9 EAST ST, NATICK, MA, 01760",
        "lat": "42.281561",
        "long": "-71.346182"
    },
    "[NAT 3925] NIC AND ZOE - 323 SPEEN ST Apt. #ST": {
        "coder": "census",
        "log_location": "323 SPEEN ST",
        "normalized_location": "323 SPEEN ST, NATICK, MA, 01760",
        "lat": "42.301016",
        "long": "-71.379945"
    },
    "5 FRANKLIN ST": {
        "coder": "census",
        "log_location": "5 FRANKLIN ST",
        "normalized_location": "5 FRANKLIN ST, NATICK, MA, 01760",
        "lat": "42.286357",
        "long": "-71.345575"
    },
    "13 CHARLES ST ": {
        "coder": "census",
        "log_location": "13 CHARLES ST",
        "normalized_location": "13 CHARLES ST, NATICK, MA, 01760",
        "lat": "42.290967",
        "long": "-71.351869"
    },
    "209 EAST CENTRAL ST": {
        "coder": "census",
        "log_location": "209 EAST CENTRAL ST",
        "normalized_location": "209 E CENTRAL ST, NATICK, MA, 01760",
        "lat": "42.290221",
        "long": "-71.328261"
    },
    "23 WESTFIELD RD": {
        "coder": "census",
        "log_location": "23 WESTFIELD RD",
        "normalized_location": "23 WESTFIELD RD, NATICK, MA, 01760",
        "lat": "42.284197",
        "long": "-71.380295"
    },
    "113 SPEEN ST ": {
        "coder": "census",
        "log_location": "113 SPEEN ST",
        "normalized_location": "113 SPEEN ST, NATICK, MA, 01760",
        "lat": "42.279339",
        "long": "-71.376253"
    },
    "32 CLUBHOUSE LN": {
        "coder": "census",
        "log_location": "32 CLUBHOUSE LN",
        "normalized_location": "32 CLUBHOUSE LN, WAYLAND, MA, 01778",
        "lat": "42.328620",
        "long": "-71.334955"
    },
    "29 COACHMAN LN": {
        "coder": "census",
        "log_location": "29 COACHMAN LN",
        "normalized_location": "29 COACHMAN LN, NATICK, MA, 01760",
        "lat": "42.294123",
        "long": "-71.396371"
    },
    " 130 NORTH MAIN ST": {
        "coder": "census",
        "log_location": "130 NORTH MAIN ST",
        "normalized_location": "130 N MAIN ST, NATICK, MA, 01760",
        "lat": "42.293854",
        "long": "-71.357866"
    },
    "11 WINTER ST": {
        "coder": "census",
        "log_location": "11 WINTER ST",
        "normalized_location": "11 WINTER ST, NATICK, MA, 01760",
        "lat": "42.318762",
        "long": "-71.340707"
    },
    "9 BEVERLY RD": {
        "coder": "census",
        "log_location": "9 BEVERLY RD",
        "normalized_location": "9 BEVERLY RD, NATICK, MA, 01760",
        "lat": "42.306074",
        "long": "-71.333711"
    },
    "6 VILLAGE HILL LN": {
        "coder": "census",
        "log_location": "6 VILLAGE HILL LN",
        "normalized_location": "6 VILLAGE HILL LN, NATICK, MA, 01760",
        "lat": "42.277322",
        "long": "-71.394570"
    },
    " 1 CENTRE ST": {
        "coder": "census",
        "log_location": "1 CENTRE ST",
        "normalized_location": "1 CENTRE ST, NATICK, MA, 01760",
        "lat": "42.301734",
        "long": "-71.344706"
    },
    " 313 SPEEN ST": {
        "coder": "census",
        "log_location": "313 SPEEN ST",
        "normalized_location": "313 SPEEN ST, NATICK, MA, 01760",
        "lat": "42.300998",
        "long": "-71.379934"
    },
    " 4 OXFORD ST": {
        "coder": "census",
        "log_location": "4 OXFORD ST",
        "normalized_location": "4 OXFORD ST, NATICK, MA, 01760",
        "lat": "42.307014",
        "long": "-71.331816"
    },
    " 7 LODGE LN": {
        "coder": "census",
        "log_location": "7 LODGE LN",
        "normalized_location": "7 LODGE LN, NATICK, MA, 01760",
        "lat": "42.291270",
        "long": "-71.376193"
    },
    " 1 HOMEWARD RD": {
        "coder": "census",
        "log_location": "1 HOMEWARD RD",
        "normalized_location": "1 HOMEWARD RD, NATICK, MA, 01760",
        "lat": "42.279671",
        "long": "-71.396931"
    },
    " 1 HAYES ST": {
        "coder": "census",
        "log_location": "1 HAYES ST",
        "normalized_location": "1 HAYES ST, NATICK, MA, 01760",
        "lat": "42.284433",
        "long": "-71.344088"
    },
    " 842 WORCESTER ST": {
        "coder": "census",
        "log_location": "842 WORCESTER ST",
        "normalized_location": "842 WORCESTER ST, NATICK, MA, 01760",
        "lat": "42.300178",
        "long": "-71.357070"
    },
    " 75 WASHINGTON ST": {
        "coder": "census",
        "log_location": "75 WASHINGTON ST",
        "normalized_location": "75 WASHINGTON ST, NATICK, MA, 01760",
        "lat": "42.288308",
        "long": "-71.347039"
    },
    " 1 PLEASANT ST": {
        "coder": "census",
        "log_location": "1 PLEASANT ST",
        "normalized_location": "1 PLEASANT ST, NATICK, MA, 01760",
        "lat": "42.298198",
        "long": "-71.359201"
    },
    " 1 BEAR HILL RD": {
        "coder": "census",
        "log_location": "1 BEAR HILL RD",
        "normalized_location": "1 BEAR HILL RD, NATICK, MA, 01760",
        "lat": "42.272026",
        "long": "-71.354649"
    },
    " 4 WETHERSFIELD RD": {
        "coder": "census",
        "log_location": "4 WETHERSFIELD RD",
        "normalized_location": "4 WETHERSFIELD RD, NATICK, MA, 01760",
        "lat": "42.302347",
        "long": "-71.352388"
    },
    " 5 OVERHILL RD": {
        "coder": "census",
        "log_location": "5 OVERHILL RD",
        "normalized_location": "5 OVERHILL RD, NATICK, MA, 01760",
        "lat": "42.294794",
        "long": "-71.356154"
    },
    " 1 REDMEN DR": {
        "coder": "census",
        "log_location": "1 REDMEN DR",
        "normalized_location": "1 REDMEN DR, NATICK, MA, 01760",
        "lat": "42.269245",
        "long": "-71.360034"
    },
    " 13 WEST ST": {
        "coder": "census",
        "log_location": "13 WEST ST",
        "normalized_location": "13 WEST ST, NATICK, MA, 01760",
        "lat": "42.277283",
        "long": "-71.358984"
    },
    " 8 ROCKLAND ST": {
        "coder": "census",
        "log_location": "8 ROCKLAND ST",
        "normalized_location": "8 ROCKLAND ST, NATICK, MA, 01760",
        "lat": "42.271135",
        "long": "-71.354328"
    },
    " 1 CHERYL RD": {
        "coder": "census",
        "log_location": "1 CHERYL RD",
        "normalized_location": "1 CHERYL RD, NATICK, MA, 01760",
        "lat": "42.294905",
        "long": "-71.376921"
    },
    " 327 NORTH MAIN ST": {
        "coder": "census",
        "log_location": "327 NORTH MAIN ST",
        "normalized_location": "327 N MAIN ST, NATICK, MA, 01760",
        "lat": "42.314163",
        "long": "-71.360349"
    },
    " 10 GROVE ST": {
        "coder": "census",
        "log_location": "10 GROVE ST",
        "normalized_location": "10 GROVE ST, NATICK, MA, 01760",
        "lat": "42.290782",
        "long": "-71.351758"
    },
    " 150 WEST CENTRAL ST": {
        "coder": "census",
        "log_location": "150 WEST CENTRAL ST",
        "normalized_location": "150 W CENTRAL ST, NATICK, MA, 01760",
        "lat": "42.282483",
        "long": "-71.378214"
    },
    "[NAT 301] NATICK VILLAGE - CONDO OFFICE - 18 VILLAGE WAY": {
        "coder": "census",
        "log_location": "18 VILLAGE WAY",
        "normalized_location": "18 VILLAGE WAY, NATICK, MA, 01760",
        "lat": "42.280298",
        "long": "-71.390150"
    },
    "[NAT 1511] MONTICELLO MOTEL - 1446 WORCESTER ST Apt. #124": {
        "coder": "census",
        "log_location": "1446 WORCESTER ST",
        "normalized_location": "1446 WORCESTER ST, NATICK, MA, 01760",
        "lat": "42.298763",
        "long": "-71.391695"
    },
    "25 HUNTERS LN": {
        "coder": "census",
        "log_location": "25 HUNTERS LN",
        "normalized_location": "25 HUNTERS LN, NATICK, MA, 01760",
        "lat": "42.272465",
        "long": "-71.351518"
    },
    "CHANG DENTAL GROUP - 220 NORTH MAIN ST": {
        "coder": "census",
        "log_location": "220 NORTH MAIN ST",
        "normalized_location": "220 N MAIN ST, NATICK, MA, 01760",
        "lat": "42.304181",
        "long": "-71.361611"
    },
    "175 OAK ST ": {
        "coder": "census",
        "log_location": "175 OAK ST",
        "normalized_location": "175 OAK ST, NATICK, MA, 01760",
        "lat": "42.311705",
        "long": "-71.334892"
    },
    "[NAT 671] CROSS SERVICES GROUP INC - 19 TECH CIR": {
        "coder": "census",
        "log_location": "19 TECH CIR",
        "normalized_location": "19 TECH CIR, NATICK, MA, 01760",
        "lat": "42.313874",
        "long": "-71.337741"
    },
    "15 WALDEN DR Apt. #14": {
        "coder": "census",
        "log_location": "15 WALDEN DR Apt",
        "normalized_location": "15 WALDEN DR, NATICK, MA, 01760",
        "lat": "42.276767",
        "long": "-71.387344"
    },
    "8 OAK ST": {
        "coder": "census",
        "log_location": "8 OAK ST",
        "normalized_location": "8 OAK ST, NATICK, MA, 01760",
        "lat": "42.295187",
        "long": "-71.328983"
    },
    "226 OAK ST": {
        "coder": "census",
        "log_location": "226 OAK ST",
        "normalized_location": "226 OAK ST, NATICK, MA, 01760",
        "lat": "42.316502",
        "long": "-71.340981"
    },
    "33 EAST EVERGREEN RD": {
        "coder": "census",
        "log_location": "33 EAST EVERGREEN RD",
        "normalized_location": "33 E EVERGREEN RD, NATICK, MA, 01760",
        "lat": "42.306727",
        "long": "-71.356197"
    },
    "[NAT 2653] CAMP ARROWHEAD - 1055 WORCESTER ST": {
        "coder": "census",
        "log_location": "1055 WORCESTER ST",
        "normalized_location": "1055 WORCESTER ST, NATICK, MA, 01760",
        "lat": "42.299422",
        "long": "-71.365450"
    },
    "[NAT 2371] SHERWOOD PLAZA (WEST) - 1298 WORCESTER ST": {
        "coder": "census",
        "log_location": "1298 WORCESTER ST",
        "normalized_location": "1298 WORCESTER ST, NATICK, MA, 01760",
        "lat": "42.298923",
        "long": "-71.387223"
    },
    "38 BENNETT ST": {
        "coder": "census",
        "log_location": "38 BENNETT ST",
        "normalized_location": "38 BENNETT ST, NATICK, MA, 01760",
        "lat": "42.275350",
        "long": "-71.354706"
    },
    "155 HARTFORD ST ": {
        "coder": "census",
        "log_location": "155 HARTFORD ST",
        "normalized_location": "155 HARTFORD ST, NATICK, MA, 01760",
        "lat": "42.290774",
        "long": "-71.393834"
    },
    "329 SPEEN ST ": {
        "coder": "census",
        "log_location": "329 SPEEN ST",
        "normalized_location": "329 SPEEN ST, NATICK, MA, 01760",
        "lat": "42.301028",
        "long": "-71.379952"
    },
    "8 LAKEVIEW GARDENS": {
        "coder": "census",
        "log_location": "8 LAKEVIEW GARDENS",
        "normalized_location": "8 LAKEVIEW AVE, NATICK, MA, 01760",
        "lat": "42.275749",
        "long": "-71.369592"
    },
    "1 WEST CENTRAL ST ": {
        "coder": "census",
        "log_location": "1 WEST CENTRAL ST",
        "normalized_location": "1 W CENTRAL ST, NATICK, MA, 01760",
        "lat": "42.283832",
        "long": "-71.347361"
    },
    "[DRA] 59 MILL ST": {
        "coder": "census",
        "log_location": "59 MILL ST",
        "normalized_location": "59 MILL ST, NATICK, MA, 01760",
        "lat": "42.282329",
        "long": "-71.380422"
    },
    "46 WESTLAKE RD": {
        "coder": "census",
        "log_location": "46 WESTLAKE RD",
        "normalized_location": "46 WESTLAKE RD, NATICK, MA, 01760",
        "lat": "42.309886",
        "long": "-71.358292"
    },
    "[NAT 1811] A D COLA LIGHTING - 86 WORCESTER ST": {
        "coder": "census",
        "log_location": "86 WORCESTER ST",
        "normalized_location": "86 WORCESTER ST, NATICK, MA, 01760",
        "lat": "42.303863",
        "long": "-71.330327"
    },
    "44 BRADFORD RD": {
        "coder": "census",
        "log_location": "44 BRADFORD RD",
        "normalized_location": "44 BRADFORD RD, NATICK, MA, 01760",
        "lat": "42.310653",
        "long": "-71.347549"
    },
    "48 SILVER HILL LN Apt. #16": {
        "coder": "census",
        "log_location": "48 SILVER HILL LN Apt",
        "normalized_location": "48 SILVER HILL LN, NATICK, MA, 01760",
        "lat": "42.277903",
        "long": "-71.384684"
    },
    "[NAT 4184] DAVE AND BUSTERS-2ND FLOOR - 1235 WORCESTER ST Apt. #200": {
        "coder": "census",
        "log_location": "1235 WORCESTER ST",
        "normalized_location": "1235 WORCESTER ST, NATICK, MA, 01760",
        "lat": "42.299493",
        "long": "-71.377519"
    },
    "2 WORCESTER ST ": {
        "coder": "census",
        "log_location": "2 WORCESTER ST",
        "normalized_location": "2 WORCESTER ST, NATICK, MA, 01760",
        "lat": "42.304222",
        "long": "-71.326689"
    },
    "[FRA] NATICK DISTRICT COURT - 600 CONCORD ST": {
        "coder": "census",
        "log_location": "600 CONCORD ST",
        "normalized_location": "600 CONCORD ST, FRAMINGHAM, MA, 01702",
        "lat": "42.292559",
        "long": "-71.409285"
    },
    "[NAT 466] 7- ELEVEN - 172 NORTH MAIN ST": {
        "coder": "census",
        "log_location": "172 NORTH MAIN ST",
        "normalized_location": "172 N MAIN ST, NATICK, MA, 01760",
        "lat": "42.297786",
        "long": "-71.359299"
    },
    "[NAT 4160] ALDI - 321 SPEEN ST": {
        "coder": "census",
        "log_location": "321 SPEEN ST",
        "normalized_location": "321 SPEEN ST, NATICK, MA, 01760",
        "lat": "42.301013",
        "long": "-71.379943"
    },
    "[NAT 220] SCRUB A DUB AUTO WASH OF NATICK - 172 WORCESTER ST": {
        "coder": "census",
        "log_location": "172 WORCESTER ST",
        "normalized_location": "172 WORCESTER ST, NATICK, MA, 01760",
        "lat": "42.303126",
        "long": "-71.333385"
    },
    "120 HARTFORD ST ": {
        "coder": "census",
        "log_location": "120 HARTFORD ST",
        "normalized_location": "120 HARTFORD ST, NATICK, MA, 01760",
        "lat": "42.291854",
        "long": "-71.389420"
    },
    "88 CEDAR AVE Apt. #B": {
        "coder": "census",
        "log_location": "88 CEDAR AVE",
        "normalized_location": "88 CEDAR ST, NATICK, MA, 01760",
        "lat": "42.276828",
        "long": "-71.315838"
    },
    "17 PROCTOR ST": {
        "coder": "census",
        "log_location": "17 PROCTOR ST",
        "normalized_location": "17 PROCTOR ST, NATICK, MA, 01760",
        "lat": "42.273270",
        "long": "-71.370573"
    },
    "164 MILL ST": {
        "coder": "census",
        "log_location": "164 MILL ST",
        "normalized_location": "164 MILL ST, NATICK, MA, 01760",
        "lat": "42.289061",
        "long": "-71.385185"
    },
    "52 NORTH AVE Apt. #1": {
        "coder": "census",
        "log_location": "52 NORTH AVE",
        "normalized_location": "52 NORTH AVE, NATICK, MA, 01760",
        "lat": "42.286388",
        "long": "-71.345165"
    },
    "[NAT 4025] TOTAL WINE AND MORE - 321 SPEEN ST": {
        "coder": "census",
        "log_location": "321 SPEEN ST",
        "normalized_location": "321 SPEEN ST, NATICK, MA, 01760",
        "lat": "42.301013",
        "long": "-71.379943"
    },
    "5 LAKEVIEW GARDENS Apt. #307": {
        "coder": "census",
        "log_location": "5 LAKEVIEW GARDENS Apt",
        "normalized_location": "5 LAKEVIEW AVE, NATICK, MA, 01760",
        "lat": "42.277552",
        "long": "-71.370192"
    },
    "52 NORTH AVE": {
        "coder": "census",
        "log_location": "52 NORTH AVE",
        "normalized_location": "52 NORTH AVE, NATICK, MA, 01760",
        "lat": "42.286388",
        "long": "-71.345165"
    },
    "[NAT 610] ATTY RICHARD A GLASER - 279 WEST CENTRAL ST": {
        "coder": "census",
        "log_location": "279 WEST CENTRAL ST",
        "normalized_location": "279 W CENTRAL ST, NATICK, MA, 01760",
        "lat": "42.281799",
        "long": "-71.393053"
    },
    "[NAT 1100] WEST NATICK FIRE STATION - 268 SPEEN ST": {
        "coder": "census",
        "log_location": "268 SPEEN ST",
        "normalized_location": "268 SPEEN ST, NATICK, MA, 01760",
        "lat": "42.297170",
        "long": "-71.377703"
    },
    " 3 GIBSON RD": {
        "coder": "census",
        "log_location": "3 GIBSON RD",
        "normalized_location": "3 GIBSON RD, NATICK, MA, 01760",
        "lat": "42.290109",
        "long": "-71.395177"
    },
    "[NAT 66] STAPLES OFFICE SUPPLIES - 881 WORCESTER ST": {
        "coder": "census",
        "log_location": "881 WORCESTER ST",
        "normalized_location": "881 WORCESTER ST, WELLESLEY, MA, 02482",
        "lat": "42.305408",
        "long": "-71.313606"
    },
    "[NAT 3491] 139 EVERETT ST - 139 EVERETT ST": {
        "coder": "census",
        "log_location": "139 EVERETT ST",
        "normalized_location": "139 EVERETT ST, NATICK, MA, 01760",
        "lat": "42.259746",
        "long": "-71.354457"
    },
    "11 GROVE RD": {
        "coder": "census",
        "log_location": "11 GROVE RD",
        "normalized_location": "11 GROVE RD, NATICK, MA, 01760",
        "lat": "42.302727",
        "long": "-71.327272"
    },
    "[NAT 2662] NATICK FIRE DEPARTMENT - 22 EAST CENTRAL ST": {
        "coder": "census",
        "log_location": "22 EAST CENTRAL ST",
        "normalized_location": "22 E CENTRAL ST, NATICK, MA, 01760",
        "lat": "42.284254",
        "long": "-71.345093"
    },
    "116 POND ST": {
        "coder": "census",
        "log_location": "116 POND ST",
        "normalized_location": "116 POND ST, NATICK, MA, 01760",
        "lat": "42.279971",
        "long": "-71.359544"
    },
    "24 PHILLIPS POND RD": {
        "coder": "census",
        "log_location": "24 PHILLIPS POND RD",
        "normalized_location": "24 PHILLIPS POND RD, NATICK, MA, 01760",
        "lat": "42.258734",
        "long": "-71.317350"
    },
    "[NAT 4037] LA FITNESS - 1 DEAN RD": {
        "coder": "census",
        "log_location": "1 DEAN RD",
        "normalized_location": "1 DEAN RD, NATICK, MA, 01760",
        "lat": "42.296920",
        "long": "-71.387206"
    },
    "7 MORGAN DR Apt. #301": {
        "coder": "census",
        "log_location": "7 MORGAN DR Apt",
        "normalized_location": "7 MORGAN DR, NATICK, MA, 01760",
        "lat": "42.266036",
        "long": "-71.354032"
    },
    "3 LINCOLN CIR": {
        "coder": "census",
        "log_location": "3 LINCOLN CIR",
        "normalized_location": "3 LINCOLN CIR, NATICK, MA, 01760",
        "lat": "42.279766",
        "long": "-71.340968"
    },
    "242 SPEEN ST": {
        "coder": "census",
        "log_location": "242 SPEEN ST",
        "normalized_location": "242 SPEEN ST, NATICK, MA, 01760",
        "lat": "42.294937",
        "long": "-71.376894"
    },
    "10 MORSE ST Apt. #B": {
        "coder": "census",
        "log_location": "10 MORSE ST",
        "normalized_location": "10 MORSE ST, NATICK, MA, 01760",
        "lat": "42.283052",
        "long": "-71.344593"
    },
    "42 SILVER HILL LN Apt. #3": {
        "coder": "census",
        "log_location": "42 SILVER HILL LN Apt",
        "normalized_location": "42 SILVER HILL LN, NATICK, MA, 01760",
        "lat": "42.278138",
        "long": "-71.384784"
    },
    "[NAT 3] RAMP FROM RT9 WEST TO SPEEN ST NORTH - RAMP - RT9 WB TO SPEEN ST": {
        "coder": "census",
        "log_location": "9 WEST TO SPEEN ST",
        "normalized_location": "9 SPEEN ST, NATICK, MA, 01760",
        "lat": "42.270720",
        "long": "-71.381262"
    },
    "192 WORCESTER ST": {
        "coder": "census",
        "log_location": "192 WORCESTER ST",
        "normalized_location": "192 WORCESTER ST, NATICK, MA, 01760",
        "lat": "42.302957",
        "long": "-71.334028"
    },
    "[NAT 869] ROCHE BROS SUPERMARKET - 150 WEST CENTRAL ST": {
        "coder": "census",
        "log_location": "150 WEST CENTRAL ST",
        "normalized_location": "150 W CENTRAL ST, NATICK, MA, 01760",
        "lat": "42.282483",
        "long": "-71.378214"
    },
    "44 NORTH MAIN ST": {
        "coder": "census",
        "log_location": "44 NORTH MAIN ST",
        "normalized_location": "44 N MAIN ST, NATICK, MA, 01760",
        "lat": "42.288033",
        "long": "-71.350178"
    },
    "167 HARTFORD ST": {
        "coder": "census",
        "log_location": "167 HARTFORD ST",
        "normalized_location": "167 HARTFORD ST, NATICK, MA, 01760",
        "lat": "42.291154",
        "long": "-71.396557"
    },
    "168 CEDAR TER Apt. #A": {
        "coder": "census",
        "log_location": "168 CEDAR TER Apt",
        "normalized_location": "168 CEDAR TER, NATICK, MA, 01760",
        "lat": "42.273839",
        "long": "-71.356938"
    },
    "[NAT 3883] SKYBOKX - 319 SPEEN ST": {
        "coder": "census",
        "log_location": "319 SPEEN ST",
        "normalized_location": "319 SPEEN ST, NATICK, MA, 01760",
        "lat": "42.301009",
        "long": "-71.379941"
    },
    "180 MILL ST": {
        "coder": "census",
        "log_location": "180 MILL ST",
        "normalized_location": "180 MILL ST, NATICK, MA, 01760",
        "lat": "42.289942",
        "long": "-71.387132"
    },
    "[NAT 2388] CARR JOHN ASSOCIATES - 971 WORCESTER ST": {
        "coder": "census",
        "log_location": "971 WORCESTER ST",
        "normalized_location": "971 WORCESTER ST, NATICK, MA, 01760",
        "lat": "42.299695",
        "long": "-71.363290"
    },
    "180 HARTFORD ST": {
        "coder": "census",
        "log_location": "180 HARTFORD ST",
        "normalized_location": "180 HARTFORD ST, NATICK, MA, 01760",
        "lat": "42.291988",
        "long": "-71.398994"
    },
    "[NAT 1541] METROWEST SUBARU LLC - 948 WORCESTER ST": {
        "coder": "census",
        "log_location": "948 WORCESTER ST",
        "normalized_location": "948 WORCESTER ST, NATICK, MA, 01760",
        "lat": "42.299337",
        "long": "-71.364467"
    },
    "[NAT 3590] TILES PLUS MORE - 309 WORCESTER ST": {
        "coder": "census",
        "log_location": "309 WORCESTER ST",
        "normalized_location": "309 WORCESTER ST, WELLESLEY HILLS, MA, 02481",
        "lat": "42.314519",
        "long": "-71.256927"
    },
    "142 SPEEN ST": {
        "coder": "census",
        "log_location": "142 SPEEN ST",
        "normalized_location": "142 SPEEN ST, NATICK, MA, 01760",
        "lat": "42.284979",
        "long": "-71.375377"
    },
    "71 OAK ST ": {
        "coder": "census",
        "log_location": "71 OAK ST",
        "normalized_location": "71 OAK ST, NATICK, MA, 01760",
        "lat": "42.302537",
        "long": "-71.332055"
    },
    "[NAT 2893] DICK'S SPORTING GOODS - 1336 WORCESTER ST": {
        "coder": "census",
        "log_location": "1336 WORCESTER ST",
        "normalized_location": "1336 WORCESTER ST, NATICK, MA, 01760",
        "lat": "42.298917",
        "long": "-71.387301"
    },
    "[NAT 1531] VFW - 113 WEST CENTRAL ST": {
        "coder": "census",
        "log_location": "113 WEST CENTRAL ST",
        "normalized_location": "113 W CENTRAL ST, NATICK, MA, 01760",
        "lat": "42.283857",
        "long": "-71.367763"
    },
    "177 HARTFORD ST": {
        "coder": "census",
        "log_location": "177 HARTFORD ST",
        "normalized_location": "177 HARTFORD ST, NATICK, MA, 01760",
        "lat": "42.291667",
        "long": "-71.397955"
    },
    "313 SPEEN ST ": {
        "coder": "census",
        "log_location": "313 SPEEN ST",
        "normalized_location": "313 SPEEN ST, NATICK, MA, 01760",
        "lat": "42.300998",
        "long": "-71.379934"
    },
    "103 NORTH MAIN ST": {
        "coder": "census",
        "log_location": "103 NORTH MAIN ST",
        "normalized_location": "103 N MAIN ST, NATICK, MA, 01760",
        "lat": "42.291320",
        "long": "-71.356073"
    },
    "[NAT 895] 15 RUSSELL CIR - 15 RUSSELL CIR": {
        "coder": "census",
        "log_location": "15 RUSSELL CIR",
        "normalized_location": "15 RUSSELL CIR, NATICK, MA, 01760",
        "lat": "42.311452",
        "long": "-71.348815"
    },
    "97 WALNUT ST ": {
        "coder": "census",
        "log_location": "97 WALNUT ST",
        "normalized_location": "97 WALNUT ST, NATICK, MA, 01760",
        "lat": "42.294406",
        "long": "-71.348061"
    },
    "[NAT 1145] SUPER STOP & SHOP - 829 WORCESTER ST": {
        "coder": "census",
        "log_location": "829 WORCESTER ST",
        "normalized_location": "829 WORCESTER ST, WELLESLEY HILLS, MA, 02481",
        "lat": "42.305625",
        "long": "-71.311027"
    },
    "21 VILLAGE ROCK LN Apt. #3": {
        "coder": "census",
        "log_location": "21 VILLAGE ROCK LN Apt",
        "normalized_location": "21 VILLAGE ROCK LN, NATICK, MA, 01760",
        "lat": "42.278482",
        "long": "-71.394655"
    },
    "30 PLEASANT ST": {
        "coder": "census",
        "log_location": "30 PLEASANT ST",
        "normalized_location": "30 PLEASANT ST, NATICK, MA, 01760",
        "lat": "42.298432",
        "long": "-71.356723"
    },
    "256 SPEEN ST ": {
        "coder": "census",
        "log_location": "256 SPEEN ST",
        "normalized_location": "256 SPEEN ST, NATICK, MA, 01760",
        "lat": "42.296402",
        "long": "-71.376979"
    },
    "[NAT 2150] GLENWOOD CEMETARY - 1 GLENWOOD ST": {
        "coder": "census",
        "log_location": "1 GLENWOOD ST",
        "normalized_location": "1 GLENWOOD ST, NATICK, MA, 01760",
        "lat": "42.265518",
        "long": "-71.315596"
    },
    "[NAT 2044] NATICK HISTORICAL SOCIETY - 58 ELIOT ST": {
        "coder": "census",
        "log_location": "58 ELIOT ST",
        "normalized_location": "58 ELIOT ST, NATICK, MA, 01760",
        "lat": "42.271678",
        "long": "-71.316459"
    },
    "[NAT 941] VALVOLINE INSTANT OIL CHANGE - 891 WORCESTER ST": {
        "coder": "census",
        "log_location": "891 WORCESTER ST",
        "normalized_location": "891 WORCESTER ST, WELLESLEY, MA, 02482",
        "lat": "42.305265",
        "long": "-71.315556"
    },
    "75 WORCESTER ST": {
        "coder": "census",
        "log_location": "75 WORCESTER ST",
        "normalized_location": "75 WORCESTER ST, NATICK, MA, 01760",
        "lat": "42.304175",
        "long": "-71.329829"
    },
    "[NAT 3281] 9 PHEASANT HOLLOW RD - 9 PHEASANT HOLLOW RD": {
        "coder": "census",
        "log_location": "9 PHEASANT HOLLOW RD",
        "normalized_location": "9 PHEASANT HOLLOW RD, NATICK, MA, 01760",
        "lat": "42.276126",
        "long": "-71.382780"
    },
    "[NAT 1494] U S PETROLEUM - 146 EAST CENTRAL ST": {
        "coder": "census",
        "log_location": "146 EAST CENTRAL ST",
        "normalized_location": "146 E CENTRAL ST, NATICK, MA, 01760",
        "lat": "42.286986",
        "long": "-71.335476"
    },
    "1 CENTRE ST": {
        "coder": "census",
        "log_location": "1 CENTRE ST",
        "normalized_location": "1 CENTRE ST, NATICK, MA, 01760",
        "lat": "42.301734",
        "long": "-71.344706"
    },
    "21 WESTFIELD RD": {
        "coder": "census",
        "log_location": "21 WESTFIELD RD",
        "normalized_location": "21 WESTFIELD RD, NATICK, MA, 01760",
        "lat": "42.284200",
        "long": "-71.380419"
    },
    "[NAT 513] U S POST OFFICE - 15 COMMON ST": {
        "coder": "census",
        "log_location": "15 COMMON ST",
        "normalized_location": "15 COMMON ST, NATICK, MA, 01760",
        "lat": "42.282901",
        "long": "-71.345774"
    },
    "625 WORCESTER ST": {
        "coder": "census",
        "log_location": "625 WORCESTER ST",
        "normalized_location": "625 WORCESTER ST, WELLESLEY HILLS, MA, 02481",
        "lat": "42.307026",
        "long": "-71.292761"
    },
    "[NAT 4356] THE PAPER STORE - 1346 WORCESTER ST": {
        "coder": "census",
        "log_location": "1346 WORCESTER ST",
        "normalized_location": "1346 WORCESTER ST, NATICK, MA, 01760",
        "lat": "42.298915",
        "long": "-71.387322"
    },
    "[NAT 425] DEBSAN WALLPAPER - 25 MAIN ST": {
        "coder": "census",
        "log_location": "25 MAIN ST",
        "normalized_location": "25 MAIN ST, NATICK, MA, 01760",
        "lat": "42.284546",
        "long": "-71.347527"
    },
    "262 NORTH MAIN ST ": {
        "coder": "census",
        "log_location": "262 NORTH MAIN ST",
        "normalized_location": "262 N MAIN ST, NATICK, MA, 01760",
        "lat": "42.307057",
        "long": "-71.361859"
    },
    "24 WATER ST": {
        "coder": "census",
        "log_location": "24 WATER ST",
        "normalized_location": "24 WATER ST, NATICK, MA, 01760",
        "lat": "42.272784",
        "long": "-71.311415"
    },
    "[NAT 2023] BRANDON HOUSE HOUSE 1 - 27 WINTER ST": {
        "coder": "census",
        "log_location": "27 WINTER ST",
        "normalized_location": "27 WINTER ST, WAYLAND, MA, 01778",
        "lat": "42.319975",
        "long": "-71.362971"
    },
    "44 NORTH MAIN ST Apt. #3": {
        "coder": "census",
        "log_location": "44 NORTH MAIN ST",
        "normalized_location": "44 N MAIN ST, NATICK, MA, 01760",
        "lat": "42.288033",
        "long": "-71.350178"
    },
    "14 BIRCH RD": {
        "coder": "census",
        "log_location": "14 BIRCH RD",
        "normalized_location": "14 BIRCH RD, NATICK, MA, 01760",
        "lat": "42.307957",
        "long": "-71.364027"
    },
    "790 WORCESTER ST ": {
        "coder": "census",
        "log_location": "790 WORCESTER ST",
        "normalized_location": "790 WORCESTER ST, NATICK, MA, 01760",
        "lat": "42.300298",
        "long": "-71.356083"
    },
    "6 SPEEN ST ": {
        "coder": "census",
        "log_location": "6 SPEEN ST",
        "normalized_location": "6 SPEEN ST, NATICK, MA, 01760",
        "lat": "42.270932",
        "long": "-71.381197"
    },
    "[NAT 1147] AUTO ZONE - 120 WORCESTER ST": {
        "coder": "census",
        "log_location": "120 WORCESTER ST",
        "normalized_location": "120 WORCESTER ST, NATICK, MA, 01760",
        "lat": "42.303663",
        "long": "-71.331179"
    },
    "99 HARTFORD ST": {
        "coder": "census",
        "log_location": "99 HARTFORD ST",
        "normalized_location": "99 HARTFORD ST, NATICK, MA, 01760",
        "lat": "42.292946",
        "long": "-71.386832"
    },
    " 262 SPEEN ST": {
        "coder": "census",
        "log_location": "262 SPEEN ST",
        "normalized_location": "262 SPEEN ST, NATICK, MA, 01760",
        "lat": "42.297144",
        "long": "-71.377679"
    },
    "[NAT 1027] BRANDON SCHOOL - 27 WINTER ST": {
        "coder": "census",
        "log_location": "27 WINTER ST",
        "normalized_location": "27 WINTER ST, WAYLAND, MA, 01778",
        "lat": "42.319975",
        "long": "-71.362971"
    },
    "45 BEACON ST": {
        "coder": "census",
        "log_location": "45 BEACON ST",
        "normalized_location": "45 BEACON ST, NATICK, MA, 01760",
        "lat": "42.295688",
        "long": "-71.353418"
    },
    "49 WASHINGTON ST ": {
        "coder": "census",
        "log_location": "49 WASHINGTON ST",
        "normalized_location": "49 WASHINGTON ST, NATICK, MA, 01760",
        "lat": "42.287212",
        "long": "-71.346812"
    },
    "[NAT 765] THEOS PIZZA - 231 NORTH MAIN ST": {
        "coder": "census",
        "log_location": "231 NORTH MAIN ST",
        "normalized_location": "231 N MAIN ST, NATICK, MA, 01760",
        "lat": "42.306404",
        "long": "-71.361688"
    },
    "[NAT 771] HERB CHAMBERS MERCEDES / BMW - 253 NORTH MAIN ST": {
        "coder": "census",
        "log_location": "253 NORTH MAIN ST",
        "normalized_location": "253 N MAIN ST, NATICK, MA, 01760",
        "lat": "42.307387",
        "long": "-71.361712"
    },
    "[NAT 3039] LOLA'S ITALIAN - 9 MAIN ST": {
        "coder": "census",
        "log_location": "9 MAIN ST",
        "normalized_location": "9 MAIN ST, NATICK, MA, 01760",
        "lat": "42.284514",
        "long": "-71.347515"
    },
    "15 TAMARACK RD": {
        "coder": "census",
        "log_location": "15 TAMARACK RD",
        "normalized_location": "15 TAMARACK RD, NATICK, MA, 01760",
        "lat": "42.283617",
        "long": "-71.393670"
    },
    "[NAT 692] CONNELL AND CURLEY INSURANCE - 19 WEST CENTRAL ST": {
        "coder": "census",
        "log_location": "19 WEST CENTRAL ST",
        "normalized_location": "19 W CENTRAL ST, NATICK, MA, 01760",
        "lat": "42.283657",
        "long": "-71.348851"
    },
    "240 NORTH MAIN ST ": {
        "coder": "census",
        "log_location": "240 NORTH MAIN ST",
        "normalized_location": "240 N MAIN ST, NATICK, MA, 01760",
        "lat": "42.304637",
        "long": "-71.361660"
    },
    "69 POND ST ": {
        "coder": "census",
        "log_location": "69 POND ST",
        "normalized_location": "69 POND ST, FRAMINGHAM, MA, 01702",
        "lat": "42.283821",
        "long": "-71.409426"
    },
    "2 SOUTH AVE ": {
        "coder": "census",
        "log_location": "2 SOUTH AVE",
        "normalized_location": "2 SOUTH AVE, NATICK, MA, 01760",
        "lat": "42.285311",
        "long": "-71.347563"
    },
    "56 WASHINGTON AVE ": {
        "coder": "census",
        "log_location": "56 WASHINGTON AVE",
        "normalized_location": "56 WASHINGTON AVE, NATICK, MA, 01760",
        "lat": "42.287941",
        "long": "-71.354194"
    },
    "8 MARION ST Apt. #1": {
        "coder": "census",
        "log_location": "8 MARION ST",
        "normalized_location": "8 MARION ST, NATICK, MA, 01760",
        "lat": "42.285684",
        "long": "-71.339788"
    },
    "4 VILLAGE GREEN LN Apt. #11": {
        "coder": "census",
        "log_location": "4 VILLAGE GREEN LN Apt",
        "normalized_location": "4 VILLAGE GREEN LN, NATICK, MA, 01760",
        "lat": "42.281155",
        "long": "-71.391651"
    },
    "[NAT 4125] BROOKLYN NY PIZZA - 251 WEST CENTRAL ST Apt. #12": {
        "coder": "census",
        "log_location": "251 WEST CENTRAL ST",
        "normalized_location": "251 W CENTRAL ST, NATICK, MA, 01760",
        "lat": "42.281827",
        "long": "-71.392458"
    },
    "[NAT 3671] SPEEDWAY (RT 9 EAST) - 230 WORCESTER ST": {
        "coder": "census",
        "log_location": "230 WORCESTER ST",
        "normalized_location": "230 WORCESTER ST, NATICK, MA, 01760",
        "lat": "42.302531",
        "long": "-71.335773"
    },
    "[NAT 1505] WENDY'S INTERNATIONAL - 303 WEST CENTRAL ST": {
        "coder": "census",
        "log_location": "303 WEST CENTRAL ST",
        "normalized_location": "303 W CENTRAL ST, NATICK, MA, 01760",
        "lat": "42.281774",
        "long": "-71.393563"
    },
    "27 WEST CENTRAL ST": {
        "coder": "census",
        "log_location": "27 WEST CENTRAL ST",
        "normalized_location": "27 W CENTRAL ST, NATICK, MA, 01760",
        "lat": "42.283573",
        "long": "-71.349515"
    },
    "2 WESTFIELD RD ": {
        "coder": "census",
        "log_location": "2 WESTFIELD RD",
        "normalized_location": "2 WESTFIELD RD, NATICK, MA, 01760",
        "lat": "42.284508",
        "long": "-71.381291"
    },
    "[NAT 610] 279 WEST CENTRAL ST": {
        "coder": "census",
        "log_location": "279 WEST CENTRAL ST",
        "normalized_location": "279 W CENTRAL ST, NATICK, MA, 01760",
        "lat": "42.281799",
        "long": "-71.393053"
    },
    "[NAT 1015] U- HAUL CO - 834 WORCESTER ST": {
        "coder": "census",
        "log_location": "834 WORCESTER ST",
        "normalized_location": "834 WORCESTER ST, NATICK, MA, 01760",
        "lat": "42.300197",
        "long": "-71.356918"
    },
    "8 COCHITUATE ST Apt. #2": {
        "coder": "census",
        "log_location": "8 COCHITUATE ST",
        "normalized_location": "8 COCHITUATE ST, NATICK, MA, 01760",
        "lat": "42.286206",
        "long": "-71.349729"
    },
    "[NAT 142] 24 COMMON ST Apt. #3": {
        "coder": "census",
        "log_location": "24 COMMON ST",
        "normalized_location": "24 COMMON ST, NATICK, MA, 01760",
        "lat": "42.283067",
        "long": "-71.345305"
    },
    "[NAT 1504] SHERWOOD VILLAGE EAST - 143 MILL ST": {
        "coder": "census",
        "log_location": "143 MILL ST",
        "normalized_location": "143 MILL ST, NATICK, MA, 01760",
        "lat": "42.287469",
        "long": "-71.382669"
    },
    "8 MARION ST": {
        "coder": "census",
        "log_location": "8 MARION ST",
        "normalized_location": "8 MARION ST, NATICK, MA, 01760",
        "lat": "42.285684",
        "long": "-71.339788"
    },
    "[NAT 4387] LUCID MOTORS - 1245 WORCESTER ST Apt. #3210": {
        "coder": "census",
        "log_location": "1245 WORCESTER ST",
        "normalized_location": "1245 WORCESTER ST, NATICK, MA, 01760",
        "lat": "42.299500",
        "long": "-71.377749"
    },
    "14 PARKMAN ST": {
        "coder": "census",
        "log_location": "14 PARKMAN ST",
        "normalized_location": "14 PARKMAN ST, NATICK, MA, 01760",
        "lat": "42.293059",
        "long": "-71.348664"
    },
    "206 WORCESTER ST": {
        "coder": "census",
        "log_location": "206 WORCESTER ST",
        "normalized_location": "206 WORCESTER ST, NATICK, MA, 01760",
        "lat": "42.302616",
        "long": "-71.335377"
    },
    "[NAT 2726] PARTY CITY - 321 WORCESTER ST": {
        "coder": "census",
        "log_location": "321 WORCESTER ST",
        "normalized_location": "321 WORCESTER ST, WELLESLEY HILLS, MA, 02481",
        "lat": "42.314497",
        "long": "-71.257116"
    },
    "[NAT 269] COAN INC - 196 WEST CENTRAL ST": {
        "coder": "census",
        "log_location": "196 WEST CENTRAL ST",
        "normalized_location": "196 W CENTRAL ST, NATICK, MA, 01760",
        "lat": "42.282236",
        "long": "-71.384638"
    },
    "98 HARTFORD ST": {
        "coder": "census",
        "log_location": "98 HARTFORD ST",
        "normalized_location": "98 HARTFORD ST, NATICK, MA, 01760",
        "lat": "42.292163",
        "long": "-71.388557"
    },
    "[NAT 2819] MINADO RESTAURANT - 1290 WORCESTER ST": {
        "coder": "census",
        "log_location": "1290 WORCESTER ST",
        "normalized_location": "1290 WORCESTER ST, NATICK, MA, 01760",
        "lat": "42.298924",
        "long": "-71.387206"
    },
    "[NAT 2411] NATICK MALL (SOUTH PARKING LOT) - 1245 WORCESTER ST": {
        "coder": "census",
        "log_location": "1245 WORCESTER ST",
        "normalized_location": "1245 WORCESTER ST, NATICK, MA, 01760",
        "lat": "42.299500",
        "long": "-71.377749"
    },
    "145 MILL ST": {
        "coder": "census",
        "log_location": "145 MILL ST",
        "normalized_location": "145 MILL ST, NATICK, MA, 01760",
        "lat": "42.287571",
        "long": "-71.382764"
    },
    "977 WORCESTER ST": {
        "coder": "census",
        "log_location": "977 WORCESTER ST",
        "normalized_location": "977 WORCESTER ST, NATICK, MA, 01760",
        "lat": "42.299675",
        "long": "-71.363445"
    },
    "[NAT 1892] CRATE AND BARREL HOME - 1245 WORCESTER ST Apt. #1086": {
        "coder": "census",
        "log_location": "1245 WORCESTER ST",
        "normalized_location": "1245 WORCESTER ST, NATICK, MA, 01760",
        "lat": "42.299500",
        "long": "-71.377749"
    },
    "[NAT 920] NATICK MALL (MALL I) - 1245 WORCESTER ST": {
        "coder": "census",
        "log_location": "1245 WORCESTER ST",
        "normalized_location": "1245 WORCESTER ST, NATICK, MA, 01760",
        "lat": "42.299500",
        "long": "-71.377749"
    },
    "[NAT 1551] NATICK VFW POST 1724 - 113 WEST CENTRAL ST": {
        "coder": "census",
        "log_location": "113 WEST CENTRAL ST",
        "normalized_location": "113 W CENTRAL ST, NATICK, MA, 01760",
        "lat": "42.283857",
        "long": "-71.367763"
    },
    "[NAT 1476] MBTA WEST NATICK STATION - 251 WEST CENTRAL ST": {
        "coder": "census",
        "log_location": "251 WEST CENTRAL ST",
        "normalized_location": "251 W CENTRAL ST, NATICK, MA, 01760",
        "lat": "42.281827",
        "long": "-71.392458"
    },
    "[NAT 314] 281 WEST CENTRAL ST": {
        "coder": "census",
        "log_location": "281 WEST CENTRAL ST",
        "normalized_location": "281 W CENTRAL ST, NATICK, MA, 01760",
        "lat": "42.281797",
        "long": "-71.393095"
    },
    "124 HARTFORD ST ": {
        "coder": "census",
        "log_location": "124 HARTFORD ST",
        "normalized_location": "124 HARTFORD ST, NATICK, MA, 01760",
        "lat": "42.291619",
        "long": "-71.390154"
    },
    "177 UNION ST": {
        "coder": "census",
        "log_location": "177 UNION ST",
        "normalized_location": "177 UNION ST, NATICK, MA, 01760",
        "lat": "42.275137",
        "long": "-71.320077"
    },
    "27 BRADFORD RD": {
        "coder": "census",
        "log_location": "27 BRADFORD RD",
        "normalized_location": "27 BRADFORD RD, NATICK, MA, 01760",
        "lat": "42.310603",
        "long": "-71.349983"
    },
    "190 MILL ST": {
        "coder": "census",
        "log_location": "190 MILL ST",
        "normalized_location": "190 MILL ST, NATICK, MA, 01760",
        "lat": "42.291120",
        "long": "-71.388084"
    },
    "18 PLEASANT ST": {
        "coder": "census",
        "log_location": "18 PLEASANT ST",
        "normalized_location": "18 PLEASANT ST, NATICK, MA, 01760",
        "lat": "42.298414",
        "long": "-71.356993"
    },
    "59 PINE ST": {
        "coder": "census",
        "log_location": "59 PINE ST",
        "normalized_location": "59 PINE ST, NATICK, MA, 01760",
        "lat": "42.314895",
        "long": "-71.353058"
    },
    "[NAT 182] 3 RICHARD RD - 3 RICHARD RD": {
        "coder": "census",
        "log_location": "3 RICHARD RD",
        "normalized_location": "3 RICHARDS RD, NATICK, MA, 01760",
        "lat": "42.307621",
        "long": "-71.349633"
    },
    "[NAT 403] THE CONTAINER STORE - 1265 WORCESTER ST": {
        "coder": "census",
        "log_location": "1265 WORCESTER ST",
        "normalized_location": "1265 WORCESTER ST, NATICK, MA, 01760",
        "lat": "42.299514",
        "long": "-71.378211"
    },
    "313 SPEEN ST": {
        "coder": "census",
        "log_location": "313 SPEEN ST",
        "normalized_location": "313 SPEEN ST, NATICK, MA, 01760",
        "lat": "42.300998",
        "long": "-71.379934"
    },
    "1 NOKOMIS WAY": {
        "coder": "census",
        "log_location": "1 NOKOMIS WAY",
        "normalized_location": "1 NOKOMIS WAY, NATICK, MA, 01760",
        "lat": "42.276694",
        "long": "-71.330653"
    },
    "2 FRANCIS AVE": {
        "coder": "census",
        "log_location": "2 FRANCIS AVE",
        "normalized_location": "2 FRANCIS AVE, NATICK, MA, 01760",
        "lat": "42.292670",
        "long": "-71.376532"
    },
    "[NAT 2009] A.J. ROSE CARPET & FLOORING - 599 WORCESTER ST": {
        "coder": "census",
        "log_location": "599 WORCESTER ST",
        "normalized_location": "599 WORCESTER ST, WELLESLEY HILLS, MA, 02481",
        "lat": "42.308407",
        "long": "-71.286228"
    },
    "[NAT 4142] SHERWOOD PLAZA (EAST) - 1288 WORCESTER ST": {
        "coder": "census",
        "log_location": "1288 WORCESTER ST",
        "normalized_location": "1288 WORCESTER ST, NATICK, MA, 01760",
        "lat": "42.298925",
        "long": "-71.387202"
    },
    "891 WORCESTER ST": {
        "coder": "census",
        "log_location": "891 WORCESTER ST",
        "normalized_location": "891 WORCESTER ST, WELLESLEY, MA, 02482",
        "lat": "42.305265",
        "long": "-71.315556"
    },
    "570 WORCESTER ST": {
        "coder": "census",
        "log_location": "570 WORCESTER ST",
        "normalized_location": "570 WORCESTER ST, NATICK, MA, 01760",
        "lat": "42.301287",
        "long": "-71.346920"
    },
    "[NAT 2983] SUBWAY ( EAST NATICK ) - 189 WORCESTER ST": {
        "coder": "census",
        "log_location": "189 WORCESTER ST",
        "normalized_location": "189 WORCESTER ST, NATICK, MA, 01760",
        "lat": "42.303249",
        "long": "-71.333719"
    },
    "[NAT 3645] PGA TOUR SUPERSTORE - 1398 WORCESTER ST": {
        "coder": "census",
        "log_location": "1398 WORCESTER ST",
        "normalized_location": "1398 WORCESTER ST, NATICK, MA, 01760",
        "lat": "42.298767",
        "long": "-71.391559"
    },
    "241 OAK ST": {
        "coder": "census",
        "log_location": "241 OAK ST",
        "normalized_location": "241 OAK ST, NATICK, MA, 01760",
        "lat": "42.316666",
        "long": "-71.340908"
    },
    "12 LINCOLN SOUTH ST": {
        "coder": "census",
        "log_location": "12 LINCOLN SOUTH ST",
        "normalized_location": "12 LINCOLN ST S, NATICK, MA, 01760",
        "lat": "42.274318",
        "long": "-71.312360"
    },
    "[NAT 1066] DUNKIN DONUTS - 249 NORTH MAIN ST": {
        "coder": "census",
        "log_location": "249 NORTH MAIN ST",
        "normalized_location": "249 N MAIN ST, NATICK, MA, 01760",
        "lat": "42.307208",
        "long": "-71.361708"
    },
    "23 PHILLIPS POND RD": {
        "coder": "census",
        "log_location": "23 PHILLIPS POND RD",
        "normalized_location": "23 PHILLIPS POND RD, NATICK, MA, 01760",
        "lat": "42.258785",
        "long": "-71.317211"
    },
    "1 PHILLIPS POND RD ": {
        "coder": "census",
        "log_location": "1 PHILLIPS POND RD",
        "normalized_location": "1 PHILLIPS POND RD, NATICK, MA, 01760",
        "lat": "42.260607",
        "long": "-71.318651"
    },
    "[NAT 860] PIERCE COLLISION - 135 WEST CENTRAL ST": {
        "coder": "census",
        "log_location": "135 WEST CENTRAL ST",
        "normalized_location": "135 W CENTRAL ST, NATICK, MA, 01760",
        "lat": "42.283208",
        "long": "-71.371980"
    },
    "3 GLEN ST ": {
        "coder": "census",
        "log_location": "3 GLEN ST",
        "normalized_location": "3 GLEN ST, NATICK, MA, 01760",
        "lat": "42.269460",
        "long": "-71.314041"
    },
    "37 CURVE ST": {
        "coder": "census",
        "log_location": "37 CURVE ST",
        "normalized_location": "37 CURVE ST, NATICK, MA, 01760",
        "lat": "42.276771",
        "long": "-71.355528"
    },
    "[NAT 2688] COURTYARD BY MARRIOTT - 342 SPEEN ST Apt. #521": {
        "coder": "census",
        "log_location": "342 SPEEN ST",
        "normalized_location": "342 SPEEN ST, NATICK, MA, 01760",
        "lat": "42.300749",
        "long": "-71.379948"
    },
    "21 VILLAGE ROCK LN": {
        "coder": "census",
        "log_location": "21 VILLAGE ROCK LN",
        "normalized_location": "21 VILLAGE ROCK LN, NATICK, MA, 01760",
        "lat": "42.278482",
        "long": "-71.394655"
    },
    "3 LAKEVIEW GARDENS Apt. #403": {
        "coder": "census",
        "log_location": "3 LAKEVIEW GARDENS Apt",
        "normalized_location": "3 LAKEVIEW AVE, NATICK, MA, 01760",
        "lat": "42.277642",
        "long": "-71.370215"
    },
    "3 HARDWICK RD": {
        "coder": "census",
        "log_location": "3 HARDWICK RD",
        "normalized_location": "3 HARDWICK RD, NATICK, MA, 01760",
        "lat": "42.293986",
        "long": "-71.392453"
    },
    "24 WILSON ST ": {
        "coder": "census",
        "log_location": "24 WILSON ST",
        "normalized_location": "24 WILSON ST, NATICK, MA, 01760",
        "lat": "42.284064",
        "long": "-71.342775"
    },
    "34 WALNUT ST": {
        "coder": "census",
        "log_location": "34 WALNUT ST",
        "normalized_location": "34 WALNUT ST, NATICK, MA, 01760",
        "lat": "42.287894",
        "long": "-71.348012"
    },
    "[NAT 4444] 76 MARION ST - 76 MARION ST Apt. #ST": {
        "coder": "census",
        "log_location": "76 MARION ST",
        "normalized_location": "76 MARION ST, NATICK, MA, 01760",
        "lat": "42.291557",
        "long": "-71.337800"
    },
    "[NAT 2420] GUITAR CENTER - 321 SPEEN ST": {
        "coder": "census",
        "log_location": "321 SPEEN ST",
        "normalized_location": "321 SPEEN ST, NATICK, MA, 01760",
        "lat": "42.301013",
        "long": "-71.379943"
    },
    "62 POND ST": {
        "coder": "census",
        "log_location": "62 POND ST",
        "normalized_location": "62 POND ST, NATICK, MA, 01760",
        "lat": "42.281628",
        "long": "-71.352217"
    },
    "74 CEDAR AVE Apt. #D": {
        "coder": "census",
        "log_location": "74 CEDAR AVE",
        "normalized_location": "74 CEDAR AVE, NATICK, MA, 01760",
        "lat": "42.274988",
        "long": "-71.356374"
    },
    "[NAT 2222] SALON 4 - 15 WATSON ST": {
        "coder": "census",
        "log_location": "15 WATSON ST",
        "normalized_location": "15 WATSON ST, NATICK, MA, 01760",
        "lat": "42.282307",
        "long": "-71.377754"
    },
    "135 WEST CENTRAL ST": {
        "coder": "census",
        "log_location": "135 WEST CENTRAL ST",
        "normalized_location": "135 W CENTRAL ST, NATICK, MA, 01760",
        "lat": "42.283208",
        "long": "-71.371980"
    },
    "[NAT 3983] UNIQLO - 1245 WORCESTER ST Apt. #3084": {
        "coder": "census",
        "log_location": "1245 WORCESTER ST",
        "normalized_location": "1245 WORCESTER ST, NATICK, MA, 01760",
        "lat": "42.299500",
        "long": "-71.377749"
    },
    "19 VILLAGE HILL LN Apt. #8": {
        "coder": "census",
        "log_location": "19 VILLAGE HILL LN Apt",
        "normalized_location": "19 VILLAGE HILL LN, NATICK, MA, 01760",
        "lat": "42.275982",
        "long": "-71.394349"
    },
    "46 BEACON ST": {
        "coder": "census",
        "log_location": "46 BEACON ST",
        "normalized_location": "46 BEACON ST, NATICK, MA, 01760",
        "lat": "42.295574",
        "long": "-71.353406"
    },
    "[NAT 764] NATICK GAS & SERVICE - 225 NORTH MAIN ST": {
        "coder": "census",
        "log_location": "225 NORTH MAIN ST",
        "normalized_location": "225 N MAIN ST, NATICK, MA, 01760",
        "lat": "42.303141",
        "long": "-71.361279"
    },
    "5 RANGER RD": {
        "coder": "census",
        "log_location": "5 RANGER RD",
        "normalized_location": "5 RANGER RD, NATICK, MA, 01760",
        "lat": "42.286934",
        "long": "-71.390378"
    },
    "16 PURINGTON AVE": {
        "coder": "census",
        "log_location": "16 PURINGTON AVE",
        "normalized_location": "16 PURINGTON AVE, NATICK, MA, 01760",
        "lat": "42.294874",
        "long": "-71.374325"
    },
    "164 WEST CENTRAL ST": {
        "coder": "census",
        "log_location": "164 WEST CENTRAL ST",
        "normalized_location": "164 W CENTRAL ST, NATICK, MA, 01760",
        "lat": "42.282470",
        "long": "-71.379061"
    },
    "20 OXFORD ST": {
        "coder": "census",
        "log_location": "20 OXFORD ST",
        "normalized_location": "20 OXFORD ST, NATICK, MA, 01760",
        "lat": "42.307286",
        "long": "-71.330867"
    },
    "5 COMMONWEALTH WEST RD": {
        "coder": "census",
        "log_location": "5 COMMONWEALTH WEST RD",
        "normalized_location": "5 COMMONWEALTH RD, NATICK, MA, 01760",
        "lat": "42.308705",
        "long": "-71.382072"
    },
    "[NAT 4165] ADVANCE AUTO PARTS - 219 NORTH MAIN ST": {
        "coder": "census",
        "log_location": "219 NORTH MAIN ST",
        "normalized_location": "219 N MAIN ST, NATICK, MA, 01760",
        "lat": "42.303076",
        "long": "-71.361265"
    },
    "86 NORTH MAIN ST": {
        "coder": "census",
        "log_location": "86 NORTH MAIN ST",
        "normalized_location": "86 N MAIN ST, NATICK, MA, 01760",
        "lat": "42.290427",
        "long": "-71.354797"
    },
    "[NAT 2371] SHERWOOD PLAZA (EAST) - 1298 WORCESTER ST": {
        "coder": "census",
        "log_location": "1298 WORCESTER ST",
        "normalized_location": "1298 WORCESTER ST, NATICK, MA, 01760",
        "lat": "42.298923",
        "long": "-71.387223"
    },
    "114 GLEN ST ": {
        "coder": "census",
        "log_location": "114 GLEN ST",
        "normalized_location": "114 GLEN ST, NATICK, MA, 01760",
        "lat": "42.257751",
        "long": "-71.315576"
    },
    "1364 WORCESTER ST": {
        "coder": "census",
        "log_location": "1364 WORCESTER ST",
        "normalized_location": "1364 WORCESTER ST, NATICK, MA, 01760",
        "lat": "42.298770",
        "long": "-71.391463"
    },
    "[NAT 3222] CHEESECAKE FACTORY - 1245 WORCESTER ST Apt. #1098": {
        "coder": "census",
        "log_location": "1245 WORCESTER ST",
        "normalized_location": "1245 WORCESTER ST, NATICK, MA, 01760",
        "lat": "42.299500",
        "long": "-71.377749"
    },
    "72 SPEEN ST": {
        "coder": "census",
        "log_location": "72 SPEEN ST",
        "normalized_location": "72 SPEEN ST, NATICK, MA, 01760",
        "lat": "42.277044",
        "long": "-71.376862"
    },
    "[NAT 3616] AVALON NATICK - CLUBHOUSE - 3 CHRYSLER RD": {
        "coder": "census",
        "log_location": "3 CHRYSLER RD",
        "normalized_location": "3 CHRYSLER RD, NATICK, MA, 01760",
        "lat": "42.305152",
        "long": "-71.381969"
    },
    "225 OAK ST ": {
        "coder": "census",
        "log_location": "225 OAK ST",
        "normalized_location": "225 OAK ST, NATICK, MA, 01760",
        "lat": "42.315369",
        "long": "-71.340069"
    },
    "[NAT 2688] COURTYARD BY MARRIOTT - 342 SPEEN ST": {
        "coder": "census",
        "log_location": "342 SPEEN ST",
        "normalized_location": "342 SPEEN ST, NATICK, MA, 01760",
        "lat": "42.300749",
        "long": "-71.379948"
    },
    "14 SOUTH AVE ": {
        "coder": "census",
        "log_location": "14 SOUTH AVE",
        "normalized_location": "14 SOUTH AVE, NATICK, MA, 01760",
        "lat": "42.285567",
        "long": "-71.345200"
    },
    "[NAT 3298] NATICK FIREPLACE - 671 WORCESTER ST": {
        "coder": "census",
        "log_location": "671 WORCESTER ST",
        "normalized_location": "671 WORCESTER ST, WELLESLEY HILLS, MA, 02481",
        "lat": "42.306450",
        "long": "-71.295256"
    },
    "55 FISHER ST": {
        "coder": "census",
        "log_location": "55 FISHER ST",
        "normalized_location": "55 FISHER ST, NATICK, MA, 01760",
        "lat": "42.293679",
        "long": "-71.366168"
    },
    "24 TERRANE AVE ": {
        "coder": "census",
        "log_location": "24 TERRANE AVE",
        "normalized_location": "24 TERRANE AVE, NATICK, MA, 01760",
        "lat": "42.305349",
        "long": "-71.353970"
    },
    "[NAT 1238] PUMPING STATION - 1080 WORCESTER ST": {
        "coder": "census",
        "log_location": "1080 WORCESTER ST",
        "normalized_location": "1080 WORCESTER ST, NATICK, MA, 01760",
        "lat": "42.298426",
        "long": "-71.370126"
    },
    "[NAT 1202] MAHAN FIELD - 90 WEST ST": {
        "coder": "census",
        "log_location": "90 WEST ST",
        "normalized_location": "90 WEST ST, NATICK, MA, 01760",
        "lat": "42.268943",
        "long": "-71.359823"
    },
    "74 SUMMER ST": {
        "coder": "census",
        "log_location": "74 SUMMER ST",
        "normalized_location": "74 SUMMER ST, NATICK, MA, 01760",
        "lat": "42.284043",
        "long": "-71.350984"
    },
    "[NAT 395] 313 SPEEN OFFICE BLDG - 313 SPEEN ST": {
        "coder": "census",
        "log_location": "313 SPEEN ST",
        "normalized_location": "313 SPEEN ST, NATICK, MA, 01760",
        "lat": "42.300998",
        "long": "-71.379934"
    },
    "[NAT 2972] 32 PLEASANT SOUTH ST - 32 PLEASANT ST": {
        "coder": "census",
        "log_location": "32 PLEASANT SOUTH ST",
        "normalized_location": "32 PLEASANT ST S, NATICK, MA, 01760",
        "lat": "42.268889",
        "long": "-71.312789"
    },
    "274 ELIOT ST": {
        "coder": "census",
        "log_location": "274 ELIOT ST",
        "normalized_location": "274 ELIOT ST, NATICK, MA, 01760",
        "lat": "42.257521",
        "long": "-71.337138"
    },
    "[NAT 124] 116 ELIOT ST - 116 ELIOT ST": {
        "coder": "census",
        "log_location": "116 ELIOT ST",
        "normalized_location": "116 ELIOT ST, NATICK, MA, 01760",
        "lat": "42.268650",
        "long": "-71.320060"
    },
    "[NAT 1550] JOHN EVERETT AND SONS FUNERAL HOME - 4 PARK ST": {
        "coder": "census",
        "log_location": "4 PARK ST",
        "normalized_location": "4 PARK ST, NATICK, MA, 01760",
        "lat": "42.283897",
        "long": "-71.346185"
    },
    "[NAT 3817] BOSTONWEST VETERINARY EMERGENCY & SPECIALTY - 5 STRATHMORE RD": {
        "coder": "census",
        "log_location": "5 STRATHMORE RD",
        "normalized_location": "5 STRATHMORE RD, NATICK, MA, 01760",
        "lat": "42.296412",
        "long": "-71.389945"
    },
    "106 CEDAR AVE Apt. #C": {
        "coder": "census",
        "log_location": "106 CEDAR AVE",
        "normalized_location": "106 CEDAR AVE, NATICK, MA, 01760",
        "lat": "42.275119",
        "long": "-71.356587"
    },
    "13 SOUTH AVE": {
        "coder": "census",
        "log_location": "13 SOUTH AVE",
        "normalized_location": "13 SOUTH AVE, NATICK, MA, 01760",
        "lat": "42.285318",
        "long": "-71.346359"
    },
    "52 PILGRIM RD": {
        "coder": "census",
        "log_location": "52 PILGRIM RD",
        "normalized_location": "52 PILGRIM RD, NATICK, MA, 01760",
        "lat": "42.287208",
        "long": "-71.388975"
    },
    "[NAT 2876] SEPHORA - 1245 WORCESTER ST Apt. #2164": {
        "coder": "census",
        "log_location": "1245 WORCESTER ST",
        "normalized_location": "1245 WORCESTER ST, NATICK, MA, 01760",
        "lat": "42.299500",
        "long": "-71.377749"
    },
    "[NAT 4036] RICE THEORY - 381 WORCESTER ST": {
        "coder": "census",
        "log_location": "381 WORCESTER ST",
        "normalized_location": "381 WORCESTER ST, WELLESLEY HILLS, MA, 02481",
        "lat": "42.314702",
        "long": "-71.268652"
    },
    "[NAT 2223] LAUNDRY LOFT - 19 WATSON ST": {
        "coder": "census",
        "log_location": "19 WATSON ST",
        "normalized_location": "19 WATSON ST, NATICK, MA, 01760",
        "lat": "42.282253",
        "long": "-71.377759"
    },
    "294 WEST CENTRAL ST": {
        "coder": "census",
        "log_location": "294 WEST CENTRAL ST",
        "normalized_location": "294 W CENTRAL ST, NATICK, MA, 01760",
        "lat": "42.281195",
        "long": "-71.396348"
    },
    "[NAT 4174] BUTTERCUP - 13 WEST CENTRAL ST": {
        "coder": "census",
        "log_location": "13 WEST CENTRAL ST",
        "normalized_location": "13 W CENTRAL ST, NATICK, MA, 01760",
        "lat": "42.283720",
        "long": "-71.348352"
    },
    "[NAT 2066] NATICK CLEANERS - 13 WATSON ST": {
        "coder": "census",
        "log_location": "13 WATSON ST",
        "normalized_location": "13 WATSON ST, NATICK, MA, 01760",
        "lat": "42.282334",
        "long": "-71.377752"
    },
    "[NAT 868] WALGREEN DRUG STORE - 148 WEST CENTRAL ST": {
        "coder": "census",
        "log_location": "148 WEST CENTRAL ST",
        "normalized_location": "148 W CENTRAL ST, NATICK, MA, 01760",
        "lat": "42.282485",
        "long": "-71.378093"
    },
    "[NAT 3404] AVALON NATICK APARTMENTS - 1 CHRYSLER RD Apt. #702": {
        "coder": "census",
        "log_location": "1 CHRYSLER RD",
        "normalized_location": "1 CHRYSLER RD, NATICK, MA, 01760",
        "lat": "42.305133",
        "long": "-71.382036"
    },
    "[NAT 596] 4 WELLESLEY RD": {
        "coder": "census",
        "log_location": "4 WELLESLEY RD",
        "normalized_location": "4 WELLESLEY RD, NATICK, MA, 01760",
        "lat": "42.304037",
        "long": "-71.331307"
    },
    "108 CEDAR AVE": {
        "coder": "census",
        "log_location": "108 CEDAR AVE",
        "normalized_location": "108 CEDAR AVE, NATICK, MA, 01760",
        "lat": "42.274638",
        "long": "-71.356382"
    },
    "5 NORTHWOOD LN": {
        "coder": "census",
        "log_location": "5 NORTHWOOD LN",
        "normalized_location": "5 NORTHWOOD LN, WAYLAND, MA, 01778",
        "lat": "42.331829",
        "long": "-71.331184"
    },
    "[NAT 2418] UNIVERSITY OFFICE BUILD. ASSOC - 190 NORTH MAIN ST": {
        "coder": "census",
        "log_location": "190 NORTH MAIN ST",
        "normalized_location": "190 N MAIN ST, NATICK, MA, 01760",
        "lat": "42.298626",
        "long": "-71.359458"
    },
    "[NAT 4335] CHASE ATM - 219 NORTH MAIN ST": {
        "coder": "census",
        "log_location": "219 NORTH MAIN ST",
        "normalized_location": "219 N MAIN ST, NATICK, MA, 01760",
        "lat": "42.303076",
        "long": "-71.361265"
    },
    "[NAT 4011] DUNKIN DONUTS - 119 WEST CENTRAL ST Apt. #1-A": {
        "coder": "census",
        "log_location": "119 WEST CENTRAL ST",
        "normalized_location": "119 W CENTRAL ST, NATICK, MA, 01760",
        "lat": "42.283715",
        "long": "-71.368930"
    },
    "[NAT 3780] 77 KIDS - 1245 WORCESTER ST Apt. #2084": {
        "coder": "census",
        "log_location": "1245 WORCESTER ST",
        "normalized_location": "1245 WORCESTER ST, NATICK, MA, 01760",
        "lat": "42.299500",
        "long": "-71.377749"
    },
    "[NAT 937] OGA'S JAPANESE CUISINE - 915 WORCESTER ST": {
        "coder": "census",
        "log_location": "915 WORCESTER ST",
        "normalized_location": "915 WORCESTER ST, NATICK, MA, 01760",
        "lat": "42.299876",
        "long": "-71.361849"
    },
    "[NAT 3576] 10 DURANT RD - 10 DURANT RD Apt. #A": {
        "coder": "census",
        "log_location": "10 DURANT RD",
        "normalized_location": "10 DURANT RD, NATICK, MA, 01760",
        "lat": "42.274940",
        "long": "-71.360645"
    },
    "[NAT 372] MIDDLESEX SAVINGS BANK ( MAIN OFFICE) - 6 MAIN ST": {
        "coder": "census",
        "log_location": "6 MAIN ST",
        "normalized_location": "6 MAIN ST, NATICK, MA, 01760",
        "lat": "42.284035",
        "long": "-71.347246"
    },
    "[NAT 602] SHERWOOD VILLAGE WEST - 145 MILL ST": {
        "coder": "census",
        "log_location": "145 MILL ST",
        "normalized_location": "145 MILL ST, NATICK, MA, 01760",
        "lat": "42.287571",
        "long": "-71.382764"
    },
    "12 LARKSPUR WAY Apt. #5": {
        "coder": "census",
        "log_location": "12 LARKSPUR WAY",
        "normalized_location": "12 LARKSPUR WAY, NATICK, MA, 01760",
        "lat": "42.278309",
        "long": "-71.390350"
    },
    "[NAT 3824] SALON CENTRIC - 1400 WORCESTER ST": {
        "coder": "census",
        "log_location": "1400 WORCESTER ST",
        "normalized_location": "1400 WORCESTER ST, NATICK, MA, 01760",
        "lat": "42.298767",
        "long": "-71.391565"
    },
    "59 LINCOLN STREET EXT": {
        "coder": "census",
        "log_location": "59 LINCOLN ST",
        "normalized_location": "59 LINCOLN ST, NATICK, MA, 01760",
        "lat": "42.283066",
        "long": "-71.343792"
    },
    "188 COTTAGE ST ": {
        "coder": "census",
        "log_location": "188 COTTAGE ST",
        "normalized_location": "188 COTTAGE ST, NATICK, MA, 01760",
        "lat": "42.259679",
        "long": "-71.342297"
    },
    "24 CIRCULAR AVE": {
        "coder": "census",
        "log_location": "24 CIRCULAR AVE",
        "normalized_location": "24 CIRCULAR AVE, NATICK, MA, 01760",
        "lat": "42.277293",
        "long": "-71.347561"
    },
    "71 WASHINGTON ST": {
        "coder": "census",
        "log_location": "71 WASHINGTON ST",
        "normalized_location": "71 WASHINGTON ST, NATICK, MA, 01760",
        "lat": "42.288149",
        "long": "-71.347020"
    },
    "[NAT 1539] JO- ANN FABRICS - 244 WORCESTER ST": {
        "coder": "census",
        "log_location": "244 WORCESTER ST",
        "normalized_location": "244 WORCESTER ST, NATICK, MA, 01760",
        "lat": "42.302220",
        "long": "-71.337927"
    },
    "[NAT 2327] 71 SPEEN ST - 71 SPEEN ST": {
        "coder": "census",
        "log_location": "71 SPEEN ST",
        "normalized_location": "71 SPEEN ST, NATICK, MA, 01760",
        "lat": "42.276791",
        "long": "-71.376836"
    },
    "33 COTTAGE ST ": {
        "coder": "census",
        "log_location": "33 COTTAGE ST",
        "normalized_location": "33 COTTAGE ST, NATICK, MA, 01760",
        "lat": "42.277576",
        "long": "-71.346755"
    },
    "1 WEST ST": {
        "coder": "census",
        "log_location": "1 WEST ST",
        "normalized_location": "1 WEST ST, NATICK, MA, 01760",
        "lat": "42.277584",
        "long": "-71.357376"
    },
    "[NAT 1511] MONTICELLO MOTEL - 1446 WORCESTER ST Apt. #127": {
        "coder": "census",
        "log_location": "1446 WORCESTER ST",
        "normalized_location": "1446 WORCESTER ST, NATICK, MA, 01760",
        "lat": "42.298763",
        "long": "-71.391695"
    },
    "5 CROWS - 41 MAIN ST": {
        "coder": "census",
        "log_location": "41 MAIN ST",
        "normalized_location": "41 MAIN ST, NATICK, MA, 01760",
        "lat": "42.285298",
        "long": "-71.347741"
    },
    "265 BACON ST ": {
        "coder": "census",
        "log_location": "265 BACON ST",
        "normalized_location": "265 BACON ST, NATICK, MA, 01760",
        "lat": "42.297486",
        "long": "-71.359073"
    },