{
    "7 THOREAU CT": {
        "coder": "census",
        "normalized_address": "7 THOREAU CT, NATICK, MA, 01760",
        "lat": "42.274903",
        "long": "-71.389779"
    },
    "[NAT 2893] DICK'S SPORTING GOODS - 1336 WORCESTER ST": {
        "coder": "census",
        "normalized_address": "1336 WORCESTER ST, NATICK, MA, 01760",
        "lat": "42.298917",
        "long": "-71.387301"
    },
    "144 WORCESTER ST ": {
        "coder": "census",
        "normalized_address": "144 WORCESTER ST, NATICK, MA, 01760",
        "lat": "42.303171",
        "long": "-71.333234"
    },
    "[NAT 2972] 32 PLEASANT SOUTH ST - 32 PLEASANT ST": {
        "coder": "census",
        "normalized_address": "32 PLEASANT ST S, NATICK, MA, 01760",
        "lat": "42.268889",
        "long": "-71.312789"
    },
    "61 SCHOOL STREET EXT Apt. #B": {
        "coder": "census",
        "normalized_address": "61 SCHOOL ST, NATICK, MA, 01760",
        "lat": "42.281853",
        "long": "-71.346362"
    },
    "11 BRADFORD RD": {
        "coder": "census",
        "normalized_address": "11 BRADFORD RD, NATICK, MA, 01760",
        "lat": "42.308592",
        "long": "-71.351279"
    },
    "[NAT 1063] METROWEST MEDICAL CENTER - LEONARD MORSE HOSP - 67 UNION ST": {
        "coder": "census",
        "normalized_address": "67 UNION ST, NATICK, MA, 01760",
        "lat": "42.280369",
        "long": "-71.332476"
    },
    "13 UNION ST ": {
        "coder": "census",
        "normalized_address": "13 UNION ST, NATICK, MA, 01760",
        "lat": "42.283962",
        "long": "-71.339369"
    },
    "59 HARTFORD ST": {
        "coder": "census",
        "normalized_address": "59 HARTFORD ST, NATICK, MA, 01760",
        "lat": "42.294686",
        "long": "-71.382400"
    },
    "190 NORTH MAIN ST": {
        "coder": "census",
        "normalized_address": "190 N MAIN ST, NATICK, MA, 01760",
        "lat": "42.298626",
        "long": "-71.359458"
    },
    "59 ELIOT HILL RD": {
        "coder": "census",
        "normalized_address": "59 ELIOT HILL RD, NATICK, MA, 01760",
        "lat": "42.259929",
        "long": "-71.337413"
    },
    "[NAT 1015] U- HAUL CO - 834 WORCESTER ST": {
        "coder": "census",
        "normalized_address": "834 WORCESTER ST, NATICK, MA, 01760",
        "lat": "42.300197",
        "long": "-71.356918"
    },
    "[NAT 3477] AUTO WHOLESALERS - 135 WEST CENTRAL ST": {
        "coder": "census",
        "normalized_address": "135 W CENTRAL ST, NATICK, MA, 01760",
        "lat": "42.283208",
        "long": "-71.371980"
    },
    "[NAT 4342] 310 SPEEN ST ": {
        "coder": "census",
        "normalized_address": "310 SPEEN ST, NATICK, MA, 01760",
        "lat": "42.299781",
        "long": "-71.379357"
    },
    "[NAT 2051] HOME DEPOT - 339 SPEEN ST": {
        "coder": "census",
        "normalized_address": "339 SPEEN ST, NATICK, MA, 01760",
        "lat": "42.301047",
        "long": "-71.379963"
    },
    "[NAT 3984] BRANDON SCHOOL HOUSE 4 - 27 WINTER ST": {
        "coder": "census",
        "normalized_address": "27 WINTER ST, WAYLAND, MA, 01778",
        "lat": "42.319975",
        "long": "-71.362971"
    },
    "310 SPEEN ST ": {
        "coder": "census",
        "normalized_address": "310 SPEEN ST, NATICK, MA, 01760",
        "lat": "42.299781",
        "long": "-71.379357"
    },
    "4 CHURCH ST Apt. #3": {
        "coder": "census",
        "normalized_address": "4 CHURCH ST, NATICK, MA, 01760",
        "lat": "42.283707",
        "long": "-71.345480"
    },
    "[NAT 3614] AVALON NATICK APARTMENTS - 5 CHRYSLER RD Apt. #113": {
        "coder": "census",
        "normalized_address": "5 CHRYSLER RD, NATICK, MA, 01760",
        "lat": "42.305171",
        "long": "-71.381901"
    },
    "65 ELIOT HILL RD": {
        "coder": "census",
        "normalized_address": "65 ELIOT HILL RD, NATICK, MA, 01760",
        "lat": "42.259623",
        "long": "-71.337419"
    },
    "[FRA] 600 CONCORD ST": {
        "coder": "census",
        "normalized_address": "600 CONCORD ST, FRAMINGHAM, MA, 01702",
        "lat": "42.292559",
        "long": "-71.409285"
    },
    "[NAT 4345] SEUFFERT RESIDENCE - 186 WOODLAND ST": {
        "coder": "census",
        "normalized_address": "186 WOODLAND ST, NATICK, MA, 01760",
        "lat": "42.276611",
        "long": "-71.325200"
    },
    "[NAT 1027] BRANDON SCHOOL - 27 WINTER ST": {
        "coder": "census",
        "normalized_address": "27 WINTER ST, WAYLAND, MA, 01778",
        "lat": "42.319975",
        "long": "-71.362971"
    },
    "[NAT 3614] AVALON NATICK APARTMENTS - 5 CHRYSLER RD Apt. #418": {
        "coder": "census",
        "normalized_address": "5 CHRYSLER RD, NATICK, MA, 01760",
        "lat": "42.305171",
        "long": "-71.381901"
    },
    "6 CRESCENT ST": {
        "coder": "census",
        "normalized_address": "6 CRESCENT ST, NATICK, MA, 01760",
        "lat": "42.288336",
        "long": "-71.375093"
    },
    "53 VILLAGE BROOK LN Apt. #1": {
        "coder": "census",
        "normalized_address": "53 VILLAGE BROOK LN, NATICK, MA, 01760",
        "lat": "42.277035",
        "long": "-71.392383"
    },
    "53 SCHOOL STREET EXT Apt. #2": {
        "coder": "census",
        "normalized_address": "53 SCHOOL ST, NATICK, MA, 01760",
        "lat": "42.281894",
        "long": "-71.346363"
    },
    "[NAT 4367] FIDO DOG PARK - 109 WEST CENTRAL ST": {
        "coder": "census",
        "normalized_address": "109 W CENTRAL ST, NATICK, MA, 01760",
        "lat": "42.283576",
        "long": "-71.366282"
    },
    "[NAT 3897] 154 WORCESTER ST": {
        "coder": "census",
        "normalized_address": "154 WORCESTER ST, NATICK, MA, 01760",
        "lat": "42.303158",
        "long": "-71.333285"
    },
    "172 CEDAR TER Apt. #A": {
        "coder": "census",
        "normalized_address": "172 CEDAR TER, NATICK, MA, 01760",
        "lat": "42.273448",
        "long": "-71.356991"
    },
    "48 NORTH AVE": {
        "coder": "census",
        "normalized_address": "48 NORTH AVE, NATICK, MA, 01760",
        "lat": "42.286282",
        "long": "-71.345716"
    },
    "8 WASHINGTON ST ": {
        "coder": "census",
        "normalized_address": "8 WASHINGTON ST, NATICK, MA, 01760",
        "lat": "42.284813",
        "long": "-71.346363"
    },
    "[NAT 4071] LOLLI AND POPS - 1245 WORCESTER ST Apt. #1046": {
        "coder": "census",
        "normalized_address": "1245 WORCESTER ST, NATICK, MA, 01760",
        "lat": "42.299500",
        "long": "-71.377749"
    },
    "259 BACON ST": {
        "coder": "census",
        "normalized_address": "259 BACON ST, NATICK, MA, 01760",
        "lat": "42.297379",
        "long": "-71.357870"
    },
    "[NAT 3843] NATICK HIGH SCHOOL - 15 WEST ST": {
        "coder": "census",
        "normalized_address": "15 WEST ST, NATICK, MA, 01760",
        "lat": "42.276971",
        "long": "-71.359319"
    },
    "242 SPEEN ST ": {
        "coder": "census",
        "normalized_address": "242 SPEEN ST, NATICK, MA, 01760",
        "lat": "42.294937",
        "long": "-71.376894"
    },
    "[NAT 954] THE VERVE HOTEL - 1360 WORCESTER ST": {
        "coder": "census",
        "normalized_address": "1360 WORCESTER ST, NATICK, MA, 01760",
        "lat": "42.298777",
        "long": "-71.391301"
    },
    "[NAT 220] SCRUB A DUB AUTO WASH OF NATICK - 172 WORCESTER ST": {
        "coder": "census",
        "normalized_address": "172 WORCESTER ST, NATICK, MA, 01760",
        "lat": "42.303126",
        "long": "-71.333385"
    },
    "3 INDIAN RIDGE WAY": {
        "coder": "census",
        "normalized_address": "3 INDIAN RIDGE WAY, NATICK, MA, 01760",
        "lat": "42.249529",
        "long": "-71.317750"
    },
    "80 WASHINGTON AVE": {
        "coder": "census",
        "normalized_address": "80 WASHINGTON AVE, NATICK, MA, 01760",
        "lat": "42.289223",
        "long": "-71.354872"
    },
    "12 WEST CENTRAL ST": {
        "coder": "census",
        "normalized_address": "12 W CENTRAL ST, NATICK, MA, 01760",
        "lat": "42.283565",
        "long": "-71.348659"
    },
    "[NAT 2068] WERUVA INTERNATIONAL INC - 17 MERCER RD": {
        "coder": "census",
        "normalized_address": "17 MERCER RD, NATICK, MA, 01760",
        "lat": "42.296692",
        "long": "-71.390825"
    },
    "53 MILL ST ": {
        "coder": "census",
        "normalized_address": "53 MILL ST, NATICK, MA, 01760",
        "lat": "42.281924",
        "long": "-71.380243"
    },
    "3 STILLWATER CIR": {
        "coder": "census",
        "normalized_address": "3 STILLWATER CIR, NATICK, MA, 01760",
        "lat": "42.292124",
        "long": "-71.333585"
    },
    "2 BLUESTONE WAY": {
        "coder": "census",
        "normalized_address": "2 BLUE STONE PATH, NATICK, MA, 01760",
        "lat": "42.267189",
        "long": "-71.346130"
    },
    "8 LACONIA RD": {
        "coder": "census",
        "normalized_address": "8 LACONIA RD, NATICK, MA, 01760",
        "lat": "42.301704",
        "long": "-71.327297"
    },
    "4 CHURCH ST": {
        "coder": "census",
        "normalized_address": "4 CHURCH ST, NATICK, MA, 01760",
        "lat": "42.283707",
        "long": "-71.345480"
    },
    "33 FOX HILL DR": {
        "coder": "census",
        "normalized_address": "33 FOX HILL DR, NATICK, MA, 01760",
        "lat": "42.315589",
        "long": "-71.328719"
    },
    "[NAT 2868] 9 BADGER AVE - 9 BADGER AVE": {
        "coder": "census",
        "normalized_address": "9 BADGER AVE, NATICK, MA, 01760",
        "lat": "42.270104",
        "long": "-71.317937"
    },
    "13 WASHINGTON AVE ": {
        "coder": "census",
        "normalized_address": "13 WASHINGTON AVE, NATICK, MA, 01760",
        "lat": "42.284617",
        "long": "-71.352607"
    },
    "HAIR CUTS LTD - 841 WORCESTER ST": {
        "coder": "census",
        "normalized_address": "841 WORCESTER ST, WELLESLEY HILLS, MA, 02481",
        "lat": "42.305605",
        "long": "-71.311290"
    },
    "[NAT 1497] 7 GREAT ROCK CIR - 7 GREAT ROCK CIR": {
        "coder": "census",
        "normalized_address": "7 GREAT ROCK CIR, NATICK, MA, 01760",
        "lat": "42.274458",
        "long": "-71.380545"
    },
    "[NAT 3857] EVERYTHING BUT WATER - 1245 WORCESTER ST Apt. #4019": {
        "coder": "census",
        "normalized_address": "1245 WORCESTER ST, NATICK, MA, 01760",
        "lat": "42.299500",
        "long": "-71.377749"
    },
    "9 SCHOOL ST ": {
        "coder": "census",
        "normalized_address": "9 SCHOOL ST, NATICK, MA, 01760",
        "lat": "42.282117",
        "long": "-71.346372"
    },
    " RT 27) - 891 WORCESTER ST": {
        "coder": "census",
        "normalized_address": "891 WORCESTER ST, WELLESLEY, MA, 02482",
        "lat": "42.305265",
        "long": "-71.315556"
    },
    "85 SOUTH MAIN ST": {
        "coder": "census",
        "normalized_address": "85 S MAIN ST, NATICK, MA, 01760",
        "lat": "42.279614",
        "long": "-71.348303"
    },
    "[NAT 311] NATICK WINE & SPIRITS - 7 WATSON ST": {
        "coder": "census",
        "normalized_address": "7 WATSON ST, NATICK, MA, 01760",
        "lat": "42.282415",
        "long": "-71.377744"
    },
    "395 WORCESTER ST": {
        "coder": "census",
        "normalized_address": "395 WORCESTER ST, WELLESLEY HILLS, MA, 02481",
        "lat": "42.314564",
        "long": "-71.269575"
    },
    "65 SCHOOL STREET EXT": {
        "coder": "census",
        "normalized_address": "65 SCHOOL ST, NATICK, MA, 01760",
        "lat": "42.281833",
        "long": "-71.346361"
    },
    "[NAT 1661] PEGAN COVE - 32 WASHINGTON AVE": {
        "coder": "census",
        "normalized_address": "32 WASHINGTON AVE, NATICK, MA, 01760",
        "lat": "42.285620",
        "long": "-71.353230"
    },
    "[NAT 3883] SKYBOKX - 319 SPEEN ST": {
        "coder": "census",
        "normalized_address": "319 SPEEN ST, NATICK, MA, 01760",
        "lat": "42.301009",
        "long": "-71.379941"
    },
    "313 SPEEN ST ": {
        "coder": "census",
        "normalized_address": "313 SPEEN ST, NATICK, MA, 01760",
        "lat": "42.300998",
        "long": "-71.379934"
    },
    "230 WORCESTER ST ": {
        "coder": "census",
        "normalized_address": "230 WORCESTER ST, NATICK, MA, 01760",
        "lat": "42.302531",
        "long": "-71.335773"
    },
    "2 WORCESTER ST ": {
        "coder": "census",
        "normalized_address": "2 WORCESTER ST, NATICK, MA, 01760",
        "lat": "42.304222",
        "long": "-71.326689"
    },
    "1245 WORCESTER ST": {
        "coder": "census",
        "normalized_address": "1245 WORCESTER ST, NATICK, MA, 01760",
        "lat": "42.299500",
        "long": "-71.377749"
    },
    "14 TECH CIR": {
        "coder": "census",
        "normalized_address": "14 TECH CIR, NATICK, MA, 01760",
        "lat": "42.313713",
        "long": "-71.337943"
    },
    "40 BENNETT ST": {
        "coder": "census",
        "normalized_address": "40 BENNETT ST, NATICK, MA, 01760",
        "lat": "42.275348",
        "long": "-71.354778"
    },
    "3 ROBINHOOD RD": {
        "coder": "census",
        "normalized_address": "3 ROBINHOOD RD, NATICK, MA, 01760",
        "lat": "42.297680",
        "long": "-71.376608"
    },
    "[NAT 986] ENTERPRISE RENT A CAR - 2 WETHERSFIELD RD": {
        "coder": "census",
        "normalized_address": "2 WETHERSFIELD RD, NATICK, MA, 01760",
        "lat": "42.302191",
        "long": "-71.352426"
    },
    "83 PARK AVE": {
        "coder": "census",
        "normalized_address": "83 PARK AVE, NATICK, MA, 01760",
        "lat": "42.299465",
        "long": "-71.355768"
    },
    "44 WALNUT ST": {
        "coder": "census",
        "normalized_address": "44 WALNUT ST, NATICK, MA, 01760",
        "lat": "42.288962",
        "long": "-71.348156"
    },
    "17 EUCLID AVE": {
        "coder": "census",
        "normalized_address": "17 EUCLID AVE, NATICK, MA, 01760",
        "lat": "42.307106",
        "long": "-71.337763"
    },
    "[NAT 3047] CAMP MARY BUNKER - 5 MEGONKO RD": {
        "coder": "census",
        "normalized_address": "5 MEGONKO RD, NATICK, MA, 01760",
        "lat": "42.302037",
        "long": "-71.361267"
    },
    "15 ELWIN RD": {
        "coder": "census",
        "normalized_address": "15 ELWIN RD, NATICK, MA, 01760",
        "lat": "42.288668",
        "long": "-71.395315"
    },
    "14 SCHOOL STREET EXT": {
        "coder": "census",
        "normalized_address": "14 SCHOOL ST, NATICK, MA, 01760",
        "lat": "42.282098",
        "long": "-71.346216"
    },
    "87 NORTH AVE": {
        "coder": "census",
        "normalized_address": "87 NORTH AVE, NATICK, MA, 01760",
        "lat": "42.286697",
        "long": "-71.342996"
    },
    "[NAT 957] LENSCRAFTERS - 1364 WORCESTER ST": {
        "coder": "census",
        "normalized_address": "1364 WORCESTER ST, NATICK, MA, 01760",
        "lat": "42.298770",
        "long": "-71.391463"
    },
    "[FRA] 1640 WORCESTER RD": {
        "coder": "census",
        "normalized_address": "1640 WORCESTER RD, FRAMINGHAM, MA, 01702",
        "lat": "42.295585",
        "long": "-71.470131"
    },
    "[NAT 1705] NATICK POLICE DEPARTMENT - 20 EAST CENTRAL ST": {
        "coder": "census",
        "normalized_address": "20 E CENTRAL ST, NATICK, MA, 01760",
        "lat": "42.284248",
        "long": "-71.345123"
    },
    "1245 WORCESTER ST ": {
        "coder": "census",
        "normalized_address": "1245 WORCESTER ST, NATICK, MA, 01760",
        "lat": "42.299500",
        "long": "-71.377749"
    },
    "[NAT 2876] SEPHORA - 1245 WORCESTER ST Apt. #2164": {
        "coder": "census",
        "normalized_address": "1245 WORCESTER ST, NATICK, MA, 01760",
        "lat": "42.299500",
        "long": "-71.377749"
    },
    "92 KENDALL LN ": {
        "coder": "census",
        "normalized_address": "92 KENDALL LN, NATICK, MA, 01760",
        "lat": "42.273356",
        "long": "-71.393491"
    },
    "177 UNION ST": {
        "coder": "census",
        "normalized_address": "177 UNION ST, NATICK, MA, 01760",
        "lat": "42.275137",
        "long": "-71.320077"
    },
    "15 VILLAGE ROCK LN Apt. #10": {
        "coder": "census",
        "normalized_address": "15 VILLAGE ROCK LN, NATICK, MA, 01760",
        "lat": "42.278513",
        "long": "-71.394541"
    },
    "15 WALDEN DR Apt. #11": {
        "coder": "census",
        "normalized_address": "15 WALDEN DR, NATICK, MA, 01760",
        "lat": "42.276767",
        "long": "-71.387344"
    },
    "3 MILFORD AVE": {
        "coder": "census",
        "normalized_address": "3 MILFORD AVE, NATICK, MA, 01760",
        "lat": "42.321005",
        "long": "-71.328266"
    },
    "[FRA] NATICK DISTRICT COURT - 600 CONCORD ST": {
        "coder": "census",
        "normalized_address": "600 CONCORD ST, FRAMINGHAM, MA, 01702",
        "lat": "42.292559",
        "long": "-71.409285"
    },
    "[NAT 3614] AVALON NATICK APARTMENTS - 5 CHRYSLER RD Apt. #119": {
        "coder": "census",
        "normalized_address": "5 CHRYSLER RD, NATICK, MA, 01760",
        "lat": "42.305171",
        "long": "-71.381901"
    },
    "10 CARVER HILL ST": {
        "coder": "census",
        "normalized_address": "10 CARVER HILL ST, NATICK, MA, 01760",
        "lat": "42.270675",
        "long": "-71.317153"
    },
    "5 TIBBETTS ST Apt. #R": {
        "coder": "census",
        "normalized_address": "5 TIBBETTS ST, NATICK, MA, 01760",
        "lat": "42.286884",
        "long": "-71.342916"
    },
    "265 BACON ST ": {
        "coder": "census",
        "normalized_address": "265 BACON ST, NATICK, MA, 01760",
        "lat": "42.297486",
        "long": "-71.359073"
    },
    "219 NORTH MAIN ST": {
        "coder": "census",
        "normalized_address": "219 N MAIN ST, NATICK, MA, 01760",
        "lat": "42.303076",
        "long": "-71.361265"
    },
    "23 FAIRVIEW AVE": {
        "coder": "census",
        "normalized_address": "23 FAIRVIEW AVE, NATICK, MA, 01760",
        "lat": "42.274539",
        "long": "-71.370312"
    },
    "171 WEST CENTRAL ST": {
        "coder": "census",
        "normalized_address": "171 W CENTRAL ST, NATICK, MA, 01760",
        "lat": "42.282570",
        "long": "-71.379871"
    },
    "120 POND ST ": {
        "coder": "census",
        "normalized_address": "120 POND ST, NATICK, MA, 01760",
        "lat": "42.279924",
        "long": "-71.359748"
    },
    "[NAT 3870] JUMP START - 1 H F BROWN WAY Apt. #4": {
        "coder": "census",
        "normalized_address": "1 H F BROWN WAY, NATICK, MA, 01760",
        "lat": "42.274989",
        "long": "-71.393367"
    },
    "[NAT 3238] P F CHANG'S CHINA BISTRO - 1245 WORCESTER ST Apt. #4008": {
        "coder": "census",
        "normalized_address": "1245 WORCESTER ST, NATICK, MA, 01760",
        "lat": "42.299500",
        "long": "-71.377749"
    },
    "264 NORTH MAIN ST": {
        "coder": "census",
        "normalized_address": "264 N MAIN ST, NATICK, MA, 01760",
        "lat": "42.307221",
        "long": "-71.361863"
    },
    "[FRA] 85 WORCESTER ST": {
        "coder": "census",
        "normalized_address": "85 WORCESTER ST, NATICK, MA, 01760",
        "lat": "42.304149",
        "long": "-71.329997"
    },
    "186 WOODLAND ST ": {
        "coder": "census",
        "normalized_address": "186 WOODLAND ST, NATICK, MA, 01760",
        "lat": "42.276611",
        "long": "-71.325200"
    },
    "[NAT 3614] AVALON NATICK APARTMENTS - 5 CHRYSLER RD": {
        "coder": "census",
        "normalized_address": "5 CHRYSLER RD, NATICK, MA, 01760",
        "lat": "42.305171",
        "long": "-71.381901"
    },
    "4 PLEASANT ST": {
        "coder": "census",
        "normalized_address": "4 PLEASANT ST, NATICK, MA, 01760",
        "lat": "42.298318",
        "long": "-71.358927"
    },
    "BELLA SISTERS SALON - 321 SPEEN ST": {
        "coder": "census",
        "normalized_address": "321 SPEEN ST, NATICK, MA, 01760",
        "lat": "42.301013",
        "long": "-71.379943"
    },
    "8 LAKEVIEW GARDENS": {
        "coder": "census",
        "normalized_address": "8 LAKEVIEW AVE, NATICK, MA, 01760",
        "lat": "42.275749",
        "long": "-71.369592"
    },
    "6 WESTFIELD RD": {
        "coder": "census",
        "normalized_address": "6 WESTFIELD RD, NATICK, MA, 01760",
        "lat": "42.284535",
        "long": "-71.381085"
    },
    "89 HARTFORD ST": {
        "coder": "census",
        "normalized_address": "89 HARTFORD ST, NATICK, MA, 01760",
        "lat": "42.293405",
        "long": "-71.385522"
    },
    "135 UNION ST ": {
        "coder": "census",
        "normalized_address": "135 UNION ST, NATICK, MA, 01760",
        "lat": "42.277395",
        "long": "-71.324784"
    },
    "[NAT 869] ROCHE BROS SUPERMARKET - 150 WEST CENTRAL ST": {
        "coder": "census",
        "normalized_address": "150 W CENTRAL ST, NATICK, MA, 01760",
        "lat": "42.282483",
        "long": "-71.378214"
    },
    "24 POINT ST": {
        "coder": "census",
        "normalized_address": "24 POINT ST, NATICK, MA, 01760",
        "lat": "42.278790",
        "long": "-71.371624"
    },
    "19 FOX HILL DR": {
        "coder": "census",
        "normalized_address": "19 FOX HILL DR, NATICK, MA, 01760",
        "lat": "42.314545",
        "long": "-71.327995"
    },
    "194 NORTH MAIN ST ": {
        "coder": "census",
        "normalized_address": "194 N MAIN ST, NATICK, MA, 01760",
        "lat": "42.298788",
        "long": "-71.359505"
    },
    "[NAT 2047] SPEEDWAY - 194 WEST CENTRAL ST": {
        "coder": "census",
        "normalized_address": "194 W CENTRAL ST, NATICK, MA, 01760",
        "lat": "42.282353",
        "long": "-71.382449"
    },
    "[NAT 3614] AVALON NATICK APARTMENTS - 5 CHRYSLER RD Apt. #310": {
        "coder": "census",
        "normalized_address": "5 CHRYSLER RD, NATICK, MA, 01760",
        "lat": "42.305171",
        "long": "-71.381901"
    },
    "85 NORTH MAIN ST": {
        "coder": "census",
        "normalized_address": "85 N MAIN ST, NATICK, MA, 01760",
        "lat": "42.290597",
        "long": "-71.353096"
    },
    "48 SILVER HILL LN Apt. #22": {
        "coder": "census",
        "normalized_address": "48 SILVER HILL LN, NATICK, MA, 01760",
        "lat": "42.277903",
        "long": "-71.384684"
    },
    "[NAT 3728] PLANET FITNESS - 215 WEST CENTRAL ST": {
        "coder": "census",
        "normalized_address": "215 W CENTRAL ST, NATICK, MA, 01760",
        "lat": "42.281997",
        "long": "-71.390006"
    },
    "132 CEDAR TER Apt. #C": {
        "coder": "census",
        "normalized_address": "132 CEDAR TER, NATICK, MA, 01760",
        "lat": "42.273766",
        "long": "-71.355613"
    },
    "[NAT 3404] AVALON NATICK APARTMENTS - 1 CHRYSLER RD Apt. #1108": {
        "coder": "census",
        "normalized_address": "1 CHRYSLER RD, NATICK, MA, 01760",
        "lat": "42.305133",
        "long": "-71.382036"
    },
    "84 CEDAR AVE": {
        "coder": "census",
        "normalized_address": "84 CEDAR AVE, NATICK, MA, 01760",
        "lat": "42.273956",
        "long": "-71.355868"
    },
    "[NAT 899] 3 WHITRIDGE RD - 3 WHITRIDGE RD": {
        "coder": "census",
        "normalized_address": "3 WHITRIDGE RD, NATICK, MA, 01760",
        "lat": "42.258285",
        "long": "-71.340431"
    },
    "[NAT 869] 106 SPEEN ST": {
        "coder": "census",
        "normalized_address": "106 SPEEN ST, NATICK, MA, 01760",
        "lat": "42.283873",
        "long": "-71.375448"
    },
    "[NAT 4500] EVERETT FUNERAL HOME - 4 PARK ST": {
        "coder": "census",
        "normalized_address": "4 PARK ST, NATICK, MA, 01760",
        "lat": "42.283897",
        "long": "-71.346185"
    },
    "147 NORTH MAIN ST": {
        "coder": "census",
        "normalized_address": "147 N MAIN ST, NATICK, MA, 01760",
        "lat": "42.294913",
        "long": "-71.358131"
    },
    "10 SHATTUCK ST": {
        "coder": "census",
        "normalized_address": "10 SHATTUCK ST, NATICK, MA, 01760",
        "lat": "42.289379",
        "long": "-71.347168"
    },
    "[NAT 4142] SHERWOOD PLAZA (EAST) - 1288 WORCESTER ST": {
        "coder": "census",
        "normalized_address": "1288 WORCESTER ST, NATICK, MA, 01760",
        "lat": "42.298925",
        "long": "-71.387202"
    },
    "126 NORTH MAIN ST": {
        "coder": "census",
        "normalized_address": "126 N MAIN ST, NATICK, MA, 01760",
        "lat": "42.293537",
        "long": "-71.357743"
    },
    "[NAT 135] BRIGHAM GILL MOTORCARS INC - 817 WORCESTER ST": {
        "coder": "census",
        "normalized_address": "817 WORCESTER ST, WELLESLEY HILLS, MA, 02481",
        "lat": "42.305644",
        "long": "-71.310768"
    },
    "[NAT 947] RW HOLMES REALTY - 1085 WORCESTER ST": {
        "coder": "census",
        "normalized_address": "1085 WORCESTER ST, NATICK, MA, 01760",
        "lat": "42.299327",
        "long": "-71.366223"
    },
    "124 EVERETT ST": {
        "coder": "census",
        "normalized_address": "124 EVERETT ST, NATICK, MA, 01760",
        "lat": "42.259527",
        "long": "-71.353425"
    },
    "577 WORCESTER ST ": {
        "coder": "census",
        "normalized_address": "577 WORCESTER ST, WELLESLEY HILLS, MA, 02481",
        "lat": "42.308786",
        "long": "-71.285260"
    },
    "[NAT 1021] LILJA SCHOOL - 41 BACON ST": {
        "coder": "census",
        "normalized_address": "41 BACON ST, NATICK, MA, 01760",
        "lat": "42.294630",
        "long": "-71.327616"
    },
    "[NAT 2101] NATICK MALL (PARKING DECK C) - 1249 WORCESTER ST": {
        "coder": "census",
        "normalized_address": "1249 WORCESTER ST, NATICK, MA, 01760",
        "lat": "42.299503",
        "long": "-71.377842"
    },
    "42 COTTAGE ST": {
        "coder": "census",
        "normalized_address": "42 COTTAGE ST, NATICK, MA, 01760",
        "lat": "42.276563",
        "long": "-71.346393"
    },
    "[NAT 74] WENDY'S - 355 WORCESTER ST": {
        "coder": "census",
        "normalized_address": "355 WORCESTER ST, WELLESLEY HILLS, MA, 02481",
        "lat": "42.314808",
        "long": "-71.267098"
    },
    "[NAT 920] NATICK MALL (MALL I) - 1245 WORCESTER ST": {
        "coder": "census",
        "normalized_address": "1245 WORCESTER ST, NATICK, MA, 01760",
        "lat": "42.299500",
        "long": "-71.377749"
    },
    "1260 WORCESTER ST": {
        "coder": "census",
        "normalized_address": "1260 WORCESTER ST, NATICK, MA, 01760",
        "lat": "42.298929",
        "long": "-71.387144"
    },
    "[NAT 403] THE CONTAINER STORE - 1265 WORCESTER ST": {
        "coder": "census",
        "normalized_address": "1265 WORCESTER ST, NATICK, MA, 01760",
        "lat": "42.299514",
        "long": "-71.378211"
    },
    "[NAT 4092] NEWTON DISTRIBUTING - 245 WEST CENTRAL ST": {
        "coder": "census",
        "normalized_address": "245 W CENTRAL ST, NATICK, MA, 01760",
        "lat": "42.281973",
        "long": "-71.390508"
    },
    "200 WEST CENTRAL ST ": {
        "coder": "census",
        "normalized_address": "200 W CENTRAL ST, NATICK, MA, 01760",
        "lat": "42.282226",
        "long": "-71.384856"
    },
    "[NAT 79] BERNARDI HONDA - 960 WORCESTER ST": {
        "coder": "census",
        "normalized_address": "960 WORCESTER ST, NATICK, MA, 01760",
        "lat": "42.299258",
        "long": "-71.365104"
    },
    "49 WEST CENTRAL ST": {
        "coder": "census",
        "normalized_address": "49 W CENTRAL ST, NATICK, MA, 01760",
        "lat": "42.283182",
        "long": "-71.352457"
    },
    "[NAT 3836] STARBUCKS - 333 WORCESTER ST": {
        "coder": "census",
        "normalized_address": "333 WORCESTER ST, WELLESLEY HILLS, MA, 02481",
        "lat": "42.314475",
        "long": "-71.257305"
    },
    "[NAT 466] 7- ELEVEN - 172 NORTH MAIN ST": {
        "coder": "census",
        "normalized_address": "172 N MAIN ST, NATICK, MA, 01760",
        "lat": "42.297786",
        "long": "-71.359299"
    },
    "691 WORCESTER ST ": {
        "coder": "census",
        "normalized_address": "691 WORCESTER ST, WELLESLEY HILLS, MA, 02481",
        "lat": "42.306156",
        "long": "-71.296741"
    },
    "[NAT 1547] SUNNYSIDE PLAZA - 915 WORCESTER ST": {
        "coder": "census",
        "normalized_address": "915 WORCESTER ST, NATICK, MA, 01760",
        "lat": "42.299876",
        "long": "-71.361849"
    },
    "DRIS CORP - 16 TECH CIR": {
        "coder": "census",
        "normalized_address": "16 TECH CIR, NATICK, MA, 01760",
        "lat": "42.313778",
        "long": "-71.337926"
    },
    "[NAT 2836] CASTLE COURTYARD - 93 EAST CENTRAL ST": {
        "coder": "census",
        "normalized_address": "93 E CENTRAL ST, NATICK, MA, 01760",
        "lat": "42.285127",
        "long": "-71.340344"
    },
    "BATHROOM - 1245 WORCESTER ST": {
        "coder": "census",
        "normalized_address": "1245 WORCESTER ST, NATICK, MA, 01760",
        "lat": "42.299500",
        "long": "-71.377749"
    },
    "53 SOUTH ST": {
        "coder": "census",
        "normalized_address": "53 SOUTH ST, NATICK, MA, 01760",
        "lat": "42.256102",
        "long": "-71.328216"
    },
    "191 HARTFORD ST ": {
        "coder": "census",
        "normalized_address": "191 HARTFORD ST, NATICK, MA, 01760",
        "lat": "42.292528",
        "long": "-71.400355"
    },
    "52 FELCH RD": {
        "coder": "census",
        "normalized_address": "52 FELCH RD, NATICK, MA, 01760",
        "lat": "42.313304",
        "long": "-71.353871"
    },
    "[NAT 2013] UPS STORE OF NATICK - 841 WORCESTER ST": {
        "coder": "census",
        "normalized_address": "841 WORCESTER ST, WELLESLEY HILLS, MA, 02481",
        "lat": "42.305605",
        "long": "-71.311290"
    },
    "18 UNIVERSITY DR": {
        "coder": "census",
        "normalized_address": "18 UNIVERSITY DR, NATICK, MA, 01760",
        "lat": "42.289392",
        "long": "-71.328084"
    },
    "[NAT 936] BERNARDI VOLVO - 910 WORCESTER ST": {
        "coder": "census",
        "normalized_address": "910 WORCESTER ST, NATICK, MA, 01760",
        "lat": "42.299582",
        "long": "-71.362449"
    },
    "NATICK COLLISON - 22 COCHITUATE ST ": {
        "coder": "census",
        "normalized_address": "22 COCHITUATE ST, NATICK, MA, 01760",
        "lat": "42.285681",
        "long": "-71.351581"
    },
    "[NAT 1662] NATICK COMMUNITY ORGANIC FARM - 117 ELIOT ST": {
        "coder": "census",
        "normalized_address": "117 ELIOT ST, NATICK, MA, 01760",
        "lat": "42.266060",
        "long": "-71.324293"
    },
    "13 FERN ST": {
        "coder": "census",
        "normalized_address": "13 FERN ST, NATICK, MA, 01760",
        "lat": "42.272469",
        "long": "-71.370909"
    },
    "42 SILVER HILL LN Apt. #3": {
        "coder": "census",
        "normalized_address": "42 SILVER HILL LN, NATICK, MA, 01760",
        "lat": "42.278138",
        "long": "-71.384784"
    },
    "[NAT 3845] LUSSIER CORPORATION - 201 OAK ST": {
        "coder": "census",
        "normalized_address": "201 OAK ST, NATICK, MA, 01760",
        "lat": "42.314282",
        "long": "-71.339144"
    },
    "[NAT 963] HAMPTON INN - 319 SPEEN ST": {
        "coder": "census",
        "normalized_address": "319 SPEEN ST, NATICK, MA, 01760",
        "lat": "42.301009",
        "long": "-71.379941"
    },
    "975 WORCESTER ST": {
        "coder": "census",
        "normalized_address": "975 WORCESTER ST, NATICK, MA, 01760",
        "lat": "42.299682",
        "long": "-71.363393"
    }
}