{
    "7 THOREAU CT": {
        "coder": "census",
        "normalized_address": "7 THOREAU CT, NATICK, MA, 01760",
        "lat": "42.274903",
        "long": "-71.389779"
    },
    "[NAT 2893] DICK'S SPORTING GOODS - 1336 WORCESTER ST": {
        "coder": "census",
        "normalized_address": "1336 WORCESTER ST, NATICK, MA, 01760",
        "lat": "42.298917",
        "long": "-71.387301"
    },
    "144 WORCESTER ST ": {
        "coder": "census",
        "normalized_address": "144 WORCESTER ST, NATICK, MA, 01760",
        "lat": "42.303171",
        "long": "-71.333234"
    },
    "[NAT 2972] 32 PLEASANT SOUTH ST - 32 PLEASANT ST": {
        "coder": "census",
        "normalized_address": "32 PLEASANT ST S, NATICK, MA, 01760",
        "lat": "42.268889",
        "long": "-71.312789"
    },
    "61 SCHOOL STREET EXT Apt. #B": {
        "coder": "census",
        "normalized_address": "61 SCHOOL ST, NATICK, MA, 01760",
        "lat": "42.281853",
        "long": "-71.346362"
    },
    "11 BRADFORD RD": {
        "coder": "census",
        "normalized_address": "11 BRADFORD RD, NATICK, MA, 01760",
        "lat": "42.308592",
        "long": "-71.351279"
    },
    "[NAT 1063] METROWEST MEDICAL CENTER - LEONARD MORSE HOSP - 67 UNION ST": {
        "coder": "census",
        "normalized_address": "67 UNION ST, NATICK, MA, 01760",
        "lat": "42.280369",
        "long": "-71.332476"
    },
    "13 UNION ST ": {
        "coder": "census",
        "normalized_address": "13 UNION ST, NATICK, MA, 01760",
        "lat": "42.283962",
        "long": "-71.339369"
    },
    "59 HARTFORD ST": {
        "coder": "census",
        "normalized_address": "59 HARTFORD ST, NATICK, MA, 01760",
        "lat": "42.294686",
        "long": "-71.382400"
    },
    "190 NORTH MAIN ST": {
        "coder": "census",
        "normalized_address": "190 N MAIN ST, NATICK, MA, 01760",
        "lat": "42.298626",
        "long": "-71.359458"
    },
    "59 ELIOT HILL RD": {
        "coder": "census",
        "normalized_address": "59 ELIOT HILL RD, NATICK, MA, 01760",
        "lat": "42.259929",
        "long": "-71.337413"
    },
    "[NAT 1015] U- HAUL CO - 834 WORCESTER ST": {
        "coder": "census",
        "normalized_address": "834 WORCESTER ST, NATICK, MA, 01760",
        "lat": "42.300197",
        "long": "-71.356918"
    },
    "[NAT 3477] AUTO WHOLESALERS - 135 WEST CENTRAL ST": {
        "coder": "census",
        "normalized_address": "135 W CENTRAL ST, NATICK, MA, 01760",
        "lat": "42.283208",
        "long": "-71.371980"
    },
    "[NAT 4342] 310 SPEEN ST ": {
        "coder": "census",
        "normalized_address": "310 SPEEN ST, NATICK, MA, 01760",
        "lat": "42.299781",
        "long": "-71.379357"
    },
    "[NAT 2051] HOME DEPOT - 339 SPEEN ST": {
        "coder": "census",
        "normalized_address": "339 SPEEN ST, NATICK, MA, 01760",
        "lat": "42.301047",
        "long": "-71.379963"
    },
    "[NAT 3984] BRANDON SCHOOL HOUSE 4 - 27 WINTER ST": {
        "coder": "census",
        "normalized_address": "27 WINTER ST, WAYLAND, MA, 01778",
        "lat": "42.319975",
        "long": "-71.362971"
    },
    "310 SPEEN ST ": {
        "coder": "census",
        "normalized_address": "310 SPEEN ST, NATICK, MA, 01760",
        "lat": "42.299781",
        "long": "-71.379357"
    },
    "4 CHURCH ST Apt. #3": {
        "coder": "census",
        "normalized_address": "4 CHURCH ST, NATICK, MA, 01760",
        "lat": "42.283707",
        "long": "-71.345480"
    },
    "[NAT 3614] AVALON NATICK APARTMENTS - 5 CHRYSLER RD Apt. #113": {
        "coder": "census",
        "normalized_address": "5 CHRYSLER RD, NATICK, MA, 01760",
        "lat": "42.305171",
        "long": "-71.381901"
    },
    "65 ELIOT HILL RD": {
        "coder": "census",
        "normalized_address": "65 ELIOT HILL RD, NATICK, MA, 01760",
        "lat": "42.259623",
        "long": "-71.337419"
    },
    "[FRA] 600 CONCORD ST": {
        "coder": "census",
        "normalized_address": "600 CONCORD ST, FRAMINGHAM, MA, 01702",
        "lat": "42.292559",
        "long": "-71.409285"
    },
    "[NAT 4345] SEUFFERT RESIDENCE - 186 WOODLAND ST": {
        "coder": "census",
        "normalized_address": "186 WOODLAND ST, NATICK, MA, 01760",
        "lat": "42.276611",
        "long": "-71.325200"
    },
    "[NAT 1027] BRANDON SCHOOL - 27 WINTER ST": {
        "coder": "census",
        "normalized_address": "27 WINTER ST, WAYLAND, MA, 01778",
        "lat": "42.319975",
        "long": "-71.362971"
    },
    "[NAT 3614] AVALON NATICK APARTMENTS - 5 CHRYSLER RD Apt. #418": {
        "coder": "census",
        "normalized_address": "5 CHRYSLER RD, NATICK, MA, 01760",
        "lat": "42.305171",
        "long": "-71.381901"
    },
    "6 CRESCENT ST": {
        "coder": "census",
        "normalized_address": "6 CRESCENT ST, NATICK, MA, 01760",
        "lat": "42.288336",
        "long": "-71.375093"
    },
    "53 VILLAGE BROOK LN Apt. #1": {
        "coder": "census",
        "normalized_address": "53 VILLAGE BROOK LN, NATICK, MA, 01760",
        "lat": "42.277035",
        "long": "-71.392383"
    },
    "53 SCHOOL STREET EXT Apt. #2": {
        "coder": "census",
        "normalized_address": "53 SCHOOL ST, NATICK, MA, 01760",
        "lat": "42.281894",
        "long": "-71.346363"
    },
    "[NAT 4367] FIDO DOG PARK - 109 WEST CENTRAL ST": {
        "coder": "census",
        "normalized_address": "109 W CENTRAL ST, NATICK, MA, 01760",
        "lat": "42.283576",
        "long": "-71.366282"
    },
    "[NAT 3897] 154 WORCESTER ST": {
        "coder": "census",
        "normalized_address": "154 WORCESTER ST, NATICK, MA, 01760",
        "lat": "42.303158",
        "long": "-71.333285"
    },
    "172 CEDAR TER Apt. #A": {
        "coder": "census",
        "normalized_address": "172 CEDAR TER, NATICK, MA, 01760",
        "lat": "42.273448",
        "long": "-71.356991"
    },
    "48 NORTH AVE": {
        "coder": "census",
        "normalized_address": "48 NORTH AVE, NATICK, MA, 01760",
        "lat": "42.286282",
        "long": "-71.345716"
    },
    "8 WASHINGTON ST ": {
        "coder": "census",
        "normalized_address": "8 WASHINGTON ST, NATICK, MA, 01760",
        "lat": "42.284813",
        "long": "-71.346363"
    },
    "[NAT 4071] LOLLI AND POPS - 1245 WORCESTER ST Apt. #1046": {
        "coder": "census",
        "normalized_address": "1245 WORCESTER ST, NATICK, MA, 01760",
        "lat": "42.299500",
        "long": "-71.377749"
    },
    "259 BACON ST": {
        "coder": "census",
        "normalized_address": "259 BACON ST, NATICK, MA, 01760",
        "lat": "42.297379",
        "long": "-71.357870"
    },
    "[NAT 3843] NATICK HIGH SCHOOL - 15 WEST ST": {
        "coder": "census",
        "normalized_address": "15 WEST ST, NATICK, MA, 01760",
        "lat": "42.276971",
        "long": "-71.359319"
    },
    "242 SPEEN ST ": {
        "coder": "census",
        "normalized_address": "242 SPEEN ST, NATICK, MA, 01760",
        "lat": "42.294937",
        "long": "-71.376894"
    },
    "[NAT 954] THE VERVE HOTEL - 1360 WORCESTER ST": {
        "coder": "census",
        "normalized_address": "1360 WORCESTER ST, NATICK, MA, 01760",
        "lat": "42.298777",
        "long": "-71.391301"
    },
    "[NAT 220] SCRUB A DUB AUTO WASH OF NATICK - 172 WORCESTER ST": {
        "coder": "census",
        "normalized_address": "172 WORCESTER ST, NATICK, MA, 01760",
        "lat": "42.303126",
        "long": "-71.333385"
    },
    "3 INDIAN RIDGE WAY": {
        "coder": "census",
        "normalized_address": "3 INDIAN RIDGE WAY, NATICK, MA, 01760",
        "lat": "42.249529",
        "long": "-71.317750"
    },
    "80 WASHINGTON AVE": {
        "coder": "census",
        "normalized_address": "80 WASHINGTON AVE, NATICK, MA, 01760",
        "lat": "42.289223",
        "long": "-71.354872"
    },
    "12 WEST CENTRAL ST": {
        "coder": "census",
        "normalized_address": "12 W CENTRAL ST, NATICK, MA, 01760",
        "lat": "42.283565",
        "long": "-71.348659"
    },
    "[NAT 2068] WERUVA INTERNATIONAL INC - 17 MERCER RD": {
        "coder": "census",
        "normalized_address": "17 MERCER RD, NATICK, MA, 01760",
        "lat": "42.296692",
        "long": "-71.390825"
    },
    "53 MILL ST ": {
        "coder": "census",
        "normalized_address": "53 MILL ST, NATICK, MA, 01760",
        "lat": "42.281924",
        "long": "-71.380243"
    },
    "3 STILLWATER CIR": {
        "coder": "census",
        "normalized_address": "3 STILLWATER CIR, NATICK, MA, 01760",
        "lat": "42.292124",
        "long": "-71.333585"
    },
    "2 BLUESTONE WAY": {
        "coder": "census",
        "normalized_address": "2 BLUE STONE PATH, NATICK, MA, 01760",
        "lat": "42.267189",
        "long": "-71.346130"
    },
    "8 LACONIA RD": {
        "coder": "census",
        "normalized_address": "8 LACONIA RD, NATICK, MA, 01760",
        "lat": "42.301704",
        "long": "-71.327297"
    },
    "4 CHURCH ST": {
        "coder": "census",
        "normalized_address": "4 CHURCH ST, NATICK, MA, 01760",
        "lat": "42.283707",
        "long": "-71.345480"
    },
    "33 FOX HILL DR": {
        "coder": "census",
        "normalized_address": "33 FOX HILL DR, NATICK, MA, 01760",
        "lat": "42.315589",
        "long": "-71.328719"
    },
    "[NAT 2868] 9 BADGER AVE - 9 BADGER AVE": {
        "coder": "census",
        "normalized_address": "9 BADGER AVE, NATICK, MA, 01760",
        "lat": "42.270104",
        "long": "-71.317937"
    },
    "13 WASHINGTON AVE ": {
        "coder": "census",
        "normalized_address": "13 WASHINGTON AVE, NATICK, MA, 01760",
        "lat": "42.284617",
        "long": "-71.352607"
    },
    "HAIR CUTS LTD - 841 WORCESTER ST": {
        "coder": "census",
        "normalized_address": "841 WORCESTER ST, WELLESLEY HILLS, MA, 02481",
        "lat": "42.305605",
        "long": "-71.311290"
    },
    "[NAT 1497] 7 GREAT ROCK CIR - 7 GREAT ROCK CIR": {
        "coder": "census",
        "normalized_address": "7 GREAT ROCK CIR, NATICK, MA, 01760",
        "lat": "42.274458",
        "long": "-71.380545"
    },
    "[NAT 3857] EVERYTHING BUT WATER - 1245 WORCESTER ST Apt. #4019": {
        "coder": "census",
        "normalized_address": "1245 WORCESTER ST, NATICK, MA, 01760",
        "lat": "42.299500",
        "long": "-71.377749"
    },
    "9 SCHOOL ST ": {
        "coder": "census",
        "normalized_address": "9 SCHOOL ST, NATICK, MA, 01760",
        "lat": "42.282117",
        "long": "-71.346372"
    },
    " RT 27) - 891 WORCESTER ST": {
        "coder": "census",
        "normalized_address": "891 WORCESTER ST, WELLESLEY, MA, 02482",
        "lat": "42.305265",
        "long": "-71.315556"
    },
    "85 SOUTH MAIN ST": {
        "coder": "census",
        "normalized_address": "85 S MAIN ST, NATICK, MA, 01760",
        "lat": "42.279614",
        "long": "-71.348303"
    },
    "[NAT 311] NATICK WINE & SPIRITS - 7 WATSON ST": {
        "coder": "census",
        "normalized_address": "7 WATSON ST, NATICK, MA, 01760",
        "lat": "42.282415",
        "long": "-71.377744"
    },
    "395 WORCESTER ST": {
        "coder": "census",
        "normalized_address": "395 WORCESTER ST, WELLESLEY HILLS, MA, 02481",
        "lat": "42.314564",
        "long": "-71.269575"
    },
    "65 SCHOOL STREET EXT": {
        "coder": "census",
        "normalized_address": "65 SCHOOL ST, NATICK, MA, 01760",
        "lat": "42.281833",
        "long": "-71.346361"
    },
    "[NAT 1661] PEGAN COVE - 32 WASHINGTON AVE": {
        "coder": "census",
        "normalized_address": "32 WASHINGTON AVE, NATICK, MA, 01760",
        "lat": "42.285620",
        "long": "-71.353230"
    },
    "[NAT 3883] SKYBOKX - 319 SPEEN ST": {
        "coder": "census",
        "normalized_address": "319 SPEEN ST, NATICK, MA, 01760",
        "lat": "42.301009",
        "long": "-71.379941"
    },
    "313 SPEEN ST ": {
        "coder": "census",
        "normalized_address": "313 SPEEN ST, NATICK, MA, 01760",
        "lat": "42.300998",
        "long": "-71.379934"
    },
    "230 WORCESTER ST ": {
        "coder": "census",
        "normalized_address": "230 WORCESTER ST, NATICK, MA, 01760",
        "lat": "42.302531",
        "long": "-71.335773"
    },
    "2 WORCESTER ST ": {
        "coder": "census",
        "normalized_address": "2 WORCESTER ST, NATICK, MA, 01760",
        "lat": "42.304222",
        "long": "-71.326689"
    },
    "1245 WORCESTER ST": {
        "coder": "census",
        "normalized_address": "1245 WORCESTER ST, NATICK, MA, 01760",
        "lat": "42.299500",
        "long": "-71.377749"
    },
    "14 TECH CIR": {
        "coder": "census",
        "normalized_address": "14 TECH CIR, NATICK, MA, 01760",
        "lat": "42.313713",
        "long": "-71.337943"
    },
    "40 BENNETT ST": {
        "coder": "census",
        "normalized_address": "40 BENNETT ST, NATICK, MA, 01760",
        "lat": "42.275348",
        "long": "-71.354778"
    },
    "3 ROBINHOOD RD": {
        "coder": "census",
        "normalized_address": "3 ROBINHOOD RD, NATICK, MA, 01760",
        "lat": "42.297680",
        "long": "-71.376608"
    },
    "[NAT 986] ENTERPRISE RENT A CAR - 2 WETHERSFIELD RD": {
        "coder": "census",
        "normalized_address": "2 WETHERSFIELD RD, NATICK, MA, 01760",
        "lat": "42.302191",
        "long": "-71.352426"
    },
    "83 PARK AVE": {
        "coder": "census",
        "normalized_address": "83 PARK AVE, NATICK, MA, 01760",
        "lat": "42.299465",
        "long": "-71.355768"
    },
    "44 WALNUT ST": {
        "coder": "census",
        "normalized_address": "44 WALNUT ST, NATICK, MA, 01760",
        "lat": "42.288962",
        "long": "-71.348156"
    },
    "17 EUCLID AVE": {
        "coder": "census",
        "normalized_address": "17 EUCLID AVE, NATICK, MA, 01760",
        "lat": "42.307106",
        "long": "-71.337763"
    },
    "[NAT 3047] CAMP MARY BUNKER - 5 MEGONKO RD": {
        "coder": "census",
        "normalized_address": "5 MEGONKO RD, NATICK, MA, 01760",
        "lat": "42.302037",
        "long": "-71.361267"
    },
    "15 ELWIN RD": {
        "coder": "census",
        "normalized_address": "15 ELWIN RD, NATICK, MA, 01760",
        "lat": "42.288668",
        "long": "-71.395315"
    },
    "14 SCHOOL STREET EXT": {
        "coder": "census",
        "normalized_address": "14 SCHOOL ST, NATICK, MA, 01760",
        "lat": "42.282098",
        "long": "-71.346216"
    },
    "87 NORTH AVE": {
        "coder": "census",
        "normalized_address": "87 NORTH AVE, NATICK, MA, 01760",
        "lat": "42.286697",
        "long": "-71.342996"
    },
    "[NAT 957] LENSCRAFTERS - 1364 WORCESTER ST": {
        "coder": "census",
        "normalized_address": "1364 WORCESTER ST, NATICK, MA, 01760",
        "lat": "42.298770",
        "long": "-71.391463"
    },
    "[FRA] 1640 WORCESTER RD": {
        "coder": "census",
        "normalized_address": "1640 WORCESTER RD, FRAMINGHAM, MA, 01702",
        "lat": "42.295585",
        "long": "-71.470131"
    },
    "[NAT 1705] NATICK POLICE DEPARTMENT - 20 EAST CENTRAL ST": {
        "coder": "census",
        "normalized_address": "20 E CENTRAL ST, NATICK, MA, 01760",
        "lat": "42.284248",
        "long": "-71.345123"
    },
    "1245 WORCESTER ST ": {
        "coder": "census",
        "normalized_address": "1245 WORCESTER ST, NATICK, MA, 01760",
        "lat": "42.299500",
        "long": "-71.377749"
    },
    "[NAT 2876] SEPHORA - 1245 WORCESTER ST Apt. #2164": {
        "coder": "census",
        "normalized_address": "1245 WORCESTER ST, NATICK, MA, 01760",
        "lat": "42.299500",
        "long": "-71.377749"
    },
    "92 KENDALL LN ": {
        "coder": "census",
        "normalized_address": "92 KENDALL LN, NATICK, MA, 01760",
        "lat": "42.273356",
        "long": "-71.393491"
    },
    "177 UNION ST": {
        "coder": "census",
        "normalized_address": "177 UNION ST, NATICK, MA, 01760",
        "lat": "42.275137",
        "long": "-71.320077"
    },
    "15 VILLAGE ROCK LN Apt. #10": {
        "coder": "census",
        "normalized_address": "15 VILLAGE ROCK LN, NATICK, MA, 01760",
        "lat": "42.278513",
        "long": "-71.394541"
    },
    "15 WALDEN DR Apt. #11": {
        "coder": "census",
        "normalized_address": "15 WALDEN DR, NATICK, MA, 01760",
        "lat": "42.276767",
        "long": "-71.387344"
    },
    "3 MILFORD AVE": {
        "coder": "census",
        "normalized_address": "3 MILFORD AVE, NATICK, MA, 01760",
        "lat": "42.321005",
        "long": "-71.328266"
    },
    "[FRA] NATICK DISTRICT COURT - 600 CONCORD ST": {
        "coder": "census",
        "normalized_address": "600 CONCORD ST, FRAMINGHAM, MA, 01702",
        "lat": "42.292559",
        "long": "-71.409285"
    },
    "[NAT 3614] AVALON NATICK APARTMENTS - 5 CHRYSLER RD Apt. #119": {
        "coder": "census",
        "normalized_address": "5 CHRYSLER RD, NATICK, MA, 01760",
        "lat": "42.305171",
        "long": "-71.381901"
    },
    "10 CARVER HILL ST": {
        "coder": "census",
        "normalized_address": "10 CARVER HILL ST, NATICK, MA, 01760",
        "lat": "42.270675",
        "long": "-71.317153"
    },
    "5 TIBBETTS ST Apt. #R": {
        "coder": "census",
        "normalized_address": "5 TIBBETTS ST, NATICK, MA, 01760",
        "lat": "42.286884",
        "long": "-71.342916"
    },
    "265 BACON ST ": {
        "coder": "census",
        "normalized_address": "265 BACON ST, NATICK, MA, 01760",
        "lat": "42.297486",
        "long": "-71.359073"
    },
    "219 NORTH MAIN ST": {
        "coder": "census",
        "normalized_address": "219 N MAIN ST, NATICK, MA, 01760",
        "lat": "42.303076",
        "long": "-71.361265"
    },
    "23 FAIRVIEW AVE": {
        "coder": "census",
        "normalized_address": "23 FAIRVIEW AVE, NATICK, MA, 01760",
        "lat": "42.274539",
        "long": "-71.370312"
    },
    "171 WEST CENTRAL ST": {
        "coder": "census",
        "normalized_address": "171 W CENTRAL ST, NATICK, MA, 01760",
        "lat": "42.282570",
        "long": "-71.379871"
    },
    "120 POND ST ": {
        "coder": "census",
        "normalized_address": "120 POND ST, NATICK, MA, 01760",
        "lat": "42.279924",
        "long": "-71.359748"
    },
    "[NAT 3870] JUMP START - 1 H F BROWN WAY Apt. #4": {
        "coder": "census",
        "normalized_address": "1 H F BROWN WAY, NATICK, MA, 01760",
        "lat": "42.274989",
        "long": "-71.393367"
    },
    "[NAT 3238] P F CHANG'S CHINA BISTRO - 1245 WORCESTER ST Apt. #4008": {
        "coder": "census",
        "normalized_address": "1245 WORCESTER ST, NATICK, MA, 01760",
        "lat": "42.299500",
        "long": "-71.377749"
    },
    "264 NORTH MAIN ST": {
        "coder": "census",
        "normalized_address": "264 N MAIN ST, NATICK, MA, 01760",
        "lat": "42.307221",
        "long": "-71.361863"
    },
    "[FRA] 85 WORCESTER ST": {
        "coder": "census",
        "normalized_address": "85 WORCESTER ST, NATICK, MA, 01760",
        "lat": "42.304149",
        "long": "-71.329997"
    },
    "186 WOODLAND ST ": {
        "coder": "census",
        "normalized_address": "186 WOODLAND ST, NATICK, MA, 01760",
        "lat": "42.276611",
        "long": "-71.325200"
    },
    "[NAT 3614] AVALON NATICK APARTMENTS - 5 CHRYSLER RD": {
        "coder": "census",
        "normalized_address": "5 CHRYSLER RD, NATICK, MA, 01760",
        "lat": "42.305171",
        "long": "-71.381901"
    },
    "4 PLEASANT ST": {
        "coder": "census",
        "normalized_address": "4 PLEASANT ST, NATICK, MA, 01760",
        "lat": "42.298318",
        "long": "-71.358927"
    },
    "BELLA SISTERS SALON - 321 SPEEN ST": {
        "coder": "census",
        "normalized_address": "321 SPEEN ST, NATICK, MA, 01760",
        "lat": "42.301013",
        "long": "-71.379943"
    },
    "8 LAKEVIEW GARDENS": {
        "coder": "census",
        "normalized_address": "8 LAKEVIEW AVE, NATICK, MA, 01760",
        "lat": "42.275749",
        "long": "-71.369592"
    },
    "6 WESTFIELD RD": {
        "coder": "census",
        "normalized_address": "6 WESTFIELD RD, NATICK, MA, 01760",
        "lat": "42.284535",
        "long": "-71.381085"
    },
    "89 HARTFORD ST": {
        "coder": "census",
        "normalized_address": "89 HARTFORD ST, NATICK, MA, 01760",
        "lat": "42.293405",
        "long": "-71.385522"
    },
    "135 UNION ST ": {
        "coder": "census",
        "normalized_address": "135 UNION ST, NATICK, MA, 01760",
        "lat": "42.277395",
        "long": "-71.324784"
    },
    "[NAT 869] ROCHE BROS SUPERMARKET - 150 WEST CENTRAL ST": {
        "coder": "census",
        "normalized_address": "150 W CENTRAL ST, NATICK, MA, 01760",
        "lat": "42.282483",
        "long": "-71.378214"
    },
    "24 POINT ST": {
        "coder": "census",
        "normalized_address": "24 POINT ST, NATICK, MA, 01760",
        "lat": "42.278790",
        "long": "-71.371624"
    },
    "19 FOX HILL DR": {
        "coder": "census",
        "normalized_address": "19 FOX HILL DR, NATICK, MA, 01760",
        "lat": "42.314545",
        "long": "-71.327995"
    },
    "194 NORTH MAIN ST ": {
        "coder": "census",
        "normalized_address": "194 N MAIN ST, NATICK, MA, 01760",
        "lat": "42.298788",
        "long": "-71.359505"
    },
    "[NAT 2047] SPEEDWAY - 194 WEST CENTRAL ST": {
        "coder": "census",
        "normalized_address": "194 W CENTRAL ST, NATICK, MA, 01760",
        "lat": "42.282353",
        "long": "-71.382449"
    },
    "[NAT 3614] AVALON NATICK APARTMENTS - 5 CHRYSLER RD Apt. #310": {
        "coder": "census",
        "normalized_address": "5 CHRYSLER RD, NATICK, MA, 01760",
        "lat": "42.305171",
        "long": "-71.381901"
    },
    "85 NORTH MAIN ST": {
        "coder": "census",
        "normalized_address": "85 N MAIN ST, NATICK, MA, 01760",
        "lat": "42.290597",
        "long": "-71.353096"
    },
    "48 SILVER HILL LN Apt. #22": {
        "coder": "census",
        "normalized_address": "48 SILVER HILL LN, NATICK, MA, 01760",
        "lat": "42.277903",
        "long": "-71.384684"
    },
    "[NAT 3728] PLANET FITNESS - 215 WEST CENTRAL ST": {
        "coder": "census",
        "normalized_address": "215 W CENTRAL ST, NATICK, MA, 01760",
        "lat": "42.281997",
        "long": "-71.390006"
    },
    "132 CEDAR TER Apt. #C": {
        "coder": "census",
        "normalized_address": "132 CEDAR TER, NATICK, MA, 01760",
        "lat": "42.273766",
        "long": "-71.355613"
    },
    "[NAT 3404] AVALON NATICK APARTMENTS - 1 CHRYSLER RD Apt. #1108": {
        "coder": "census",
        "normalized_address": "1 CHRYSLER RD, NATICK, MA, 01760",
        "lat": "42.305133",
        "long": "-71.382036"
    },
    "84 CEDAR AVE": {
        "coder": "census",
        "normalized_address": "84 CEDAR AVE, NATICK, MA, 01760",
        "lat": "42.273956",
        "long": "-71.355868"
    },
    "[NAT 899] 3 WHITRIDGE RD - 3 WHITRIDGE RD": {
        "coder": "census",
        "normalized_address": "3 WHITRIDGE RD, NATICK, MA, 01760",
        "lat": "42.258285",
        "long": "-71.340431"
    },
    "[NAT 869] 106 SPEEN ST": {
        "coder": "census",
        "normalized_address": "106 SPEEN ST, NATICK, MA, 01760",
        "lat": "42.283873",
        "long": "-71.375448"
    },
    "[NAT 4500] EVERETT FUNERAL HOME - 4 PARK ST": {
        "coder": "census",
        "normalized_address": "4 PARK ST, NATICK, MA, 01760",
        "lat": "42.283897",
        "long": "-71.346185"
    },
    "147 NORTH MAIN ST": {
        "coder": "census",
        "normalized_address": "147 N MAIN ST, NATICK, MA, 01760",
        "lat": "42.294913",
        "long": "-71.358131"
    },
    "10 SHATTUCK ST": {
        "coder": "census",
        "normalized_address": "10 SHATTUCK ST, NATICK, MA, 01760",
        "lat": "42.289379",
        "long": "-71.347168"
    },
    "[NAT 4142] SHERWOOD PLAZA (EAST) - 1288 WORCESTER ST": {
        "coder": "census",
        "normalized_address": "1288 WORCESTER ST, NATICK, MA, 01760",
        "lat": "42.298925",
        "long": "-71.387202"
    },
    "126 NORTH MAIN ST": {
        "coder": "census",
        "normalized_address": "126 N MAIN ST, NATICK, MA, 01760",
        "lat": "42.293537",
        "long": "-71.357743"
    },
    "[NAT 135] BRIGHAM GILL MOTORCARS INC - 817 WORCESTER ST": {
        "coder": "census",
        "normalized_address": "817 WORCESTER ST, WELLESLEY HILLS, MA, 02481",
        "lat": "42.305644",
        "long": "-71.310768"
    },
    "[NAT 947] RW HOLMES REALTY - 1085 WORCESTER ST": {
        "coder": "census",
        "normalized_address": "1085 WORCESTER ST, NATICK, MA, 01760",
        "lat": "42.299327",
        "long": "-71.366223"
    },
    "124 EVERETT ST": {
        "coder": "census",
        "normalized_address": "124 EVERETT ST, NATICK, MA, 01760",
        "lat": "42.259527",
        "long": "-71.353425"
    },
    "577 WORCESTER ST ": {
        "coder": "census",
        "normalized_address": "577 WORCESTER ST, WELLESLEY HILLS, MA, 02481",
        "lat": "42.308786",
        "long": "-71.285260"
    },
    "[NAT 1021] LILJA SCHOOL - 41 BACON ST": {
        "coder": "census",
        "normalized_address": "41 BACON ST, NATICK, MA, 01760",
        "lat": "42.294630",
        "long": "-71.327616"
    },
    "[NAT 2101] NATICK MALL (PARKING DECK C) - 1249 WORCESTER ST": {
        "coder": "census",
        "normalized_address": "1249 WORCESTER ST, NATICK, MA, 01760",
        "lat": "42.299503",
        "long": "-71.377842"
    },
    "42 COTTAGE ST": {
        "coder": "census",
        "normalized_address": "42 COTTAGE ST, NATICK, MA, 01760",
        "lat": "42.276563",
        "long": "-71.346393"
    },
    "[NAT 74] WENDY'S - 355 WORCESTER ST": {
        "coder": "census",
        "normalized_address": "355 WORCESTER ST, WELLESLEY HILLS, MA, 02481",
        "lat": "42.314808",
        "long": "-71.267098"
    },
    "[NAT 920] NATICK MALL (MALL I) - 1245 WORCESTER ST": {
        "coder": "census",
        "normalized_address": "1245 WORCESTER ST, NATICK, MA, 01760",
        "lat": "42.299500",
        "long": "-71.377749"
    },
    "1260 WORCESTER ST": {
        "coder": "census",
        "normalized_address": "1260 WORCESTER ST, NATICK, MA, 01760",
        "lat": "42.298929",
        "long": "-71.387144"
    },
    "[NAT 403] THE CONTAINER STORE - 1265 WORCESTER ST": {
        "coder": "census",
        "normalized_address": "1265 WORCESTER ST, NATICK, MA, 01760",
        "lat": "42.299514",
        "long": "-71.378211"
    },
    "[NAT 4092] NEWTON DISTRIBUTING - 245 WEST CENTRAL ST": {
        "coder": "census",
        "normalized_address": "245 W CENTRAL ST, NATICK, MA, 01760",
        "lat": "42.281973",
        "long": "-71.390508"
    },
    "200 WEST CENTRAL ST ": {
        "coder": "census",
        "normalized_address": "200 W CENTRAL ST, NATICK, MA, 01760",
        "lat": "42.282226",
        "long": "-71.384856"
    },
    "[NAT 79] BERNARDI HONDA - 960 WORCESTER ST": {
        "coder": "census",
        "normalized_address": "960 WORCESTER ST, NATICK, MA, 01760",
        "lat": "42.299258",
        "long": "-71.365104"
    },
    "49 WEST CENTRAL ST": {
        "coder": "census",
        "normalized_address": "49 W CENTRAL ST, NATICK, MA, 01760",
        "lat": "42.283182",
        "long": "-71.352457"
    },
    "[NAT 3836] STARBUCKS - 333 WORCESTER ST": {
        "coder": "census",
        "normalized_address": "333 WORCESTER ST, WELLESLEY HILLS, MA, 02481",
        "lat": "42.314475",
        "long": "-71.257305"
    },
    "[NAT 466] 7- ELEVEN - 172 NORTH MAIN ST": {
        "coder": "census",
        "normalized_address": "172 N MAIN ST, NATICK, MA, 01760",
        "lat": "42.297786",
        "long": "-71.359299"
    },
    "691 WORCESTER ST ": {
        "coder": "census",
        "normalized_address": "691 WORCESTER ST, WELLESLEY HILLS, MA, 02481",
        "lat": "42.306156",
        "long": "-71.296741"
    },
    "[NAT 1547] SUNNYSIDE PLAZA - 915 WORCESTER ST": {
        "coder": "census",
        "normalized_address": "915 WORCESTER ST, NATICK, MA, 01760",
        "lat": "42.299876",
        "long": "-71.361849"
    },
    "DRIS CORP - 16 TECH CIR": {
        "coder": "census",
        "normalized_address": "16 TECH CIR, NATICK, MA, 01760",
        "lat": "42.313778",
        "long": "-71.337926"
    },
    "[NAT 2836] CASTLE COURTYARD - 93 EAST CENTRAL ST": {
        "coder": "census",
        "normalized_address": "93 E CENTRAL ST, NATICK, MA, 01760",
        "lat": "42.285127",
        "long": "-71.340344"
    },
    "BATHROOM - 1245 WORCESTER ST": {
        "coder": "census",
        "normalized_address": "1245 WORCESTER ST, NATICK, MA, 01760",
        "lat": "42.299500",
        "long": "-71.377749"
    },
    "53 SOUTH ST": {
        "coder": "census",
        "normalized_address": "53 SOUTH ST, NATICK, MA, 01760",
        "lat": "42.256102",
        "long": "-71.328216"
    },
    "191 HARTFORD ST ": {
        "coder": "census",
        "normalized_address": "191 HARTFORD ST, NATICK, MA, 01760",
        "lat": "42.292528",
        "long": "-71.400355"
    },
    "52 FELCH RD": {
        "coder": "census",
        "normalized_address": "52 FELCH RD, NATICK, MA, 01760",
        "lat": "42.313304",
        "long": "-71.353871"
    },
    "[NAT 2013] UPS STORE OF NATICK - 841 WORCESTER ST": {
        "coder": "census",
        "normalized_address": "841 WORCESTER ST, WELLESLEY HILLS, MA, 02481",
        "lat": "42.305605",
        "long": "-71.311290"
    },
    "18 UNIVERSITY DR": {
        "coder": "census",
        "normalized_address": "18 UNIVERSITY DR, NATICK, MA, 01760",
        "lat": "42.289392",
        "long": "-71.328084"
    },
    "[NAT 936] BERNARDI VOLVO - 910 WORCESTER ST": {
        "coder": "census",
        "normalized_address": "910 WORCESTER ST, NATICK, MA, 01760",
        "lat": "42.299582",
        "long": "-71.362449"
    },
    "NATICK COLLISON - 22 COCHITUATE ST ": {
        "coder": "census",
        "normalized_address": "22 COCHITUATE ST, NATICK, MA, 01760",
        "lat": "42.285681",
        "long": "-71.351581"
    },
    "[NAT 1662] NATICK COMMUNITY ORGANIC FARM - 117 ELIOT ST": {
        "coder": "census",
        "normalized_address": "117 ELIOT ST, NATICK, MA, 01760",
        "lat": "42.266060",
        "long": "-71.324293"
    },
    "13 FERN ST": {
        "coder": "census",
        "normalized_address": "13 FERN ST, NATICK, MA, 01760",
        "lat": "42.272469",
        "long": "-71.370909"
    },
    "42 SILVER HILL LN Apt. #3": {
        "coder": "census",
        "normalized_address": "42 SILVER HILL LN, NATICK, MA, 01760",
        "lat": "42.278138",
        "long": "-71.384784"
    },
    "[NAT 3845] LUSSIER CORPORATION - 201 OAK ST": {
        "coder": "census",
        "normalized_address": "201 OAK ST, NATICK, MA, 01760",
        "lat": "42.314282",
        "long": "-71.339144"
    },
    "[NAT 963] HAMPTON INN - 319 SPEEN ST": {
        "coder": "census",
        "normalized_address": "319 SPEEN ST, NATICK, MA, 01760",
        "lat": "42.301009",
        "long": "-71.379941"
    },
    "975 WORCESTER ST": {
        "coder": "census",
        "normalized_address": "975 WORCESTER ST, NATICK, MA, 01760",
        "lat": "42.299682",
        "long": "-71.363393"
    },
    "[WEL] WELLESLEY - 3 FROST CIR": {
        "coder": "census",
        "normalized_address": "3 FROST ST, NATICK, MA, 01760",
        "lat": "42.322319",
        "long": "-71.335604"
    },
    "[NAT 3843] NATICK HIGH SCHOOL (NEW) - 15 WEST ST": {
        "coder": "census",
        "normalized_address": "15 WEST ST, NATICK, MA, 01760",
        "lat": "42.276971",
        "long": "-71.359319"
    },
    "171 HARTFORD ST": {
        "coder": "census",
        "normalized_address": "171 HARTFORD ST, NATICK, MA, 01760",
        "lat": "42.291410",
        "long": "-71.397313"
    },
    " 1 BROOKDALE RD": {
        "coder": "census",
        "normalized_address": "1 BROOKDALE RD, NATICK, MA, 01760",
        "lat": "42.291353",
        "long": "-71.397517"
    },
    "[NAT 2099] PARKING DECK A LPHA - REAR OF MACY'S - MALL - 1243 WORCESTER ST": {
        "coder": "census",
        "normalized_address": "1243 WORCESTER ST, NATICK, MA, 01760",
        "lat": "42.299498",
        "long": "-71.377703"
    },
    "517 WORCESTER ST ": {
        "coder": "census",
        "normalized_address": "517 WORCESTER ST, WELLESLEY HILLS, MA, 02481",
        "lat": "42.310568",
        "long": "-71.280848"
    },
    "[NAT 742] AUSTIN LIQUOR STORE - 212 NORTH MAIN ST": {
        "coder": "census",
        "normalized_address": "212 N MAIN ST, NATICK, MA, 01760",
        "lat": "42.303997",
        "long": "-71.361590"
    },
    "[NAT 2921] 10 GRACE CIR - 10 GRACE CIR": {
        "coder": "census",
        "normalized_address": "10 GRACE CIR, NATICK, MA, 01760",
        "lat": "42.276004",
        "long": "-71.349804"
    },
    "8 ERIE DR": {
        "coder": "census",
        "normalized_address": "8 ERIE DR, NATICK, MA, 01760",
        "lat": "42.313429",
        "long": "-71.339398"
    },
    "[NAT 3879] BERNARDI AUDI - 549 WORCESTER ST": {
        "coder": "census",
        "normalized_address": "549 WORCESTER ST, WELLESLEY HILLS, MA, 02481",
        "lat": "42.309143",
        "long": "-71.284371"
    },
    "[NAT 431] CITIZENS BANK - 34 MAIN ST": {
        "coder": "census",
        "normalized_address": "34 MAIN ST, NATICK, MA, 01760",
        "lat": "42.285688",
        "long": "-71.348005"
    },
    "121 WALNUT ST": {
        "coder": "census",
        "normalized_address": "121 WALNUT ST, NATICK, MA, 01760",
        "lat": "42.297822",
        "long": "-71.347862"
    },
    "111 OAK ST ": {
        "coder": "census",
        "normalized_address": "111 OAK ST, NATICK, MA, 01760",
        "lat": "42.306760",
        "long": "-71.332787"
    },
    "[NAT 3181] THE NORTH FACE - 1245 WORCESTER ST Apt. #4016": {
        "coder": "census",
        "normalized_address": "1245 WORCESTER ST, NATICK, MA, 01760",
        "lat": "42.299500",
        "long": "-71.377749"
    },
    "[NAT 855] THRIVE PET HEALTH CARE - 121 WEST CENTRAL ST": {
        "coder": "census",
        "normalized_address": "121 W CENTRAL ST, NATICK, MA, 01760",
        "lat": "42.283651",
        "long": "-71.369312"
    },
    "325 NORTH MAIN ST": {
        "coder": "census",
        "normalized_address": "325 N MAIN ST, NATICK, MA, 01760",
        "lat": "42.313549",
        "long": "-71.360260"
    },
    "[NAT 75] NATICK- WELLESLEY VETERINARY HOSPITAL - 359 WORCESTER ST": {
        "coder": "census",
        "normalized_address": "359 WORCESTER ST, WELLESLEY HILLS, MA, 02481",
        "lat": "42.314806",
        "long": "-71.267133"
    },
    " 1 MALL RD": {
        "coder": "census",
        "normalized_address": "1 MILL ST, NATICK, MA, 01760",
        "lat": "42.278235",
        "long": "-71.376336"
    },
    "[NAT 55] 5 WETHERSFIELD RD BLDG - 5 WETHERSFIELD RD": {
        "coder": "census",
        "normalized_address": "5 WETHERSFIELD RD, NATICK, MA, 01760",
        "lat": "42.302483",
        "long": "-71.352197"
    },
    "[NAT 3929] AFC URGENT CARE - 945 WORCESTER ST": {
        "coder": "census",
        "normalized_address": "945 WORCESTER ST, NATICK, MA, 01760",
        "lat": "42.299779",
        "long": "-71.362621"
    },
    "[NAT 943] DALLAMORA REALTY - 987 WORCESTER ST": {
        "coder": "census",
        "normalized_address": "987 WORCESTER ST, NATICK, MA, 01760",
        "lat": "42.299642",
        "long": "-71.363702"
    },
    "203 SPEEN ST": {
        "coder": "census",
        "normalized_address": "203 SPEEN ST, NATICK, MA, 01760",
        "lat": "42.290863",
        "long": "-71.376123"
    },
    "205 SPEEN ST ": {
        "coder": "census",
        "normalized_address": "205 SPEEN ST, NATICK, MA, 01760",
        "lat": "42.291260",
        "long": "-71.376223"
    },
    " 1 HERITAGE LN": {
        "coder": "census",
        "normalized_address": "1 HERITAGE LN, NATICK, MA, 01760",
        "lat": "42.291101",
        "long": "-71.359671"
    },
    "44 CURVE ST": {
        "coder": "census",
        "normalized_address": "44 CURVE ST, NATICK, MA, 01760",
        "lat": "42.276618",
        "long": "-71.356431"
    },
    "[NAT 1994] VICTORIA'S SECRETS - 1245 WORCESTER ST Apt. #1070": {
        "coder": "census",
        "normalized_address": "1245 WORCESTER ST, NATICK, MA, 01760",
        "lat": "42.299500",
        "long": "-71.377749"
    },
    "11 REYNOLDS AVE": {
        "coder": "census",
        "normalized_address": "11 REYNOLDS AVE, NATICK, MA, 01760",
        "lat": "42.280641",
        "long": "-71.355058"
    },
    "162 HARTFORD ST": {
        "coder": "census",
        "normalized_address": "162 HARTFORD ST, NATICK, MA, 01760",
        "lat": "42.290821",
        "long": "-71.395367"
    },
    "197 WEST CENTRAL ST": {
        "coder": "census",
        "normalized_address": "197 W CENTRAL ST, NATICK, MA, 01760",
        "lat": "42.282015",
        "long": "-71.389705"
    },
    "49 WASHINGTON ST": {
        "coder": "census",
        "normalized_address": "49 WASHINGTON ST, NATICK, MA, 01760",
        "lat": "42.287212",
        "long": "-71.346812"
    },
    "[NAT 3984] BRANDON SCHOOL HOUSE 2 - 27 WINTER ST": {
        "coder": "census",
        "normalized_address": "27 WINTER ST, WAYLAND, MA, 01778",
        "lat": "42.319975",
        "long": "-71.362971"
    },
    "328 WEST CENTRAL ST ": {
        "coder": "census",
        "normalized_address": "328 W CENTRAL ST, NATICK, MA, 01760",
        "lat": "42.280882",
        "long": "-71.397870"
    },
    "[NAT 2662] 44 EAST CENTRAL ST ": {
        "coder": "census",
        "normalized_address": "44 E CENTRAL ST, NATICK, MA, 01760",
        "lat": "42.284610",
        "long": "-71.343196"
    },
    "[NAT 995] ELIOT CHURCH - 49 ELIOT ST": {
        "coder": "census",
        "normalized_address": "49 ELIOT ST, NATICK, MA, 01760",
        "lat": "42.273949",
        "long": "-71.315012"
    },
    "[NAT 181] 117 NORTH AVE - 117 NORTH AVE": {
        "coder": "census",
        "normalized_address": "117 NORTH AVE, NATICK, MA, 01760",
        "lat": "42.287353",
        "long": "-71.339624"
    },
    "46 COTTAGE ST": {
        "coder": "census",
        "normalized_address": "46 COTTAGE ST, NATICK, MA, 01760",
        "lat": "42.276146",
        "long": "-71.346175"
    },
    "[NAT 3314] J.J. LANE PARK - 185 SPEEN ST": {
        "coder": "census",
        "normalized_address": "185 SPEEN ST, NATICK, MA, 01760",
        "lat": "42.282216",
        "long": "-71.375839"
    },
    "[NAT 728] BOX 6113 - 81 HARTFORD ST": {
        "coder": "census",
        "normalized_address": "81 HARTFORD ST, NATICK, MA, 01760",
        "lat": "42.293633",
        "long": "-71.384642"
    },
    "7 SHATTUCK ST ": {
        "coder": "census",
        "normalized_address": "7 SHATTUCK ST, NATICK, MA, 01760",
        "lat": "42.289265",
        "long": "-71.347154"
    },
    "[NAT 3697] HADLOCK LAW OFFICE P.C. - 679 WORCESTER ST": {
        "coder": "census",
        "normalized_address": "679 WORCESTER ST, WELLESLEY HILLS, MA, 02481",
        "lat": "42.306325",
        "long": "-71.295843"
    },
    "[NAT 4325] MUFFIN HOUSE CAFE - 325 NORTH MAIN ST": {
        "coder": "census",
        "normalized_address": "325 N MAIN ST, NATICK, MA, 01760",
        "lat": "42.313549",
        "long": "-71.360260"
    },
    "575 WORCESTER ST": {
        "coder": "census",
        "normalized_address": "575 WORCESTER ST, WELLESLEY HILLS, MA, 02481",
        "lat": "42.308812",
        "long": "-71.285197"
    },
    "51 ELIOT ST ": {
        "coder": "census",
        "normalized_address": "51 ELIOT ST, NATICK, MA, 01760",
        "lat": "42.273675",
        "long": "-71.315396"
    },
    "41 BROOKDALE RD": {
        "coder": "census",
        "normalized_address": "41 BROOKDALE RD, NATICK, MA, 01760",
        "lat": "42.286473",
        "long": "-71.395151"
    },
    "[NAT 3830] 264 NORTH MAIN ST": {
        "coder": "census",
        "normalized_address": "264 N MAIN ST, NATICK, MA, 01760",
        "lat": "42.307221",
        "long": "-71.361863"
    },
    "[NAT 865] CVS PHARMACY 2125 - 137 WEST CENTRAL ST": {
        "coder": "census",
        "normalized_address": "137 W CENTRAL ST, NATICK, MA, 01760",
        "lat": "42.283147",
        "long": "-71.372361"
    },
    "17 WALDEN DR Apt. #2": {
        "coder": "census",
        "normalized_address": "17 WALDEN DR, NATICK, MA, 01760",
        "lat": "42.276787",
        "long": "-71.387309"
    },
    "[NAT 1011] TEMPLE ISRAEL - 145 HARTFORD ST": {
        "coder": "census",
        "normalized_address": "145 HARTFORD ST, FRAMINGHAM, MA, 01702",
        "lat": "42.291216",
        "long": "-71.403048"
    },
    "29 BURNING TREE RD": {
        "coder": "census",
        "normalized_address": "29 BURNING TREE RD, NATICK, MA, 01760",
        "lat": "42.283882",
        "long": "-71.388663"
    },
    "167 SOUTH MAIN ST ": {
        "coder": "census",
        "normalized_address": "167 S MAIN ST, NATICK, MA, 01760",
        "lat": "42.272026",
        "long": "-71.354650"
    },
    "159 SOUTH MAIN ST": {
        "coder": "census",
        "normalized_address": "159 S MAIN ST, NATICK, MA, 01760",
        "lat": "42.272778",
        "long": "-71.354046"
    },
    "99 NORTH MAIN ST": {
        "coder": "census",
        "normalized_address": "99 N MAIN ST, NATICK, MA, 01760",
        "lat": "42.290853",
        "long": "-71.355512"
    },
    "12 WINNEMAY ST": {
        "coder": "census",
        "normalized_address": "12 WINNEMAY ST, NATICK, MA, 01760",
        "lat": "42.288731",
        "long": "-71.349178"
    },
    "2 DURANT RD": {
        "coder": "census",
        "normalized_address": "2 DURANT RD, NATICK, MA, 01760",
        "lat": "42.275129",
        "long": "-71.360601"
    },
    "2 WELLS ST": {
        "coder": "census",
        "normalized_address": "2 WELLS ST, NATICK, MA, 01760",
        "lat": "42.304531",
        "long": "-71.333842"
    },
    "3 HERITAGE LN": {
        "coder": "census",
        "normalized_address": "3 HERITAGE LN, NATICK, MA, 01760",
        "lat": "42.291120",
        "long": "-71.359667"
    },
    "1 SUPERIOR DR ": {
        "coder": "census",
        "normalized_address": "1 SUPERIOR DR, NATICK, MA, 01760",
        "lat": "42.301616",
        "long": "-71.377867"
    },
    "[NAT 2976] 548 WORCESTER ST - 548 WORCESTER ST": {
        "coder": "census",
        "normalized_address": "548 WORCESTER ST, NATICK, MA, 01760",
        "lat": "42.301315",
        "long": "-71.346613"
    },
    "263 SPEEN ST": {
        "coder": "census",
        "normalized_address": "263 SPEEN ST, NATICK, MA, 01760",
        "lat": "42.296862",
        "long": "-71.377250"
    },
    "BEN HEM - 18 EAST EVERGREEN RD": {
        "coder": "census",
        "normalized_address": "18 E EVERGREEN RD, NATICK, MA, 01760",
        "lat": "42.307380",
        "long": "-71.360196"
    },
    "52 CEDAR AVE": {
        "coder": "census",
        "normalized_address": "52 CEDAR AVE, NATICK, MA, 01760",
        "lat": "42.276258",
        "long": "-71.356567"
    },
    "51 POND ST": {
        "coder": "census",
        "normalized_address": "51 POND ST, NATICK, MA, 01760",
        "lat": "42.282039",
        "long": "-71.351297"
    },
    "60 BENNETT ST": {
        "coder": "census",
        "normalized_address": "60 BENNETT ST, NATICK, MA, 01760",
        "lat": "42.275641",
        "long": "-71.355393"
    },
    "[NAT 4049] ROCHE BOBOIS - 395 WORCESTER ST": {
        "coder": "census",
        "normalized_address": "395 WORCESTER ST, WELLESLEY HILLS, MA, 02481",
        "lat": "42.314564",
        "long": "-71.269575"
    },
    "[NAT 4001] TODOS DANCE STUDIO - 677 WORCESTER ST": {
        "coder": "census",
        "normalized_address": "677 WORCESTER ST, WELLESLEY HILLS, MA, 02481",
        "lat": "42.306356",
        "long": "-71.295696"
    },
    "43 HARWOOD RD": {
        "coder": "census",
        "normalized_address": "43 HARWOOD RD, NATICK, MA, 01760",
        "lat": "42.307374",
        "long": "-71.339667"
    },
    "[NAT 2929] EASTERN BANK - 2 SOUTH AVE": {
        "coder": "census",
        "normalized_address": "2 SOUTH AVE, NATICK, MA, 01760",
        "lat": "42.285311",
        "long": "-71.347563"
    },
    "40 PARK AVE ": {
        "coder": "census",
        "normalized_address": "40 PARK AVE, NATICK, MA, 01760",
        "lat": "42.295118",
        "long": "-71.355403"
    },
    "262 SPEEN ST ": {
        "coder": "census",
        "normalized_address": "262 SPEEN ST, NATICK, MA, 01760",
        "lat": "42.297144",
        "long": "-71.377679"
    },
    "[WEL] 978 WORCESTER ST Apt. #408": {
        "coder": "census",
        "normalized_address": "978 WORCESTER ST, NATICK, MA, 01760",
        "lat": "42.299141",
        "long": "-71.366062"
    },
    "[NAT 3378] 40 SPEEN ST - 40 SPEEN ST": {
        "coder": "census",
        "normalized_address": "40 SPEEN ST, NATICK, MA, 01760",
        "lat": "42.274053",
        "long": "-71.378927"
    },
    "[NAT 4343] COSTARELLI RESIDENCE - 16 PORTER RD": {
        "coder": "census",
        "normalized_address": "16 PORTER RD, NATICK, MA, 01760",
        "lat": "42.293280",
        "long": "-71.391725"
    },
    "[NAT 47] 6 UNION ST OFFICE BLDG - 6 UNION ST": {
        "coder": "census",
        "normalized_address": "6 UNION ST, NATICK, MA, 01760",
        "lat": "42.284639",
        "long": "-71.339960"
    },
    "[NAT 920] FOOD COURT - 1245 WORCESTER ST": {
        "coder": "census",
        "normalized_address": "1245 WORCESTER ST, NATICK, MA, 01760",
        "lat": "42.299500",
        "long": "-71.377749"
    },
    "[NAT 3111] CLOVERLEAF APARTMENTS - 325 SPEEN ST Apt. #314": {
        "coder": "census",
        "normalized_address": "325 SPEEN ST, NATICK, MA, 01760",
        "lat": "42.301020",
        "long": "-71.379948"
    },
    "[NAT 3165] APPLE STORE - 1245 WORCESTER ST Apt. #3082": {
        "coder": "census",
        "normalized_address": "1245 WORCESTER ST, NATICK, MA, 01760",
        "lat": "42.299500",
        "long": "-71.377749"
    },
    "[NAT 24] RAMP FROM RT9 WEST TO NORTH MAIN ST NORTH - RAMP - RT9 WB TO RT27 NB": {
        "coder": "census",
        "normalized_address": "9 N MAIN ST, NATICK, MA, 01760",
        "lat": "42.286082",
        "long": "-71.348580"
    },
    "11 CLEARVIEW DR": {
        "coder": "census",
        "normalized_address": "11 CLEARVIEW DR, NATICK, MA, 01760",
        "lat": "42.273942",
        "long": "-71.337409"
    },
    "23 WEST ST ": {
        "coder": "census",
        "normalized_address": "23 WEST ST, NATICK, MA, 01760",
        "lat": "42.276756",
        "long": "-71.359396"
    },
    "33 EVERGREEN RD": {
        "coder": "census",
        "normalized_address": "33 EVERGREEN RD, NATICK, MA, 01760",
        "lat": "42.308342",
        "long": "-71.365909"
    },
    "21 OAK ST": {
        "coder": "census",
        "normalized_address": "21 OAKLAND ST EXD, NATICK, MA, 01760",
        "lat": "42.276439",
        "long": "-71.357445"
    },
    "42 WORCESTER ST": {
        "coder": "census",
        "normalized_address": "42 WORCESTER ST, NATICK, MA, 01760",
        "lat": "42.304053",
        "long": "-71.329029"
    },
    "[NAT 1128] NATIONAL GUARD READINESS CENTER - 149 SPEEN ST": {
        "coder": "census",
        "normalized_address": "149 SPEEN ST, NATICK, MA, 01760",
        "lat": "42.280774",
        "long": "-71.376059"
    },
    "25 GROVE ST": {
        "coder": "census",
        "normalized_address": "25 GROVE ST, NATICK, MA, 01760",
        "lat": "42.290837",
        "long": "-71.350306"
    },
    "20 LAKEVIEW GARDENS Apt. #816": {
        "coder": "census",
        "normalized_address": "20 LAKEVIEW AVE, NATICK, MA, 01760",
        "lat": "42.275652",
        "long": "-71.369569"
    },
    "12 WILLOW ST": {
        "coder": "census",
        "normalized_address": "12 WILLOW ST, NATICK, MA, 01760",
        "lat": "42.287629",
        "long": "-71.348862"
    },
    "[NAT 68] MCDONALDS, RT 9 EASTBOUND - 290 WORCESTER ST": {
        "coder": "census",
        "normalized_address": "290 WORCESTER ST, NATICK, MA, 01760",
        "lat": "42.301963",
        "long": "-71.340499"
    },
    "[NAT 3219] L'OCCITANE - 1245 WORCESTER ST Apt. #3004": {
        "coder": "census",
        "normalized_address": "1245 WORCESTER ST, NATICK, MA, 01760",
        "lat": "42.299500",
        "long": "-71.377749"
    },
    "[NAT 3514] CARTERS BABIES & KIDS - 1300 WORCESTER ST Apt. #A": {
        "coder": "census",
        "normalized_address": "1300 WORCESTER ST, NATICK, MA, 01760",
        "lat": "42.298923",
        "long": "-71.387227"
    },
    "[NAT 3111] CLOVERLEAF APARTMENTS - 325 SPEEN ST Apt. #1002": {
        "coder": "census",
        "normalized_address": "325 SPEEN ST, NATICK, MA, 01760",
        "lat": "42.301020",
        "long": "-71.379948"
    },
    "1270 WORCESTER ST": {
        "coder": "census",
        "normalized_address": "1270 WORCESTER ST, NATICK, MA, 01760",
        "lat": "42.298927",
        "long": "-71.387165"
    },
    "[NAT 3780] 1245 WORCESTER ST Apt. #2084": {
        "coder": "census",
        "normalized_address": "1245 WORCESTER ST, NATICK, MA, 01760",
        "lat": "42.299500",
        "long": "-71.377749"
    },
    "25 WEST CENTRAL ST": {
        "coder": "census",
        "normalized_address": "25 W CENTRAL ST, NATICK, MA, 01760",
        "lat": "42.283594",
        "long": "-71.349349"
    },
    "21 PARK AVE": {
        "coder": "census",
        "normalized_address": "21 PARK AVE, NATICK, MA, 01760",
        "lat": "42.292889",
        "long": "-71.354726"
    },
    "[NAT 1986] SUNGLASS HUT - 1245 WORCESTER ST Apt. #2024": {
        "coder": "census",
        "normalized_address": "1245 WORCESTER ST, NATICK, MA, 01760",
        "lat": "42.299500",
        "long": "-71.377749"
    },
    "[NAT 3747] ZAFTIGS WEST - 1298 WORCESTER ST Apt. #G": {
        "coder": "census",
        "normalized_address": "1298 WORCESTER ST, NATICK, MA, 01760",
        "lat": "42.298923",
        "long": "-71.387223"
    },
    "315 NORTH MAIN ST": {
        "coder": "census",
        "normalized_address": "315 N MAIN ST, NATICK, MA, 01760",
        "lat": "42.312576",
        "long": "-71.360270"
    },
    "226 SOUTH MAIN ST ": {
        "coder": "census",
        "normalized_address": "226 S MAIN ST, NATICK, MA, 01760",
        "lat": "42.264835",
        "long": "-71.361133"
    },
    "[NAT 3019] MACY'S - 1247 WORCESTER ST": {
        "coder": "census",
        "normalized_address": "1247 WORCESTER ST, NATICK, MA, 01760",
        "lat": "42.299501",
        "long": "-71.377795"
    },
    "106 SPEEN ST": {
        "coder": "census",
        "normalized_address": "106 SPEEN ST, NATICK, MA, 01760",
        "lat": "42.283873",
        "long": "-71.375448"
    },
    "[NAT 655] LONGFELLOW SPORTS CLUB - 203 OAK ST": {
        "coder": "census",
        "normalized_address": "203 OAK ST, NATICK, MA, 01760",
        "lat": "42.314370",
        "long": "-71.339228"
    },
    "[NAT 3837] BILL'S PIZZERIA - 58 EAST CENTRAL ST": {
        "coder": "census",
        "normalized_address": "58 E CENTRAL ST, NATICK, MA, 01760",
        "lat": "42.284902",
        "long": "-71.341734"
    },
    "7 VILLAGE WAY Apt. #3": {
        "coder": "census",
        "normalized_address": "7 VILLAGE WAY, NATICK, MA, 01760",
        "lat": "42.280462",
        "long": "-71.390167"
    },
    "[NAT 3814] JD SPORTS (FORMER FINISH LINE) - 1245 WORCESTER ST Apt. #1020": {
        "coder": "census",
        "normalized_address": "1245 WORCESTER ST, NATICK, MA, 01760",
        "lat": "42.299500",
        "long": "-71.377749"
    },
    "[NAT 4342] ARHAUS FURNITURE - 323 SPEEN ST": {
        "coder": "census",
        "normalized_address": "323 SPEEN ST, NATICK, MA, 01760",
        "lat": "42.301016",
        "long": "-71.379945"
    },
    "178 S MAIN ST ": {
        "coder": "census",
        "normalized_address": "178 S MAIN ST, NATICK, MA, 01760",
        "lat": "42.271767",
        "long": "-71.354674"
    },
    "125 NORTH MAIN ST": {
        "coder": "census",
        "normalized_address": "125 N MAIN ST, NATICK, MA, 01760",
        "lat": "42.293155",
        "long": "-71.357431"
    },
    "535 WORCESTER ST": {
        "coder": "census",
        "normalized_address": "535 WORCESTER ST, WELLESLEY HILLS, MA, 02481",
        "lat": "42.309747",
        "long": "-71.282890"
    },
    "18 TAMARACK RD": {
        "coder": "census",
        "normalized_address": "18 TAMARACK RD, NATICK, MA, 01760",
        "lat": "42.283459",
        "long": "-71.393855"
    },
    "[NAT 1532] 28 WEST CENTRAL ST - 28 WEST CENTRAL ST Apt. #2": {
        "coder": "census",
        "normalized_address": "28 W CENTRAL ST, NATICK, MA, 01760",
        "lat": "42.283347",
        "long": "-71.350251"
    },
    "5 PINE ST ": {
        "coder": "census",
        "normalized_address": "5 PINE ST, NATICK, MA, 01760",
        "lat": "42.314252",
        "long": "-71.359736"
    },
    "[NAT 3287] NORDSTROM - 290 SPEEN ST": {
        "coder": "census",
        "normalized_address": "290 SPEEN ST, NATICK, MA, 01760",
        "lat": "42.299269",
        "long": "-71.379049"
    },
    "66 WELLESLEY ROAD EXT": {
        "coder": "census",
        "normalized_address": "66 WELLESLEY RD EXD, NATICK, MA, 01760",
        "lat": "42.307176",
        "long": "-71.332126"
    },
    "[NAT 435] CENTER FOR THE ARTS (TCAN) - 14 SUMMER ST": {
        "coder": "census",
        "normalized_address": "14 SUMMER ST, NATICK, MA, 01760",
        "lat": "42.284470",
        "long": "-71.348222"
    },
    "101 NORTH MAIN ST": {
        "coder": "census",
        "normalized_address": "101 N MAIN ST, NATICK, MA, 01760",
        "lat": "42.291087",
        "long": "-71.355793"
    },
    "[NAT 1203] CLARKS BLOCK - 2 SUMMER ST": {
        "coder": "census",
        "normalized_address": "2 SUMMER ST, NATICK, MA, 01760",
        "lat": "42.284561",
        "long": "-71.347539"
    },
    "2 SUMMER ST": {
        "coder": "census",
        "normalized_address": "2 SUMMER ST, NATICK, MA, 01760",
        "lat": "42.284561",
        "long": "-71.347539"
    },
    "17 WALCOTT ST": {
        "coder": "census",
        "normalized_address": "17 WALCOTT ST, NATICK, MA, 01760",
        "lat": "42.278094",
        "long": "-71.348300"
    },
    "49 HARTFORD ST": {
        "coder": "census",
        "normalized_address": "49 HARTFORD ST, NATICK, MA, 01760",
        "lat": "42.295443",
        "long": "-71.381366"
    },
    "RAMP - SPEEN ST TO RT9 EB": {
        "coder": "census",
        "normalized_address": "9 EAST ST, NATICK, MA, 01760",
        "lat": "42.281561",
        "long": "-71.346182"
    },
    "[NAT 3925] NIC AND ZOE - 323 SPEEN ST Apt. #ST": {
        "coder": "census",
        "normalized_address": "323 SPEEN ST, NATICK, MA, 01760",
        "lat": "42.301016",
        "long": "-71.379945"
    },
    "5 FRANKLIN ST": {
        "coder": "census",
        "normalized_address": "5 FRANKLIN ST, NATICK, MA, 01760",
        "lat": "42.286357",
        "long": "-71.345575"
    },
    "13 CHARLES ST ": {
        "coder": "census",
        "normalized_address": "13 CHARLES ST, NATICK, MA, 01760",
        "lat": "42.290967",
        "long": "-71.351869"
    },
    "209 EAST CENTRAL ST": {
        "coder": "census",
        "normalized_address": "209 E CENTRAL ST, NATICK, MA, 01760",
        "lat": "42.290221",
        "long": "-71.328261"
    },
    "23 WESTFIELD RD": {
        "coder": "census",
        "normalized_address": "23 WESTFIELD RD, NATICK, MA, 01760",
        "lat": "42.284197",
        "long": "-71.380295"
    },
    "113 SPEEN ST ": {
        "coder": "census",
        "normalized_address": "113 SPEEN ST, NATICK, MA, 01760",
        "lat": "42.279339",
        "long": "-71.376253"
    },
    "32 CLUBHOUSE LN": {
        "coder": "census",
        "normalized_address": "32 CLUBHOUSE LN, WAYLAND, MA, 01778",
        "lat": "42.328620",
        "long": "-71.334955"
    },
    "29 COACHMAN LN": {
        "coder": "census",
        "normalized_address": "29 COACHMAN LN, NATICK, MA, 01760",
        "lat": "42.294123",
        "long": "-71.396371"
    },
    " 130 NORTH MAIN ST": {
        "coder": "census",
        "normalized_address": "130 N MAIN ST, NATICK, MA, 01760",
        "lat": "42.293854",
        "long": "-71.357866"
    },
    "11 WINTER ST": {
        "coder": "census",
        "normalized_address": "11 WINTER ST, NATICK, MA, 01760",
        "lat": "42.318762",
        "long": "-71.340707"
    },
    "9 BEVERLY RD": {
        "coder": "census",
        "normalized_address": "9 BEVERLY RD, NATICK, MA, 01760",
        "lat": "42.306074",
        "long": "-71.333711"
    },
    "6 VILLAGE HILL LN": {
        "coder": "census",
        "normalized_address": "6 VILLAGE HILL LN, NATICK, MA, 01760",
        "lat": "42.277322",
        "long": "-71.394570"
    },
    "[NAT 301] NATICK VILLAGE - CONDO OFFICE - 18 VILLAGE WAY": {
        "coder": "census",
        "normalized_address": "18 VILLAGE WAY, NATICK, MA, 01760",
        "lat": "42.280298",
        "long": "-71.390150"
    },
    "[NAT 1511] MONTICELLO MOTEL - 1446 WORCESTER ST Apt. #124": {
        "coder": "census",
        "normalized_address": "1446 WORCESTER ST, NATICK, MA, 01760",
        "lat": "42.298763",
        "long": "-71.391695"
    },
    "25 HUNTERS LN": {
        "coder": "census",
        "normalized_address": "25 HUNTERS LN, NATICK, MA, 01760",
        "lat": "42.272465",
        "long": "-71.351518"
    },
    "CHANG DENTAL GROUP - 220 NORTH MAIN ST": {
        "coder": "census",
        "normalized_address": "220 N MAIN ST, NATICK, MA, 01760",
        "lat": "42.304181",
        "long": "-71.361611"
    },
    "175 OAK ST ": {
        "coder": "census",
        "normalized_address": "175 OAK ST, NATICK, MA, 01760",
        "lat": "42.311705",
        "long": "-71.334892"
    },
    "[NAT 671] CROSS SERVICES GROUP INC - 19 TECH CIR": {
        "coder": "census",
        "normalized_address": "19 TECH CIR, NATICK, MA, 01760",
        "lat": "42.313874",
        "long": "-71.337741"
    },
    "15 WALDEN DR Apt. #14": {
        "coder": "census",
        "normalized_address": "15 WALDEN DR, NATICK, MA, 01760",
        "lat": "42.276767",
        "long": "-71.387344"
    },
    "8 OAK ST": {
        "coder": "census",
        "normalized_address": "8 OAK ST, NATICK, MA, 01760",
        "lat": "42.295187",
        "long": "-71.328983"
    },
    "226 OAK ST": {
        "coder": "census",
        "normalized_address": "226 OAK ST, NATICK, MA, 01760",
        "lat": "42.316502",
        "long": "-71.340981"
    },
    "33 EAST EVERGREEN RD": {
        "coder": "census",
        "normalized_address": "33 E EVERGREEN RD, NATICK, MA, 01760",
        "lat": "42.306727",
        "long": "-71.356197"
    },
    "[NAT 2653] CAMP ARROWHEAD - 1055 WORCESTER ST": {
        "coder": "census",
        "normalized_address": "1055 WORCESTER ST, NATICK, MA, 01760",
        "lat": "42.299422",
        "long": "-71.365450"
    },
    "[NAT 2371] SHERWOOD PLAZA (WEST) - 1298 WORCESTER ST": {
        "coder": "census",
        "normalized_address": "1298 WORCESTER ST, NATICK, MA, 01760",
        "lat": "42.298923",
        "long": "-71.387223"
    },
    "38 BENNETT ST": {
        "coder": "census",
        "normalized_address": "38 BENNETT ST, NATICK, MA, 01760",
        "lat": "42.275350",
        "long": "-71.354706"
    },
    "155 HARTFORD ST ": {
        "coder": "census",
        "normalized_address": "155 HARTFORD ST, NATICK, MA, 01760",
        "lat": "42.290774",
        "long": "-71.393834"
    },
    "329 SPEEN ST ": {
        "coder": "census",
        "normalized_address": "329 SPEEN ST, NATICK, MA, 01760",
        "lat": "42.301028",
        "long": "-71.379952"
    },
    "1 WEST CENTRAL ST ": {
        "coder": "census",
        "normalized_address": "1 W CENTRAL ST, NATICK, MA, 01760",
        "lat": "42.283832",
        "long": "-71.347361"
    },
    "[DRA] 59 MILL ST": {
        "coder": "census",
        "normalized_address": "59 MILL ST, NATICK, MA, 01760",
        "lat": "42.282329",
        "long": "-71.380422"
    },
    "46 WESTLAKE RD": {
        "coder": "census",
        "normalized_address": "46 WESTLAKE RD, NATICK, MA, 01760",
        "lat": "42.309886",
        "long": "-71.358292"
    },
    "[NAT 1811] A D COLA LIGHTING - 86 WORCESTER ST": {
        "coder": "census",
        "normalized_address": "86 WORCESTER ST, NATICK, MA, 01760",
        "lat": "42.303863",
        "long": "-71.330327"
    },
    "44 BRADFORD RD": {
        "coder": "census",
        "normalized_address": "44 BRADFORD RD, NATICK, MA, 01760",
        "lat": "42.310653",
        "long": "-71.347549"
    },
    "48 SILVER HILL LN Apt. #16": {
        "coder": "census",
        "normalized_address": "48 SILVER HILL LN, NATICK, MA, 01760",
        "lat": "42.277903",
        "long": "-71.384684"
    },
    "[NAT 4184] DAVE AND BUSTERS-2ND FLOOR - 1235 WORCESTER ST Apt. #200": {
        "coder": "census",
        "normalized_address": "1235 WORCESTER ST, NATICK, MA, 01760",
        "lat": "42.299493",
        "long": "-71.377519"
    },
    "[NAT 4160] ALDI - 321 SPEEN ST": {
        "coder": "census",
        "normalized_address": "321 SPEEN ST, NATICK, MA, 01760",
        "lat": "42.301013",
        "long": "-71.379943"
    },
    "120 HARTFORD ST ": {
        "coder": "census",
        "normalized_address": "120 HARTFORD ST, NATICK, MA, 01760",
        "lat": "42.291854",
        "long": "-71.389420"
    },
    "88 CEDAR AVE Apt. #B": {
        "coder": "census",
        "normalized_address": "88 CEDAR ST, NATICK, MA, 01760",
        "lat": "42.276828",
        "long": "-71.315838"
    },
    "17 PROCTOR ST": {
        "coder": "census",
        "normalized_address": "17 PROCTOR ST, NATICK, MA, 01760",
        "lat": "42.273270",
        "long": "-71.370573"
    },
    "164 MILL ST": {
        "coder": "census",
        "normalized_address": "164 MILL ST, NATICK, MA, 01760",
        "lat": "42.289061",
        "long": "-71.385185"
    },
    "52 NORTH AVE Apt. #1": {
        "coder": "census",
        "normalized_address": "52 NORTH AVE, NATICK, MA, 01760",
        "lat": "42.286388",
        "long": "-71.345165"
    },
    "[NAT 4025] TOTAL WINE AND MORE - 321 SPEEN ST": {
        "coder": "census",
        "normalized_address": "321 SPEEN ST, NATICK, MA, 01760",
        "lat": "42.301013",
        "long": "-71.379943"
    },
    "5 LAKEVIEW GARDENS Apt. #307": {
        "coder": "census",
        "normalized_address": "5 LAKEVIEW AVE, NATICK, MA, 01760",
        "lat": "42.277552",
        "long": "-71.370192"
    },
    "52 NORTH AVE": {
        "coder": "census",
        "normalized_address": "52 NORTH AVE, NATICK, MA, 01760",
        "lat": "42.286388",
        "long": "-71.345165"
    },
    "[NAT 610] ATTY RICHARD A GLASER - 279 WEST CENTRAL ST": {
        "coder": "census",
        "normalized_address": "279 W CENTRAL ST, NATICK, MA, 01760",
        "lat": "42.281799",
        "long": "-71.393053"
    },
    "[NAT 1100] WEST NATICK FIRE STATION - 268 SPEEN ST": {
        "coder": "census",
        "normalized_address": "268 SPEEN ST, NATICK, MA, 01760",
        "lat": "42.297170",
        "long": "-71.377703"
    },
    " 3 GIBSON RD": {
        "coder": "census",
        "normalized_address": "3 GIBSON RD, NATICK, MA, 01760",
        "lat": "42.290109",
        "long": "-71.395177"
    },
    "[NAT 66] STAPLES OFFICE SUPPLIES - 881 WORCESTER ST": {
        "coder": "census",
        "normalized_address": "881 WORCESTER ST, WELLESLEY, MA, 02482",
        "lat": "42.305408",
        "long": "-71.313606"
    },
    "[NAT 3491] 139 EVERETT ST - 139 EVERETT ST": {
        "coder": "census",
        "normalized_address": "139 EVERETT ST, NATICK, MA, 01760",
        "lat": "42.259746",
        "long": "-71.354457"
    },
    "11 GROVE RD": {
        "coder": "census",
        "normalized_address": "11 GROVE RD, NATICK, MA, 01760",
        "lat": "42.302727",
        "long": "-71.327272"
    },
    "[NAT 2662] NATICK FIRE DEPARTMENT - 22 EAST CENTRAL ST": {
        "coder": "census",
        "normalized_address": "22 E CENTRAL ST, NATICK, MA, 01760",
        "lat": "42.284254",
        "long": "-71.345093"
    },
    "116 POND ST": {
        "coder": "census",
        "normalized_address": "116 POND ST, NATICK, MA, 01760",
        "lat": "42.279971",
        "long": "-71.359544"
    },
    "24 PHILLIPS POND RD": {
        "coder": "census",
        "normalized_address": "24 PHILLIPS POND RD, NATICK, MA, 01760",
        "lat": "42.258734",
        "long": "-71.317350"
    },
    "[NAT 4037] LA FITNESS - 1 DEAN RD": {
        "coder": "census",
        "normalized_address": "1 DEAN RD, NATICK, MA, 01760",
        "lat": "42.296920",
        "long": "-71.387206"
    },
    "7 MORGAN DR Apt. #301": {
        "coder": "census",
        "normalized_address": "7 MORGAN DR, NATICK, MA, 01760",
        "lat": "42.266036",
        "long": "-71.354032"
    },
    "3 LINCOLN CIR": {
        "coder": "census",
        "normalized_address": "3 LINCOLN CIR, NATICK, MA, 01760",
        "lat": "42.279766",
        "long": "-71.340968"
    },
    "242 SPEEN ST": {
        "coder": "census",
        "normalized_address": "242 SPEEN ST, NATICK, MA, 01760",
        "lat": "42.294937",
        "long": "-71.376894"
    },
    "10 MORSE ST Apt. #B": {
        "coder": "census",
        "normalized_address": "10 MORSE ST, NATICK, MA, 01760",
        "lat": "42.283052",
        "long": "-71.344593"
    },
    "[NAT 3] RAMP FROM RT9 WEST TO SPEEN ST NORTH - RAMP - RT9 WB TO SPEEN ST": {
        "coder": "census",
        "normalized_address": "9 SPEEN ST, NATICK, MA, 01760",
        "lat": "42.270720",
        "long": "-71.381262"
    },
    "192 WORCESTER ST": {
        "coder": "census",
        "normalized_address": "192 WORCESTER ST, NATICK, MA, 01760",
        "lat": "42.302957",
        "long": "-71.334028"
    },
    "44 NORTH MAIN ST": {
        "coder": "census",
        "normalized_address": "44 N MAIN ST, NATICK, MA, 01760",
        "lat": "42.288033",
        "long": "-71.350178"
    },
    "167 HARTFORD ST": {
        "coder": "census",
        "normalized_address": "167 HARTFORD ST, NATICK, MA, 01760",
        "lat": "42.291154",
        "long": "-71.396557"
    },
    "168 CEDAR TER Apt. #A": {
        "coder": "census",
        "normalized_address": "168 CEDAR TER, NATICK, MA, 01760",
        "lat": "42.273839",
        "long": "-71.356938"
    },
    "180 MILL ST": {
        "coder": "census",
        "normalized_address": "180 MILL ST, NATICK, MA, 01760",
        "lat": "42.289942",
        "long": "-71.387132"
    },
    "[NAT 2388] CARR JOHN ASSOCIATES - 971 WORCESTER ST": {
        "coder": "census",
        "normalized_address": "971 WORCESTER ST, NATICK, MA, 01760",
        "lat": "42.299695",
        "long": "-71.363290"
    },
    "180 HARTFORD ST": {
        "coder": "census",
        "normalized_address": "180 HARTFORD ST, NATICK, MA, 01760",
        "lat": "42.291988",
        "long": "-71.398994"
    },
    "[NAT 1541] METROWEST SUBARU LLC - 948 WORCESTER ST": {
        "coder": "census",
        "normalized_address": "948 WORCESTER ST, NATICK, MA, 01760",
        "lat": "42.299337",
        "long": "-71.364467"
    },
    "[NAT 3590] TILES PLUS MORE - 309 WORCESTER ST": {
        "coder": "census",
        "normalized_address": "309 WORCESTER ST, WELLESLEY HILLS, MA, 02481",
        "lat": "42.314519",
        "long": "-71.256927"
    },
    "142 SPEEN ST": {
        "coder": "census",
        "normalized_address": "142 SPEEN ST, NATICK, MA, 01760",
        "lat": "42.284979",
        "long": "-71.375377"
    },
    "71 OAK ST ": {
        "coder": "census",
        "normalized_address": "71 OAK ST, NATICK, MA, 01760",
        "lat": "42.302537",
        "long": "-71.332055"
    },
    "[NAT 1531] VFW - 113 WEST CENTRAL ST": {
        "coder": "census",
        "normalized_address": "113 W CENTRAL ST, NATICK, MA, 01760",
        "lat": "42.283857",
        "long": "-71.367763"
    },
    "177 HARTFORD ST": {
        "coder": "census",
        "normalized_address": "177 HARTFORD ST, NATICK, MA, 01760",
        "lat": "42.291667",
        "long": "-71.397955"
    },
    "103 NORTH MAIN ST": {
        "coder": "census",
        "normalized_address": "103 N MAIN ST, NATICK, MA, 01760",
        "lat": "42.291320",
        "long": "-71.356073"
    },
    "[NAT 895] 15 RUSSELL CIR - 15 RUSSELL CIR": {
        "coder": "census",
        "normalized_address": "15 RUSSELL CIR, NATICK, MA, 01760",
        "lat": "42.311452",
        "long": "-71.348815"
    },
    "97 WALNUT ST ": {
        "coder": "census",
        "normalized_address": "97 WALNUT ST, NATICK, MA, 01760",
        "lat": "42.294406",
        "long": "-71.348061"
    },
    "[NAT 1145] SUPER STOP & SHOP - 829 WORCESTER ST": {
        "coder": "census",
        "normalized_address": "829 WORCESTER ST, WELLESLEY HILLS, MA, 02481",
        "lat": "42.305625",
        "long": "-71.311027"
    },
    "21 VILLAGE ROCK LN Apt. #3": {
        "coder": "census",
        "normalized_address": "21 VILLAGE ROCK LN, NATICK, MA, 01760",
        "lat": "42.278482",
        "long": "-71.394655"
    },
    "30 PLEASANT ST": {
        "coder": "census",
        "normalized_address": "30 PLEASANT ST, NATICK, MA, 01760",
        "lat": "42.298432",
        "long": "-71.356723"
    },
    "256 SPEEN ST ": {
        "coder": "census",
        "normalized_address": "256 SPEEN ST, NATICK, MA, 01760",
        "lat": "42.296402",
        "long": "-71.376979"
    },
    "[NAT 2150] GLENWOOD CEMETARY - 1 GLENWOOD ST": {
        "coder": "census",
        "normalized_address": "1 GLENWOOD ST, NATICK, MA, 01760",
        "lat": "42.265518",
        "long": "-71.315596"
    },
    "[NAT 2044] NATICK HISTORICAL SOCIETY - 58 ELIOT ST": {
        "coder": "census",
        "normalized_address": "58 ELIOT ST, NATICK, MA, 01760",
        "lat": "42.271678",
        "long": "-71.316459"
    },
    "[NAT 941] VALVOLINE INSTANT OIL CHANGE - 891 WORCESTER ST": {
        "coder": "census",
        "normalized_address": "891 WORCESTER ST, WELLESLEY, MA, 02482",
        "lat": "42.305265",
        "long": "-71.315556"
    },
    "75 WORCESTER ST": {
        "coder": "census",
        "normalized_address": "75 WORCESTER ST, NATICK, MA, 01760",
        "lat": "42.304175",
        "long": "-71.329829"
    },
    "[NAT 3281] 9 PHEASANT HOLLOW RD - 9 PHEASANT HOLLOW RD": {
        "coder": "census",
        "normalized_address": "9 PHEASANT HOLLOW RD, NATICK, MA, 01760",
        "lat": "42.276126",
        "long": "-71.382780"
    },
    "[NAT 1494] U S PETROLEUM - 146 EAST CENTRAL ST": {
        "coder": "census",
        "normalized_address": "146 E CENTRAL ST, NATICK, MA, 01760",
        "lat": "42.286986",
        "long": "-71.335476"
    },
    "1 CENTRE ST": {
        "coder": "census",
        "normalized_address": "1 CENTRE ST, NATICK, MA, 01760",
        "lat": "42.301734",
        "long": "-71.344706"
    },
    "21 WESTFIELD RD": {
        "coder": "census",
        "normalized_address": "21 WESTFIELD RD, NATICK, MA, 01760",
        "lat": "42.284200",
        "long": "-71.380419"
    },
    "[NAT 513] U S POST OFFICE - 15 COMMON ST": {
        "coder": "census",
        "normalized_address": "15 COMMON ST, NATICK, MA, 01760",
        "lat": "42.282901",
        "long": "-71.345774"
    },
    "625 WORCESTER ST": {
        "coder": "census",
        "normalized_address": "625 WORCESTER ST, WELLESLEY HILLS, MA, 02481",
        "lat": "42.307026",
        "long": "-71.292761"
    },
    "[NAT 4356] THE PAPER STORE - 1346 WORCESTER ST": {
        "coder": "census",
        "normalized_address": "1346 WORCESTER ST, NATICK, MA, 01760",
        "lat": "42.298915",
        "long": "-71.387322"
    },
    "[NAT 425] DEBSAN WALLPAPER - 25 MAIN ST": {
        "coder": "census",
        "normalized_address": "25 MAIN ST, NATICK, MA, 01760",
        "lat": "42.284546",
        "long": "-71.347527"
    },
    "262 NORTH MAIN ST ": {
        "coder": "census",
        "normalized_address": "262 N MAIN ST, NATICK, MA, 01760",
        "lat": "42.307057",
        "long": "-71.361859"
    },
    "24 WATER ST": {
        "coder": "census",
        "normalized_address": "24 WATER ST, NATICK, MA, 01760",
        "lat": "42.272784",
        "long": "-71.311415"
    },
    "[NAT 2023] BRANDON HOUSE HOUSE 1 - 27 WINTER ST": {
        "coder": "census",
        "normalized_address": "27 WINTER ST, WAYLAND, MA, 01778",
        "lat": "42.319975",
        "long": "-71.362971"
    },
    "44 NORTH MAIN ST Apt. #3": {
        "coder": "census",
        "normalized_address": "44 N MAIN ST, NATICK, MA, 01760",
        "lat": "42.288033",
        "long": "-71.350178"
    },
    "14 BIRCH RD": {
        "coder": "census",
        "normalized_address": "14 BIRCH RD, NATICK, MA, 01760",
        "lat": "42.307957",
        "long": "-71.364027"
    },
    "790 WORCESTER ST ": {
        "coder": "census",
        "normalized_address": "790 WORCESTER ST, NATICK, MA, 01760",
        "lat": "42.300298",
        "long": "-71.356083"
    },
    "6 SPEEN ST ": {
        "coder": "census",
        "normalized_address": "6 SPEEN ST, NATICK, MA, 01760",
        "lat": "42.270932",
        "long": "-71.381197"
    },
    "[NAT 1147] AUTO ZONE - 120 WORCESTER ST": {
        "coder": "census",
        "normalized_address": "120 WORCESTER ST, NATICK, MA, 01760",
        "lat": "42.303663",
        "long": "-71.331179"
    },
    "99 HARTFORD ST": {
        "coder": "census",
        "normalized_address": "99 HARTFORD ST, NATICK, MA, 01760",
        "lat": "42.292946",
        "long": "-71.386832"
    },
    " 262 SPEEN ST": {
        "coder": "census",
        "normalized_address": "262 SPEEN ST, NATICK, MA, 01760",
        "lat": "42.297144",
        "long": "-71.377679"
    },
    "45 BEACON ST": {
        "coder": "census",
        "normalized_address": "45 BEACON ST, NATICK, MA, 01760",
        "lat": "42.295688",
        "long": "-71.353418"
    },
    "49 WASHINGTON ST ": {
        "coder": "census",
        "normalized_address": "49 WASHINGTON ST, NATICK, MA, 01760",
        "lat": "42.287212",
        "long": "-71.346812"
    },
    "[NAT 765] THEOS PIZZA - 231 NORTH MAIN ST": {
        "coder": "census",
        "normalized_address": "231 N MAIN ST, NATICK, MA, 01760",
        "lat": "42.306404",
        "long": "-71.361688"
    },
    "[NAT 771] HERB CHAMBERS MERCEDES / BMW - 253 NORTH MAIN ST": {
        "coder": "census",
        "normalized_address": "253 N MAIN ST, NATICK, MA, 01760",
        "lat": "42.307387",
        "long": "-71.361712"
    },
    "[NAT 3039] LOLA'S ITALIAN - 9 MAIN ST": {
        "coder": "census",
        "normalized_address": "9 MAIN ST, NATICK, MA, 01760",
        "lat": "42.284514",
        "long": "-71.347515"
    },
    "15 TAMARACK RD": {
        "coder": "census",
        "normalized_address": "15 TAMARACK RD, NATICK, MA, 01760",
        "lat": "42.283617",
        "long": "-71.393670"
    },
    "[NAT 692] CONNELL AND CURLEY INSURANCE - 19 WEST CENTRAL ST": {
        "coder": "census",
        "normalized_address": "19 W CENTRAL ST, NATICK, MA, 01760",
        "lat": "42.283657",
        "long": "-71.348851"
    },
    "240 NORTH MAIN ST ": {
        "coder": "census",
        "normalized_address": "240 N MAIN ST, NATICK, MA, 01760",
        "lat": "42.304637",
        "long": "-71.361660"
    },
    "69 POND ST ": {
        "coder": "census",
        "normalized_address": "69 POND ST, FRAMINGHAM, MA, 01702",
        "lat": "42.283821",
        "long": "-71.409426"
    },
    "2 SOUTH AVE ": {
        "coder": "census",
        "normalized_address": "2 SOUTH AVE, NATICK, MA, 01760",
        "lat": "42.285311",
        "long": "-71.347563"
    },
    "56 WASHINGTON AVE ": {
        "coder": "census",
        "normalized_address": "56 WASHINGTON AVE, NATICK, MA, 01760",
        "lat": "42.287941",
        "long": "-71.354194"
    },
    "8 MARION ST Apt. #1": {
        "coder": "census",
        "normalized_address": "8 MARION ST, NATICK, MA, 01760",
        "lat": "42.285684",
        "long": "-71.339788"
    },
    "4 VILLAGE GREEN LN Apt. #11": {
        "coder": "census",
        "normalized_address": "4 VILLAGE GREEN LN, NATICK, MA, 01760",
        "lat": "42.281155",
        "long": "-71.391651"
    },
    "[NAT 4125] BROOKLYN NY PIZZA - 251 WEST CENTRAL ST Apt. #12": {
        "coder": "census",
        "normalized_address": "251 W CENTRAL ST, NATICK, MA, 01760",
        "lat": "42.281827",
        "long": "-71.392458"
    },
    "[NAT 3671] SPEEDWAY (RT 9 EAST) - 230 WORCESTER ST": {
        "coder": "census",
        "normalized_address": "230 WORCESTER ST, NATICK, MA, 01760",
        "lat": "42.302531",
        "long": "-71.335773"
    },
    "[NAT 1505] WENDY'S INTERNATIONAL - 303 WEST CENTRAL ST": {
        "coder": "census",
        "normalized_address": "303 W CENTRAL ST, NATICK, MA, 01760",
        "lat": "42.281774",
        "long": "-71.393563"
    },
    "27 WEST CENTRAL ST": {
        "coder": "census",
        "normalized_address": "27 W CENTRAL ST, NATICK, MA, 01760",
        "lat": "42.283573",
        "long": "-71.349515"
    },
    "2 WESTFIELD RD ": {
        "coder": "census",
        "normalized_address": "2 WESTFIELD RD, NATICK, MA, 01760",
        "lat": "42.284508",
        "long": "-71.381291"
    },
    "[NAT 610] 279 WEST CENTRAL ST": {
        "coder": "census",
        "normalized_address": "279 W CENTRAL ST, NATICK, MA, 01760",
        "lat": "42.281799",
        "long": "-71.393053"
    },
    "8 COCHITUATE ST Apt. #2": {
        "coder": "census",
        "normalized_address": "8 COCHITUATE ST, NATICK, MA, 01760",
        "lat": "42.286206",
        "long": "-71.349729"
    },
    "[NAT 142] 24 COMMON ST Apt. #3": {
        "coder": "census",
        "normalized_address": "24 COMMON ST, NATICK, MA, 01760",
        "lat": "42.283067",
        "long": "-71.345305"
    },
    "[NAT 1504] SHERWOOD VILLAGE EAST - 143 MILL ST": {
        "coder": "census",
        "normalized_address": "143 MILL ST, NATICK, MA, 01760",
        "lat": "42.287469",
        "long": "-71.382669"
    },
    "8 MARION ST": {
        "coder": "census",
        "normalized_address": "8 MARION ST, NATICK, MA, 01760",
        "lat": "42.285684",
        "long": "-71.339788"
    },
    "[NAT 4387] LUCID MOTORS - 1245 WORCESTER ST Apt. #3210": {
        "coder": "census",
        "normalized_address": "1245 WORCESTER ST, NATICK, MA, 01760",
        "lat": "42.299500",
        "long": "-71.377749"
    },
    "14 PARKMAN ST": {
        "coder": "census",
        "normalized_address": "14 PARKMAN ST, NATICK, MA, 01760",
        "lat": "42.293059",
        "long": "-71.348664"
    },
    "206 WORCESTER ST": {
        "coder": "census",
        "normalized_address": "206 WORCESTER ST, NATICK, MA, 01760",
        "lat": "42.302616",
        "long": "-71.335377"
    },
    "[NAT 2726] PARTY CITY - 321 WORCESTER ST": {
        "coder": "census",
        "normalized_address": "321 WORCESTER ST, WELLESLEY HILLS, MA, 02481",
        "lat": "42.314497",
        "long": "-71.257116"
    },
    "[NAT 269] COAN INC - 196 WEST CENTRAL ST": {
        "coder": "census",
        "normalized_address": "196 W CENTRAL ST, NATICK, MA, 01760",
        "lat": "42.282236",
        "long": "-71.384638"
    },
    "98 HARTFORD ST": {
        "coder": "census",
        "normalized_address": "98 HARTFORD ST, NATICK, MA, 01760",
        "lat": "42.292163",
        "long": "-71.388557"
    },
    "[NAT 2819] MINADO RESTAURANT - 1290 WORCESTER ST": {
        "coder": "census",
        "normalized_address": "1290 WORCESTER ST, NATICK, MA, 01760",
        "lat": "42.298924",
        "long": "-71.387206"
    },
    "[NAT 2411] NATICK MALL (SOUTH PARKING LOT) - 1245 WORCESTER ST": {
        "coder": "census",
        "normalized_address": "1245 WORCESTER ST, NATICK, MA, 01760",
        "lat": "42.299500",
        "long": "-71.377749"
    },
    "145 MILL ST": {
        "coder": "census",
        "normalized_address": "145 MILL ST, NATICK, MA, 01760",
        "lat": "42.287571",
        "long": "-71.382764"
    },
    "977 WORCESTER ST": {
        "coder": "census",
        "normalized_address": "977 WORCESTER ST, NATICK, MA, 01760",
        "lat": "42.299675",
        "long": "-71.363445"
    },
    "[NAT 1892] CRATE AND BARREL HOME - 1245 WORCESTER ST Apt. #1086": {
        "coder": "census",
        "normalized_address": "1245 WORCESTER ST, NATICK, MA, 01760",
        "lat": "42.299500",
        "long": "-71.377749"
    },
    "[NAT 1551] NATICK VFW POST 1724 - 113 WEST CENTRAL ST": {
        "coder": "census",
        "normalized_address": "113 W CENTRAL ST, NATICK, MA, 01760",
        "lat": "42.283857",
        "long": "-71.367763"
    },
    "[NAT 1476] MBTA WEST NATICK STATION - 251 WEST CENTRAL ST": {
        "coder": "census",
        "normalized_address": "251 W CENTRAL ST, NATICK, MA, 01760",
        "lat": "42.281827",
        "long": "-71.392458"
    },
    "[NAT 314] 281 WEST CENTRAL ST": {
        "coder": "census",
        "normalized_address": "281 W CENTRAL ST, NATICK, MA, 01760",
        "lat": "42.281797",
        "long": "-71.393095"
    },
    "124 HARTFORD ST ": {
        "coder": "census",
        "normalized_address": "124 HARTFORD ST, NATICK, MA, 01760",
        "lat": "42.291619",
        "long": "-71.390154"
    },
    "27 BRADFORD RD": {
        "coder": "census",
        "normalized_address": "27 BRADFORD RD, NATICK, MA, 01760",
        "lat": "42.310603",
        "long": "-71.349983"
    },
    "190 MILL ST": {
        "coder": "census",
        "normalized_address": "190 MILL ST, NATICK, MA, 01760",
        "lat": "42.291120",
        "long": "-71.388084"
    },
    "18 PLEASANT ST": {
        "coder": "census",
        "normalized_address": "18 PLEASANT ST, NATICK, MA, 01760",
        "lat": "42.298414",
        "long": "-71.356993"
    },
    "59 PINE ST": {
        "coder": "census",
        "normalized_address": "59 PINE ST, NATICK, MA, 01760",
        "lat": "42.314895",
        "long": "-71.353058"
    },
    "[NAT 182] 3 RICHARD RD - 3 RICHARD RD": {
        "coder": "census",
        "normalized_address": "3 RICHARDS RD, NATICK, MA, 01760",
        "lat": "42.307621",
        "long": "-71.349633"
    },
    "313 SPEEN ST": {
        "coder": "census",
        "normalized_address": "313 SPEEN ST, NATICK, MA, 01760",
        "lat": "42.300998",
        "long": "-71.379934"
    },
    "1 NOKOMIS WAY": {
        "coder": "census",
        "normalized_address": "1 NOKOMIS WAY, NATICK, MA, 01760",
        "lat": "42.276694",
        "long": "-71.330653"
    },
    "2 FRANCIS AVE": {
        "coder": "census",
        "normalized_address": "2 FRANCIS AVE, NATICK, MA, 01760",
        "lat": "42.292670",
        "long": "-71.376532"
    },
    "[NAT 2009] A.J. ROSE CARPET & FLOORING - 599 WORCESTER ST": {
        "coder": "census",
        "normalized_address": "599 WORCESTER ST, WELLESLEY HILLS, MA, 02481",
        "lat": "42.308407",
        "long": "-71.286228"
    },
    "891 WORCESTER ST": {
        "coder": "census",
        "normalized_address": "891 WORCESTER ST, WELLESLEY, MA, 02482",
        "lat": "42.305265",
        "long": "-71.315556"
    },
    "570 WORCESTER ST": {
        "coder": "census",
        "normalized_address": "570 WORCESTER ST, NATICK, MA, 01760",
        "lat": "42.301287",
        "long": "-71.346920"
    },
    "[NAT 2983] SUBWAY ( EAST NATICK ) - 189 WORCESTER ST": {
        "coder": "census",
        "normalized_address": "189 WORCESTER ST, NATICK, MA, 01760",
        "lat": "42.303249",
        "long": "-71.333719"
    },
    "[NAT 3645] PGA TOUR SUPERSTORE - 1398 WORCESTER ST": {
        "coder": "census",
        "normalized_address": "1398 WORCESTER ST, NATICK, MA, 01760",
        "lat": "42.298767",
        "long": "-71.391559"
    },
    "241 OAK ST": {
        "coder": "census",
        "normalized_address": "241 OAK ST, NATICK, MA, 01760",
        "lat": "42.316666",
        "long": "-71.340908"
    },
    "12 LINCOLN SOUTH ST": {
        "coder": "census",
        "normalized_address": "12 LINCOLN ST S, NATICK, MA, 01760",
        "lat": "42.274318",
        "long": "-71.312360"
    },
    "[NAT 1066] DUNKIN DONUTS - 249 NORTH MAIN ST": {
        "coder": "census",
        "normalized_address": "249 N MAIN ST, NATICK, MA, 01760",
        "lat": "42.307208",
        "long": "-71.361708"
    },
    "23 PHILLIPS POND RD": {
        "coder": "census",
        "normalized_address": "23 PHILLIPS POND RD, NATICK, MA, 01760",
        "lat": "42.258785",
        "long": "-71.317211"
    },
    "1 PHILLIPS POND RD ": {
        "coder": "census",
        "normalized_address": "1 PHILLIPS POND RD, NATICK, MA, 01760",
        "lat": "42.260607",
        "long": "-71.318651"
    },
    "[NAT 860] PIERCE COLLISION - 135 WEST CENTRAL ST": {
        "coder": "census",
        "normalized_address": "135 W CENTRAL ST, NATICK, MA, 01760",
        "lat": "42.283208",
        "long": "-71.371980"
    },
    "3 GLEN ST ": {
        "coder": "census",
        "normalized_address": "3 GLEN ST, NATICK, MA, 01760",
        "lat": "42.269460",
        "long": "-71.314041"
    },
    "37 CURVE ST": {
        "coder": "census",
        "normalized_address": "37 CURVE ST, NATICK, MA, 01760",
        "lat": "42.276771",
        "long": "-71.355528"
    },
    "[NAT 2688] COURTYARD BY MARRIOTT - 342 SPEEN ST Apt. #521": {
        "coder": "census",
        "normalized_address": "342 SPEEN ST, NATICK, MA, 01760",
        "lat": "42.300749",
        "long": "-71.379948"
    },
    "21 VILLAGE ROCK LN": {
        "coder": "census",
        "normalized_address": "21 VILLAGE ROCK LN, NATICK, MA, 01760",
        "lat": "42.278482",
        "long": "-71.394655"
    },
    "3 LAKEVIEW GARDENS Apt. #403": {
        "coder": "census",
        "normalized_address": "3 LAKEVIEW AVE, NATICK, MA, 01760",
        "lat": "42.277642",
        "long": "-71.370215"
    },
    "3 HARDWICK RD": {
        "coder": "census",
        "normalized_address": "3 HARDWICK RD, NATICK, MA, 01760",
        "lat": "42.293986",
        "long": "-71.392453"
    },
    "24 WILSON ST ": {
        "coder": "census",
        "normalized_address": "24 WILSON ST, NATICK, MA, 01760",
        "lat": "42.284064",
        "long": "-71.342775"
    },
    "34 WALNUT ST": {
        "coder": "census",
        "normalized_address": "34 WALNUT ST, NATICK, MA, 01760",
        "lat": "42.287894",
        "long": "-71.348012"
    },
    "[NAT 4444] 76 MARION ST - 76 MARION ST Apt. #ST": {
        "coder": "census",
        "normalized_address": "76 MARION ST, NATICK, MA, 01760",
        "lat": "42.291557",
        "long": "-71.337800"
    },
    "[NAT 2420] GUITAR CENTER - 321 SPEEN ST": {
        "coder": "census",
        "normalized_address": "321 SPEEN ST, NATICK, MA, 01760",
        "lat": "42.301013",
        "long": "-71.379943"
    },
    "62 POND ST": {
        "coder": "census",
        "normalized_address": "62 POND ST, NATICK, MA, 01760",
        "lat": "42.281628",
        "long": "-71.352217"
    },
    "74 CEDAR AVE Apt. #D": {
        "coder": "census",
        "normalized_address": "74 CEDAR AVE, NATICK, MA, 01760",
        "lat": "42.274988",
        "long": "-71.356374"
    },
    "[NAT 2222] SALON 4 - 15 WATSON ST": {
        "coder": "census",
        "normalized_address": "15 WATSON ST, NATICK, MA, 01760",
        "lat": "42.282307",
        "long": "-71.377754"
    },
    "135 WEST CENTRAL ST": {
        "coder": "census",
        "normalized_address": "135 W CENTRAL ST, NATICK, MA, 01760",
        "lat": "42.283208",
        "long": "-71.371980"
    },
    "[NAT 3983] UNIQLO - 1245 WORCESTER ST Apt. #3084": {
        "coder": "census",
        "normalized_address": "1245 WORCESTER ST, NATICK, MA, 01760",
        "lat": "42.299500",
        "long": "-71.377749"
    },
    "19 VILLAGE HILL LN Apt. #8": {
        "coder": "census",
        "normalized_address": "19 VILLAGE HILL LN, NATICK, MA, 01760",
        "lat": "42.275982",
        "long": "-71.394349"
    },
    "46 BEACON ST": {
        "coder": "census",
        "normalized_address": "46 BEACON ST, NATICK, MA, 01760",
        "lat": "42.295574",
        "long": "-71.353406"
    },
    "[NAT 764] NATICK GAS & SERVICE - 225 NORTH MAIN ST": {
        "coder": "census",
        "normalized_address": "225 N MAIN ST, NATICK, MA, 01760",
        "lat": "42.303141",
        "long": "-71.361279"
    },
    "5 RANGER RD": {
        "coder": "census",
        "normalized_address": "5 RANGER RD, NATICK, MA, 01760",
        "lat": "42.286934",
        "long": "-71.390378"
    },
    "16 PURINGTON AVE": {
        "coder": "census",
        "normalized_address": "16 PURINGTON AVE, NATICK, MA, 01760",
        "lat": "42.294874",
        "long": "-71.374325"
    },
    "164 WEST CENTRAL ST": {
        "coder": "census",
        "normalized_address": "164 W CENTRAL ST, NATICK, MA, 01760",
        "lat": "42.282470",
        "long": "-71.379061"
    },
    "20 OXFORD ST": {
        "coder": "census",
        "normalized_address": "20 OXFORD ST, NATICK, MA, 01760",
        "lat": "42.307286",
        "long": "-71.330867"
    },
    "5 COMMONWEALTH WEST RD": {
        "coder": "census",
        "normalized_address": "5 COMMONWEALTH RD, NATICK, MA, 01760",
        "lat": "42.308705",
        "long": "-71.382072"
    },
    "[NAT 4165] ADVANCE AUTO PARTS - 219 NORTH MAIN ST": {
        "coder": "census",
        "normalized_address": "219 N MAIN ST, NATICK, MA, 01760",
        "lat": "42.303076",
        "long": "-71.361265"
    },
    "86 NORTH MAIN ST": {
        "coder": "census",
        "normalized_address": "86 N MAIN ST, NATICK, MA, 01760",
        "lat": "42.290427",
        "long": "-71.354797"
    },
    "[NAT 2371] SHERWOOD PLAZA (EAST) - 1298 WORCESTER ST": {
        "coder": "census",
        "normalized_address": "1298 WORCESTER ST, NATICK, MA, 01760",
        "lat": "42.298923",
        "long": "-71.387223"
    },
    "114 GLEN ST ": {
        "coder": "census",
        "normalized_address": "114 GLEN ST, NATICK, MA, 01760",
        "lat": "42.257751",
        "long": "-71.315576"
    },
    "1364 WORCESTER ST": {
        "coder": "census",
        "normalized_address": "1364 WORCESTER ST, NATICK, MA, 01760",
        "lat": "42.298770",
        "long": "-71.391463"
    },
    "[NAT 3222] CHEESECAKE FACTORY - 1245 WORCESTER ST Apt. #1098": {
        "coder": "census",
        "normalized_address": "1245 WORCESTER ST, NATICK, MA, 01760",
        "lat": "42.299500",
        "long": "-71.377749"
    },
    "72 SPEEN ST": {
        "coder": "census",
        "normalized_address": "72 SPEEN ST, NATICK, MA, 01760",
        "lat": "42.277044",
        "long": "-71.376862"
    },
    "[NAT 3616] AVALON NATICK - CLUBHOUSE - 3 CHRYSLER RD": {
        "coder": "census",
        "normalized_address": "3 CHRYSLER RD, NATICK, MA, 01760",
        "lat": "42.305152",
        "long": "-71.381969"
    },
    "225 OAK ST ": {
        "coder": "census",
        "normalized_address": "225 OAK ST, NATICK, MA, 01760",
        "lat": "42.315369",
        "long": "-71.340069"
    },
    "[NAT 2688] COURTYARD BY MARRIOTT - 342 SPEEN ST": {
        "coder": "census",
        "normalized_address": "342 SPEEN ST, NATICK, MA, 01760",
        "lat": "42.300749",
        "long": "-71.379948"
    },
    "14 SOUTH AVE ": {
        "coder": "census",
        "normalized_address": "14 SOUTH AVE, NATICK, MA, 01760",
        "lat": "42.285567",
        "long": "-71.345200"
    },
    "[NAT 3298] NATICK FIREPLACE - 671 WORCESTER ST": {
        "coder": "census",
        "normalized_address": "671 WORCESTER ST, WELLESLEY HILLS, MA, 02481",
        "lat": "42.306450",
        "long": "-71.295256"
    },
    "55 FISHER ST": {
        "coder": "census",
        "normalized_address": "55 FISHER ST, NATICK, MA, 01760",
        "lat": "42.293679",
        "long": "-71.366168"
    },
    "24 TERRANE AVE ": {
        "coder": "census",
        "normalized_address": "24 TERRANE AVE, NATICK, MA, 01760",
        "lat": "42.305349",
        "long": "-71.353970"
    },
    "[NAT 1238] PUMPING STATION - 1080 WORCESTER ST": {
        "coder": "census",
        "normalized_address": "1080 WORCESTER ST, NATICK, MA, 01760",
        "lat": "42.298426",
        "long": "-71.370126"
    },
    "[NAT 1202] MAHAN FIELD - 90 WEST ST": {
        "coder": "census",
        "normalized_address": "90 WEST ST, NATICK, MA, 01760",
        "lat": "42.268943",
        "long": "-71.359823"
    },
    "74 SUMMER ST": {
        "coder": "census",
        "normalized_address": "74 SUMMER ST, NATICK, MA, 01760",
        "lat": "42.284043",
        "long": "-71.350984"
    },
    "[NAT 395] 313 SPEEN OFFICE BLDG - 313 SPEEN ST": {
        "coder": "census",
        "normalized_address": "313 SPEEN ST, NATICK, MA, 01760",
        "lat": "42.300998",
        "long": "-71.379934"
    },
    "274 ELIOT ST": {
        "coder": "census",
        "normalized_address": "274 ELIOT ST, NATICK, MA, 01760",
        "lat": "42.257521",
        "long": "-71.337138"
    },
    "[NAT 124] 116 ELIOT ST - 116 ELIOT ST": {
        "coder": "census",
        "normalized_address": "116 ELIOT ST, NATICK, MA, 01760",
        "lat": "42.268650",
        "long": "-71.320060"
    },
    "[NAT 1550] JOHN EVERETT AND SONS FUNERAL HOME - 4 PARK ST": {
        "coder": "census",
        "normalized_address": "4 PARK ST, NATICK, MA, 01760",
        "lat": "42.283897",
        "long": "-71.346185"
    },
    "[NAT 3817] BOSTONWEST VETERINARY EMERGENCY & SPECIALTY - 5 STRATHMORE RD": {
        "coder": "census",
        "normalized_address": "5 STRATHMORE RD, NATICK, MA, 01760",
        "lat": "42.296412",
        "long": "-71.389945"
    },
    "106 CEDAR AVE Apt. #C": {
        "coder": "census",
        "normalized_address": "106 CEDAR AVE, NATICK, MA, 01760",
        "lat": "42.275119",
        "long": "-71.356587"
    },
    "13 SOUTH AVE": {
        "coder": "census",
        "normalized_address": "13 SOUTH AVE, NATICK, MA, 01760",
        "lat": "42.285318",
        "long": "-71.346359"
    },
    "52 PILGRIM RD": {
        "coder": "census",
        "normalized_address": "52 PILGRIM RD, NATICK, MA, 01760",
        "lat": "42.287208",
        "long": "-71.388975"
    },
    "[NAT 4036] RICE THEORY - 381 WORCESTER ST": {
        "coder": "census",
        "normalized_address": "381 WORCESTER ST, WELLESLEY HILLS, MA, 02481",
        "lat": "42.314702",
        "long": "-71.268652"
    },
    "[NAT 2223] LAUNDRY LOFT - 19 WATSON ST": {
        "coder": "census",
        "normalized_address": "19 WATSON ST, NATICK, MA, 01760",
        "lat": "42.282253",
        "long": "-71.377759"
    },
    "294 WEST CENTRAL ST": {
        "coder": "census",
        "normalized_address": "294 W CENTRAL ST, NATICK, MA, 01760",
        "lat": "42.281195",
        "long": "-71.396348"
    },
    "[NAT 4174] BUTTERCUP - 13 WEST CENTRAL ST": {
        "coder": "census",
        "normalized_address": "13 W CENTRAL ST, NATICK, MA, 01760",
        "lat": "42.283720",
        "long": "-71.348352"
    },
    "[NAT 2066] NATICK CLEANERS - 13 WATSON ST": {
        "coder": "census",
        "normalized_address": "13 WATSON ST, NATICK, MA, 01760",
        "lat": "42.282334",
        "long": "-71.377752"
    },
    "[NAT 868] WALGREEN DRUG STORE - 148 WEST CENTRAL ST": {
        "coder": "census",
        "normalized_address": "148 W CENTRAL ST, NATICK, MA, 01760",
        "lat": "42.282485",
        "long": "-71.378093"
    },
    "[NAT 3404] AVALON NATICK APARTMENTS - 1 CHRYSLER RD Apt. #702": {
        "coder": "census",
        "normalized_address": "1 CHRYSLER RD, NATICK, MA, 01760",
        "lat": "42.305133",
        "long": "-71.382036"
    },
    "[NAT 596] 4 WELLESLEY RD": {
        "coder": "census",
        "normalized_address": "4 WELLESLEY RD, NATICK, MA, 01760",
        "lat": "42.304037",
        "long": "-71.331307"
    },
    "108 CEDAR AVE": {
        "coder": "census",
        "normalized_address": "108 CEDAR AVE, NATICK, MA, 01760",
        "lat": "42.274638",
        "long": "-71.356382"
    },
    "5 NORTHWOOD LN": {
        "coder": "census",
        "normalized_address": "5 NORTHWOOD LN, WAYLAND, MA, 01778",
        "lat": "42.331829",
        "long": "-71.331184"
    },
    "[NAT 2418] UNIVERSITY OFFICE BUILD. ASSOC - 190 NORTH MAIN ST": {
        "coder": "census",
        "normalized_address": "190 N MAIN ST, NATICK, MA, 01760",
        "lat": "42.298626",
        "long": "-71.359458"
    },
    "[NAT 4335] CHASE ATM - 219 NORTH MAIN ST": {
        "coder": "census",
        "normalized_address": "219 N MAIN ST, NATICK, MA, 01760",
        "lat": "42.303076",
        "long": "-71.361265"
    },
    "[NAT 4011] DUNKIN DONUTS - 119 WEST CENTRAL ST Apt. #1-A": {
        "coder": "census",
        "normalized_address": "119 W CENTRAL ST, NATICK, MA, 01760",
        "lat": "42.283715",
        "long": "-71.368930"
    },
    "[NAT 3780] 77 KIDS - 1245 WORCESTER ST Apt. #2084": {
        "coder": "census",
        "normalized_address": "1245 WORCESTER ST, NATICK, MA, 01760",
        "lat": "42.299500",
        "long": "-71.377749"
    },
    "[NAT 937] OGA'S JAPANESE CUISINE - 915 WORCESTER ST": {
        "coder": "census",
        "normalized_address": "915 WORCESTER ST, NATICK, MA, 01760",
        "lat": "42.299876",
        "long": "-71.361849"
    },
    "[NAT 3576] 10 DURANT RD - 10 DURANT RD Apt. #A": {
        "coder": "census",
        "normalized_address": "10 DURANT RD, NATICK, MA, 01760",
        "lat": "42.274940",
        "long": "-71.360645"
    },
    "[NAT 372] MIDDLESEX SAVINGS BANK ( MAIN OFFICE) - 6 MAIN ST": {
        "coder": "census",
        "normalized_address": "6 MAIN ST, NATICK, MA, 01760",
        "lat": "42.284035",
        "long": "-71.347246"
    },
    "[NAT 602] SHERWOOD VILLAGE WEST - 145 MILL ST": {
        "coder": "census",
        "normalized_address": "145 MILL ST, NATICK, MA, 01760",
        "lat": "42.287571",
        "long": "-71.382764"
    },
    "12 LARKSPUR WAY Apt. #5": {
        "coder": "census",
        "normalized_address": "12 LARKSPUR WAY, NATICK, MA, 01760",
        "lat": "42.278309",
        "long": "-71.390350"
    },
    "[NAT 3824] SALON CENTRIC - 1400 WORCESTER ST": {
        "coder": "census",
        "normalized_address": "1400 WORCESTER ST, NATICK, MA, 01760",
        "lat": "42.298767",
        "long": "-71.391565"
    },
    "59 LINCOLN STREET EXT": {
        "coder": "census",
        "normalized_address": "59 LINCOLN ST, NATICK, MA, 01760",
        "lat": "42.283066",
        "long": "-71.343792"
    },